timestamp,data_rate,rate_multiplier,tx_rate_avg,tx_error_rate_avg,tx_message_count,tx_buffer_overruns,rx_rate_avg,rx_message_count,rx_message_lost_count,rx_buffer_overruns,rx_parse_errors,rx_packet_drop_count,rx_message_lost_rate,type,mode,flow_control,forwarding,mavlink_v2,ftp,streams,heartbeat_type_antenna_tracker,heartbeat_type_gcs,heartbeat_type_onboard_controller,heartbeat_type_gimbal,heartbeat_type_adsb,heartbeat_type_camera,heartbeat_component_telemetry_radio,heartbeat_component_log,heartbeat_component_osd,heartbeat_component_obstacle_avoidance,heartbeat_component_vio,heartbeat_component_pairing_manager,heartbeat_component_udp_bridge,heartbeat_component_uart_bridge,avoidance_system_healthy
186680827,2880.0,1.0,1340.6044,0.0,5937,13,41.95632,327,22,0,0,0,0.06727829,0,0,0,1,1,1,47,0,1,0,0,0,0,0,0,0,0,0,0,0,0,0
187438753,2880.0,1.0,1427.7751,0.0,5957,13,41.876087,328,22,0,0,0,0.067073174,0,0,0,1,1,1,47,0,1,0,0,0,0,0,0,0,0,0,0,0,0,0
187772646,2880.0,1.0,1427.7751,0.0,5972,13,41.876087,329,22,0,0,0,0.0668693,0,0,0,1,1,1,47,0,1,0,0,0,0,0,0,0,0,0,0,0,0,0
188757851,2880.0,1.0,1348.2605,0.0,6003,13,41.821964,331,22,0,0,0,0.06646526,0,0,0,1,1,1,47,0,1,0,0,0,0,0,0,0,0,0,0,0,0,0
189518577,2880.0,1.0,1234.0887,0.0,6025,13,41.79978,332,22,0,0,0,0.06626506,0,0,0,1,1,1,47,0,1,0,0,0,0,0,0,0,0,0,0,0,0,0
190759571,2880.0,1.0,1352.715,0.0,6067,13,41.96014,335,22,0,0,0,0.065671645,0,0,0,1,1,1,47,0,1,0,0,0,0,0,0,0,0,0,0,0,0,0
191764672,2880.0,1.0,1238.7104,0.0,6102,13,41.95632,338,22,0,0,0,0.06508876,0,0,0,1,1,1,47,0,1,0,0,0,0,0,0,0,0,0,0,0,0,0
192845013,2880.0,1.0,1406.9564,0.0,6135,13,67.997894,340,22,0,0,0,0.064705886,0,0,0,1,1,1,47,0,1,0,0,0,0,0,0,0,0,0,0,0,0,0
193760563,2880.0,1.0,1238.8503,0.0,6166,13,41.96106,342,22,0,0,0,0.064327486,0,0,0,1,1,1,47,0,1,0,0,0,0,0,0,0,0,0,0,0,0,0
194765822,2880.0,1.0,1353.9905,0.0,6197,13,41.999706,344,22,0,0,0,0.06395349,0,0,0,1,1,1,47,0,1,0,0,0,0,0,0,0,0,0,0,0,0,0
195521699,2880.0,1.0,1239.4324,0.0,6219,13,41.980774,345,22,0,0,0,0.06376812,0,0,0,1,1,1,47,0,1,0,0,0,0,0,0,0,0,0,0,0,0,0
196281699,2880.0,1.0,1353.272,0.0,6243,13,20.988708,346,22,0,0,0,0.06358381,0,0,0,1,1,1,47,0,0,0,0,0,0,0,0,0,0,0,0,0,0,0
197772564,2880.0,1.0,1239.4819,0.0,6294,13,41.982452,349,22,0,0,0,0.06303725,0,0,0,1,1,1,47,0,1,0,0,0,0,0,0,0,0,0,0,0,0,0
198817701,2880.0,1.0,1353.2164,0.0,6327,13,41.975697,351,22,0,0,0,0.06267806,0,0,0,1,1,1,47,0,1,0,0,0,0,0,0,0,0,0,0,0,0,0
199843871,2880.0,1.0,1239.4113,0.0,6360,13,41.980057,353,22,0,0,0,0.062322944,0,0,0,1,1,1,47,0,1,0,0,0,0,0,0,0,0,0,0,0,0,0
200598661,2880.0,1.0,1353.2896,0.0,6381,13,41.977962,354,22,0,0,0,0.06214689,0,0,0,1,1,1,47,0,1,0,0,0,0,0,0,0,0,0,0,0,0,0
201839573,2880.0,1.0,1238.7612,0.0,6426,13,41.95804,358,22,0,0,0,0.061452515,0,0,0,1,1,1,47,0,1,0,0,0,0,0,0,0,0,0,0,0,0,0
202599577,2880.0,1.0,1406.9958,0.0,6447,13,67.999794,359,22,0,0,0,0.06128134,0,0,0,1,1,1,47,0,1,0,0,0,0,0,0,0,0,0,0,0,0,0
203600582,2880.0,1.0,1239.6442,0.0,6480,13,41.987946,361,22,0,0,0,0.060941827,0,0,0,1,1,1,47,0,1,0,0,0,0,0,0,0,0,0,0,0,0,0
204840624,2880.0,1.0,1353.0298,0.0,6521,13,41.969906,364,22,0,0,0,0.06043956,0,0,0,1,1,1,47,0,1,0,0,0,0,0,0,0,0,0,0,0,0,0
205596678,2880.0,1.0,1239.7472,0.0,6544,13,41.991436,365,22,0,0,0,0.06027397,0,0,0,1,1,1,47,0,1,0,0,0,0,0,0,0,0,0,0,0,0,0
206601809,2880.0,1.0,1352.9325,0.0,6575,13,41.966885,367,22,0,0,0,0.059945505,0,0,0,1,1,1,47,0,1,0,0,0,0,0,0,0,0,0,0,0,0,0
207667761,2880.0,1.0,1239.9355,0.0,6614,13,41.997818,369,22,0,0,0,0.059620596,0,0,0,1,1,1,47,0,1,0,0,0,0,0,0,0,0,0,0,0,0,0
208682571,2880.0,1.0,1352.7177,0.0,6645,13,41.960224,371,22,0,0,0,0.05929919,0,0,0,1,1,1,47,0,1,0,0,0,0,0,0,0,0,0,0,0,0,0
209748839,2880.0,1.0,1239.7198,0.0,6680,13,32.992542,373,22,0,0,0,0.058981232,0,0,0,1,1,1,47,0,1,0,0,0,0,0,0,0,0,0,0,0,0,0
210498805,2880.0,1.0,1352.8973,0.0,6700,13,29.975569,374,22,0,0,0,0.05882353,0,0,0,1,1,1,47,0,0,0,0,0,0,0,0,0,0,0,0,0,0,0
211684811,2880.0,1.0,1239.9591,0.0,6744,13,62.99792,378,22,0,0,0,0.05820106,0,0,0,1,1,1,47,0,1,0,0,0,0,0,0,0,0,0,0,0,0,0
212754567,2880.0,1.0,1405.631,0.0,6777,13,55.94551,380,22,0,0,0,0.057894737,0,0,0,1,1,1,47,0,1,0,0,0,0,0,0,0,0,0,0,0,0,0
213674864,2880.0,1.0,1273.6826,0.0,6808,13,53.733486,382,22,0,0,0,0.057591625,0,0,0,1,1,1,47,0,1,0,0,0,0,0,0,0,0,0,0,0,0,0
214695574,2880.0,1.0,1352.6487,0.0,6840,13,41.958084,384,22,0,0,0,0.057291668,0,0,0,1,1,1,47,0,1,0,0,0,0,0,0,0,0,0,0,0,0,0
215750814,2880.0,1.0,1239.881,0.0,6874,13,34.996643,386,22,0,0,0,0.05699482,0,0,0,1,1,1,47,0,1,0,0,0,0,0,0,0,0,0,0,0,0,0
216691862,2880.0,1.0,1352.7001,0.0,6904,13,48.952957,388,22,0,0,0,0.05670103,0,0,0,1,1,1,47,0,1,0,0,0,0,0,0,0,0,0,0,0,0,0
217692193,2880.0,1.0,1239.726,0.0,6937,13,41.99072,390,22,0,0,0,0.056410257,0,0,0,1,1,1,47,0,1,0,0,0,0,0,0,0,0,0,0,0,0,0
218757778,2880.0,1.0,1352.9528,0.0,6969,13,29.976797,392,22,0,0,0,0.05612245,0,0,0,1,1,1,47,0,1,0,0,0,0,0,0,0,0,0,0,0,0,0
219687929,2880.0,1.0,1233.9044,0.0,7000,13,53.73455,394,22,0,0,0,0.055837564,0,0,0,1,1,1,47,0,1,0,0,0,0,0,0,0,0,0,0,0,0,0
220698687,2880.0,1.0,1353.996,0.0,7032,13,41.999874,396,22,0,0,0,0.055555556,0,0,0,1,1,1,47,0,1,0,0,0,0,0,0,0,0,0,0,0,0,0
221754618,2880.0,1.0,1238.765,0.0,7068,13,41.958168,399,22,0,0,0,0.055137843,0,0,0,1,1,1,47,0,1,0,0,0,0,0,0,0,0,0,0,0,0,0
222699664,2880.0,1.0,1405.5944,0.0,7098,13,67.93207,401,22,0,0,0,0.054862842,0,0,0,1,1,1,47,0,1,0,0,0,0,0,0,0,0,0,0,0,0,0
223700005,2880.0,1.0,1239.8983,0.0,7131,13,41.996555,403,22,0,0,0,0.05459057,0,0,0,1,1,1,47,0,1,0,0,0,0,0,0,0,0,0,0,0,0,0
224770879,2880.0,1.0,1352.5474,0.0,7163,13,27.969961,405,22,0,0,0,0.054320987,0,0,0,1,1,1,47,0,1,0,0,0,0,0,0,0,0,0,0,0,0,0
225781016,2880.0,1.0,1233.875,0.0,7196,13,34.827118,407,22,0,0,0,0.054054055,0,0,0,1,1,1,47,0,1,0,0,0,0,0,0,0,0,0,0,0,0,0
226836567,2880.0,1.0,1353.6412,0.0,7229,13,41.988873,409,22,0,0,0,0.05378973,0,0,0,1,1,1,47,0,1,0,0,0,0,0,0,0,0,0,0,0,0,0
227761994,2880.0,1.0,1239.2379,0.0,7260,13,62.961277,411,22,0,0,0,0.05352798,0,0,0,1,1,1,47,0,1,0,0,0,0,0,0,0,0,0,0,0,0,0
228787615,2880.0,1.0,1352.6473,0.0,7291,13,20.97902,413,22,0,0,0,0.053268764,0,0,0,1,1,1,47,0,1,0,0,0,0,0,0,0,0,0,0,0,0,0
229592879,2880.0,1.0,1233.6664,0.0,7316,13,41.785473,415,22,0,0,0,0.053012047,0,0,0,1,1,1,47,0,1,0,0,0,0,0,0,0,0,0,0,0,0,0
230768688,2880.0,1.0,1353.7131,0.0,7355,13,62.98665,417,22,0,0,0,0.052757792,0,0,0,1,1,1,47,0,1,0,0,0,0,0,0,0,0,0,0,0,0,0
231788746,2880.0,1.0,1239.1177,0.0,7390,13,20.985058,420,22,0,0,0,0.052380953,0,0,0,1,1,1,47,0,1,0,0,0,0,0,0,0,0,0,0,0,0,0
232094100,2880.0,1.0,1406.6807,0.0,7399,13,67.984566,421,22,0,0,0,0.052256532,0,0,0,1,1,1,47,0,1,0,0,0,0,0,0,0,0,0,0,0,0,0
233109619,2880.0,1.0,1239.1041,0.0,7430,13,41.969654,423,22,0,0,0,0.052009456,0,0,0,1,1,1,47,0,1,0,0,0,0,0,0,0,0,0,0,0,0,0
234785622,2880.0,1.0,1353.736,0.0,7485,13,41.99181,426,22,0,0,0,0.051643193,0,0,0,1,1,1,47,0,1,0,0,0,0,0,0,0,0,0,0,0,0,0
235096139,2880.0,1.0,1239.0112,0.0,7494,13,41.96651,427,22,0,0,0,0.051522247,0,0,0,1,1,1,47,0,1,0,0,0,0,0,0,0,0,0,0,0,0,0
236111169,2880.0,1.0,1353.7131,0.0,7527,13,41.9911,429,22,0,0,0,0.051282052,0,0,0,1,1,1,47,0,1,0,0,0,0,0,0,0,0,0,0,0,0,0
237182163,2880.0,1.0,1239.0237,0.0,7559,13,41.96693,431,22,0,0,0,0.051044084,0,0,0,1,1,1,47,0,1,0,0,0,0,0,0,0,0,0,0,0,0,0
238097784,2880.0,1.0,1353.18,0.0,7591,13,41.974567,433,22,0,0,0,0.050808314,0,0,0,1,1,1,47,0,1,0,0,0,0,0,0,0,0,0,0,0,0,0
239112628,2880.0,1.0,1239.5128,0.0,7622,13,41.983498,435,22,0,0,0,0.050574712,0,0,0,1,1,1,47,0,1,0,0,0,0,0,0,0,0,0,0,0,0,0
240623631,2880.0,1.0,1352.646,0.0,7669,13,41.958,437,22,0,0,0,0.05034325,0,0,0,1,1,1,47,0,0,0,0,0,0,0,0,0,0,0,0,0,0,0
241099039,2880.0,1.0,1233.4896,0.0,7686,13,20.889744,438,23,0,0,0,0.052511416,0,0,0,1,1,1,47,0,1,0,0,0,0,0,0,0,0,0,0,0,0,0
242114651,2880.0,1.0,1405.9849,0.0,7721,13,67.950935,441,23,0,0,0,0.052154195,0,0,0,1,1,1,47,0,1,0,0,0,0,0,0,0,0,0,0,0,0,0
243184629,2880.0,1.0,1239.8314,0.0,7753,13,41.99429,443,23,0,0,0,0.051918738,0,0,0,1,1,1,47,0,1,0,0,0,0,0,0,0,0,0,0,0,0,0
244100765,2880.0,1.0,1352.7433,0.0,7785,13,41.961018,445,23,0,0,0,0.051685393,0,0,0,1,1,1,47,0,1,0,0,0,0,0,0,0,0,0,0,0,0,0
245120572,2880.0,1.0,1233.912,0.0,7816,13,41.793793,447,23,0,0,0,0.051454138,0,0,0,1,1,1,47,0,1,0,0,0,0,0,0,0,0,0,0,0,0,0
246186566,2880.0,1.0,1353.6792,0.0,7850,13,41.990047,449,23,0,0,0,0.051224943,0,0,0,1,1,1,47,0,1,0,0,0,0,0,0,0,0,0,0,0,0,0
247196648,2880.0,1.0,1239.0026,0.0,7882,13,41.966217,451,23,0,0,0,0.050997782,0,0,0,1,1,1,47,0,1,0,0,0,0,0,0,0,0,0,0,0,0,0
248122735,2880.0,1.0,1352.7028,0.0,7913,13,41.95976,453,23,0,0,0,0.050772626,0,0,0,1,1,1,47,0,1,0,0,0,0,0,0,0,0,0,0,0,0,0
249187622,2880.0,1.0,1239.9666,0.0,7945,13,41.998867,455,23,0,0,0,0.05054945,0,0,0,1,1,1,47,0,1,0,0,0,0,0,0,0,0,0,0,0,0,0
250198822,2880.0,1.0,1352.6838,0.0,7979,13,41.959175,457,23,0,0,0,0.05032823,0,0,0,1,1,1,47,0,1,0,0,0,0,0,0,0,0,0,0,0,0,0
251263785,2880.0,1.0,1233.8308,0.0,8014,13,41.791046,460,23,0,0,0,0.05,0,0,0,1,1,1,47,0,1,0,0,0,0,0,0,0,0,0,0,0,0,0
252193913,2880.0,1.0,1408.9874,0.0,8045,13,67.99939,462,23,0,0,0,0.04978355,0,0,0,1,1,1,47,0,1,0,0,0,0,0,0,0,0,0,0,0,0,0
253204774,2880.0,1.0,1267.7322,0.0,8076,13,41.95804,464,23,0,0,0,0.049568966,0,0,0,1,1,1,47,0,1,0,0,0,0,0,0,0,0,0,0,0,0,0
254255395,2880.0,1.0,1347.2771,0.0,8110,13,41.791462,467,23,0,0,0,0.049250536,0,0,0,1,1,1,47,0,1,0,0,0,0,0,0,0,0,0,0,0,0,0
255195682,2880.0,1.0,1238.76,0.0,8140,13,41.958,468,23,0,0,0,0.0491453,0,0,0,1,1,1,47,0,1,0,0,0,0,0,0,0,0,0,0,0,0,0
256205921,2880.0,1.0,1353.483,0.0,8173,13,41.983963,470,23,0,0,0,0.04893617,0,0,0,1,1,1,47,0,1,0,0,0,0,0,0,0,0,0,0,0,0,0
257261913,2880.0,1.0,1238.8937,0.0,8206,13,41.96253,473,23,0,0,0,0.048625793,0,0,0,1,1,1,47,0,1,0,0,0,0,0,0,0,0,0,0,0,0,0
258197804,2880.0,1.0,1347.6338,0.0,8237,13,41.802525,474,23,0,0,0,0.048523206,0,0,0,1,1,1,47,0,1,0,0,0,0,0,0,0,0,0,0,0,0,0
259207883,2880.0,1.0,1238.76,0.0,8268,13,41.958,476,23,0,0,0,0.04831933,0,0,0,1,1,1,47,0,1,0,0,0,0,0,0,0,0,0,0,0,0,0
260263629,2880.0,1.0,1352.5406,0.0,8303,13,41.95473,479,23,0,0,0,0.0480167,0,0,0,1,1,1,47,0,1,0,0,0,0,0,0,0,0,0,0,0,0,0
261288744,2880.0,1.0,1273.7333,0.0,8336,13,41.794373,480,23,0,0,0,0.047916666,0,0,0,1,1,1,47,0,1,0,0,0,0,0,0,0,0,0,0,0,0,0
262209570,2880.0,1.0,1411.587,0.0,8367,13,67.932,483,23,0,0,0,0.04761905,0,0,0,1,1,1,47,0,1,0,0,0,0,0,0,0,0,0,0,0,0,0
263265612,2880.0,1.0,1247.6506,0.0,8400,13,41.988243,486,23,0,0,0,0.047325104,0,0,0,1,1,1,47,0,1,0,0,0,0,0,0,0,0,0,0,0,0,0
264290825,2880.0,1.0,1424.9655,0.0,8435,13,41.969532,487,23,0,0,0,0.047227927,0,0,0,1,1,1,47,0,1,0,0,0,0,0,0,0,0,0,0,0,0,0
265409400,2880.0,1.0,1239.321,0.0,8469,13,41.70792,489,23,0,0,0,0.047034767,0,0,0,1,1,1,47,0,1,0,0,0,0,0,0,0,0,0,0,0,0,0
266264666,2880.0,1.0,1359.2936,0.0,8498,13,20.958271,491,23,0,0,0,0.04684318,0,0,0,1,1,1,47,0,1,0,0,0,0,0,0,0,0,0,0,0,0,0
267294728,2880.0,1.0,1311.9331,0.0,8532,13,41.997856,492,23,0,0,0,0.046747968,0,0,0,1,1,1,47,0,1,0,0,0,0,0,0,0,0,0,0,0,0,0
268371057,2880.0,1.0,1362.5544,0.0,8566,13,41.98627,495,23,0,0,0,0.046464648,0,0,0,1,1,1,47,0,1,0,0,0,0,0,0,0,0,0,0,0,0,0
269275673,2880.0,1.0,1245.9406,0.0,8594,13,41.93069,497,23,0,0,0,0.046277665,0,0,0,1,1,1,47,0,1,0,0,0,0,0,0,0,0,0,0,0,0,0
270296260,2880.0,1.0,1362.8583,0.0,8629,13,41.995636,498,23,0,0,0,0.046184737,0,0,0,1,1,1,47,0,1,0,0,0,0,0,0,0,0,0,0,0,0,0
271386897,2880.0,1.0,1241.2971,0.0,8663,13,41.77442,501,23,0,0,0,0.045908183,0,0,0,1,1,1,47,0,1,0,0,0,0,0,0,0,0,0,0,0,0,0
272277355,2880.0,1.0,1414.2024,0.0,8693,13,41.976326,503,23,0,0,0,0.045725647,0,0,0,1,1,1,47,0,1,0,0,0,0,0,0,0,0,0,0,0,0,0
273298679,2880.0,1.0,1243.1516,0.0,8726,13,41.836834,504,23,0,0,0,0.04563492,0,0,0,1,1,1,47,0,1,0,0,0,0,0,0,0,0,0,0,0,0,0
274368405,2880.0,1.0,1361.073,0.0,8760,13,41.971416,507,23,0,0,0,0.04536489,0,0,0,1,1,1,47,0,1,0,0,0,0,0,0,0,0,0,0,0,0,0
275378612,2880.0,1.0,1247.4935,0.0,8791,13,41.982952,509,23,0,0,0,0.04518664,0,0,0,1,1,1,47,0,1,0,0,0,0,0,0,0,0,0,0,0,0,0
276299661,2880.0,1.0,1360.8909,0.0,8823,13,41.965797,510,23,0,0,0,0.04509804,0,0,0,1,1,1,47,0,1,0,0,0,0,0,0,0,0,0,0,0,0,0
277370626,2880.0,1.0,1299.0096,0.0,8855,13,41.903538,513,23,0,0,0,0.04483431,0,0,0,1,1,1,47,0,1,0,0,0,0,0,0,0,0,0,0,0,0,0
278380560,2880.0,1.0,1359.1984,0.0,8888,13,41.882854,515,23,0,0,0,0.044660196,0,0,0,1,1,1,47,0,1,0,0,0,0,0,0,0,0,0,0,0,0,0
279434748,2880.0,1.0,1244.7623,0.0,8921,13,41.89104,517,23,0,0,0,0.044487428,0,0,0,1,1,1,47,0,1,0,0,0,0,0,0,0,0,0,0,0,0,0
280376965,2880.0,1.0,1362.2073,0.0,8952,13,41.97557,519,23,0,0,0,0.044315994,0,0,0,1,1,1,47,0,1,0,0,0,0,0,0,0,0,0,0,0,0,0
281387964,2880.0,1.0,1247.1707,0.0,8985,13,41.97209,522,23,0,0,0,0.044061303,0,0,0,1,1,1,47,0,1,0,0,0,0,0,0,0,0,0,0,0,0,0
282438428,2880.0,1.0,1409.014,0.0,9020,13,67.66452,524,23,0,0,0,0.04389313,0,0,0,1,1,1,47,0,1,0,0,0,0,0,0,0,0,0,0,0,0,0
283378945,2880.0,1.0,1246.5117,0.0,9049,13,41.949913,526,23,0,0,0,0.043726236,0,0,0,1,1,1,47,0,1,0,0,0,0,0,0,0,0,0,0,0,0,0
284383830,2880.0,1.0,1362.8364,0.0,9082,13,41.994957,528,23,0,0,0,0.043560605,0,0,0,1,1,1,47,0,1,0,0,0,0,0,0,0,0,0,0,0,0,0
285444327,2880.0,1.0,1247.3427,0.0,9115,13,41.977875,530,23,0,0,0,0.043396227,0,0,0,1,1,1,47,0,1,0,0,0,0,0,0,0,0,0,0,0,0,0
286464775,2880.0,1.0,1361.9812,0.0,9149,13,41.968605,532,23,0,0,0,0.04323308,0,0,0,1,1,1,47,0,1,0,0,0,0,0,0,0,0,0,0,0,0,0
287395351,2880.0,1.0,1240.744,0.0,9178,13,41.75581,534,23,0,0,0,0.043071162,0,0,0,1,1,1,47,0,1,0,0,0,0,0,0,0,0,0,0,0,0,0
288435998,2880.0,1.0,1355.3588,0.0,9212,13,41.795204,536,23,0,0,0,0.04291045,0,0,0,1,1,1,47,0,1,0,0,0,0,0,0,0,0,0,0,0,0,0
289466336,2880.0,1.0,1246.7781,0.0,9244,13,41.95888,538,23,0,0,0,0.04275093,0,0,0,1,1,1,47,0,1,0,0,0,0,0,0,0,0,0,0,0,0,0
290542812,2880.0,1.0,1361.8026,0.0,9279,13,41.99391,540,23,0,0,0,0.042592593,0,0,0,1,1,1,47,0,1,0,0,0,0,0,0,0,0,0,0,0,0,0
291447662,2880.0,1.0,1247.5321,0.0,9309,13,41.984253,543,23,0,0,0,0.042357273,0,0,0,1,1,1,47,0,1,0,0,0,0,0,0,0,0,0,0,0,0,0
292468082,2880.0,1.0,1406.3984,0.0,9343,13,67.58664,545,23,0,0,0,0.042201836,0,0,0,1,1,1,47,0,1,0,0,0,0,0,0,0,0,0,0,0,0,0
293543910,2880.0,1.0,1247.6868,0.0,9378,13,41.98946,547,23,0,0,0,0.04204753,0,0,0,1,1,1,47,0,1,0,0,0,0,0,0,0,0,0,0,0,0,0
294449339,2880.0,1.0,1361.3247,0.0,9406,13,41.979176,549,23,0,0,0,0.041894354,0,0,0,1,1,1,47,0,1,0,0,0,0,0,0,0,0,0,0,0,0,0
295475428,2880.0,1.0,1282.4763,0.0,9438,13,41.81988,551,23,0,0,0,0.041742288,0,0,0,1,1,1,47,0,1,0,0,0,0,0,0,0,0,0,0,0,0,0
296540596,2880.0,1.0,1359.7461,0.0,9473,13,41.899734,553,23,0,0,0,0.04159132,0,0,0,1,1,1,47,0,1,0,0,0,0,0,0,0,0,0,0,0,0,0
297290845,2880.0,1.0,1241.3711,0.0,9497,13,41.776913,554,23,0,0,0,0.041516244,0,0,0,1,1,1,47,0,1,0,0,0,0,0,0,0,0,0,0,0,0,0
298476926,2880.0,1.0,1358.3097,0.0,9535,13,20.927736,556,24,0,0,0,0.043165468,0,0,0,1,1,1,47,0,1,0,0,0,0,0,0,0,0,0,0,0,0,0
299581719,2880.0,1.0,1246.9987,0.0,9571,13,41.9663,558,24,0,0,0,0.043010753,0,0,0,1,1,1,47,0,1,0,0,0,0,0,0,0,0,0,0,0,0,0
300552914,2880.0,1.0,1359.8451,0.0,9602,13,41.902782,560,24,0,0,0,0.042857144,0,0,0,1,1,1,47,0,1,0,0,0,0,0,0,0,0,0,0,0,0,0
301483101,2880.0,1.0,1241.7343,0.0,9632,13,41.78913,563,24,0,0,0,0.042628776,0,0,0,1,1,1,47,0,1,0,0,0,0,0,0,0,0,0,0,0,0,0
302549164,2880.0,1.0,1415.373,0.0,9668,13,67.96989,565,24,0,0,0,0.042477876,0,0,0,1,1,1,47,0,1,0,0,0,0,0,0,0,0,0,0,0,0,0
303553885,2880.0,1.0,1241.6996,0.0,9701,13,41.787968,567,24,0,0,0,0.04232804,0,0,0,1,1,1,47,0,1,0,0,0,0,0,0,0,0,0,0,0,0,0
304480546,2880.0,1.0,1361.21,0.0,9729,13,41.944843,569,24,0,0,0,0.04217926,0,0,0,1,1,1,47,0,1,0,0,0,0,0,0,0,0,0,0,0,0,0
305584837,2880.0,1.0,1242.9734,0.0,9765,13,41.830833,571,24,0,0,0,0.042031523,0,0,0,1,1,1,47,0,1,0,0,0,0,0,0,0,0,0,0,0,0,0
306558885,2880.0,1.0,1360.4233,0.0,9796,13,41.9206,573,24,0,0,0,0.041884817,0,0,0,1,1,1,47,0,1,0,0,0,0,0,0,0,0,0,0,0,0,0
307646469,2880.0,1.0,1247.1606,0.0,9832,13,41.971752,575,24,0,0,0,0.041739132,0,0,0,1,1,1,47,0,1,0,0,0,0,0,0,0,0,0,0,0,0,0
308562287,2880.0,1.0,1361.92,0.0,9860,13,41.96672,577,24,0,0,0,0.041594453,0,0,0,1,1,1,47,0,1,0,0,0,0,0,0,0,0,0,0,0,0,0
309562703,2880.0,1.0,1242.0197,0.0,9893,13,41.79874,579,24,0,0,0,0.041450776,0,0,0,1,1,1,47,0,1,0,0,0,0,0,0,0,0,0,0,0,0,0
310637818,2880.0,1.0,1361.7731,0.0,9925,13,41.962193,581,24,0,0,0,0.04130809,0,0,0,1,1,1,47,0,1,0,0,0,0,0,0,0,0,0,0,0,0,0
311587640,2880.0,1.0,1237.1858,0.0,9959,13,41.63606,584,24,0,0,0,0.04109589,0,0,0,1,1,1,47,0,1,0,0,0,0,0,0,0,0,0,0,0,0,0
312567178,2880.0,1.0,1414.4752,0.0,9990,13,67.974785,586,24,0,0,0,0.040955633,0,0,0,1,1,1,47,0,1,0,0,0,0,0,0,0,0,0,0,0,0,0
313644307,2880.0,1.0,1246.5925,0.0,10024,13,41.952633,588,24,0,0,0,0.040816326,0,0,0,1,1,1,47,0,1,0,0,0,0,0,0,0,0,0,0,0,0,0
314564561,2880.0,1.0,1359.7212,0.0,10054,13,41.929726,590,24,0,0,0,0.040677965,0,0,0,1,1,1,47,0,1,0,0,0,0,0,0,0,0,0,0,0,0,0
315570599,2880.0,1.0,1246.6473,0.0,10087,13,41.95448,592,24,0,0,0,0.04054054,0,0,0,1,1,1,47,0,1,0,0,0,0,0,0,0,0,0,0,0,0,0
316630817,2880.0,1.0,1355.1984,0.0,10119,13,41.790257,594,24,0,0,0,0.04040404,0,0,0,1,1,1,47,0,1,0,0,0,0,0,0,0,0,0,0,0,0,0
317566618,2880.0,1.0,1242.9016,0.0,10151,13,41.82842,596,24,0,0,0,0.040268455,0,0,0,1,1,1,47,0,1,0,0,0,0,0,0,0,0,0,0,0,0,0
318572600,2880.0,1.0,1361.016,0.0,10182,13,41.969654,598,24,0,0,0,0.040133778,0,0,0,1,1,1,47,0,1,0,0,0,0,0,0,0,0,0,0,0,0,0
319632745,2880.0,1.0,1247.5247,0.0,10216,13,41.984005,600,24,0,0,0,0.04,0,0,0,1,1,1,47,0,1,0,0,0,0,0,0,0,0,0,0,0,0,0
320572744,2880.0,1.0,1400.686,0.0,10246,13,41.93073,602,24,0,0,0,0.03986711,0,0,0,1,1,1,47,0,1,0,0,0,0,0,0,0,0,0,0,0,0,0
321739116,2880.0,1.0,1247.3988,0.0,10290,13,41.979767,605,24,0,0,0,0.03966942,0,0,0,1,1,1,47,0,1,0,0,0,0,0,0,0,0,0,0,0,0,0
322642766,2880.0,1.0,1414.9219,0.0,10313,13,67.94823,607,24,0,0,0,0.039538715,0,0,0,1,1,1,47,0,1,0,0,0,0,0,0,0,0,0,0,0,0,0
323654751,2880.0,1.0,1247.9363,0.0,10351,13,41.997856,609,24,0,0,0,0.039408866,0,0,0,1,1,1,47,0,1,0,0,0,0,0,0,0,0,0,0,0,0,0
324745422,2880.0,1.0,1356.6117,0.0,10385,13,41.80315,611,24,0,0,0,0.03927987,0,0,0,1,1,1,47,0,1,0,0,0,0,0,0,0,0,0,0,0,0,0
325633566,2880.0,1.0,1240.0094,0.0,10410,13,41.731087,613,24,0,0,0,0.039151713,0,0,0,1,1,1,47,0,1,0,0,0,0,0,0,0,0,0,0,0,0,0
326656784,2880.0,1.0,1361.8711,0.0,10446,13,41.96521,615,24,0,0,0,0.03902439,0,0,0,1,1,1,47,0,1,0,0,0,0,0,0,0,0,0,0,0,0,0
327746631,2880.0,1.0,1247.0972,0.0,10482,13,41.969616,617,24,0,0,0,0.038897894,0,0,0,1,1,1,47,0,1,0,0,0,0,0,0,0,0,0,0,0,0,0
328646944,2880.0,1.0,1362.5259,0.0,10507,13,41.98539,619,24,0,0,0,0.038772214,0,0,0,1,1,1,47,0,1,0,0,0,0,0,0,0,0,0,0,0,0,0
329657717,2880.0,1.0,1247.1769,0.0,10543,13,41.9723,621,24,0,0,0,0.038647342,0,0,0,1,1,1,47,0,1,0,0,0,0,0,0,0,0,0,0,0,0,0
330758736,2880.0,1.0,1362.7711,0.0,10577,13,41.992947,623,24,0,0,0,0.038523275,0,0,0,1,1,1,47,0,1,0,0,0,0,0,0,0,0,0,0,0,0,0
331739587,2880.0,1.0,1243.2458,0.0,10612,13,41.840004,626,24,0,0,0,0.038338657,0,0,0,1,1,1,47,0,1,0,0,0,0,0,0,0,0,0,0,0,0,0
332799985,2880.0,1.0,1414.5515,0.0,10645,13,67.930435,628,24,0,0,0,0.03821656,0,0,0,1,1,1,47,0,1,0,0,0,0,0,0,0,0,0,0,0,0,0
333763568,2880.0,1.0,1261.6321,0.0,10676,13,41.756145,630,24,0,0,0,0.03809524,0,0,0,1,1,1,47,0,1,0,0,0,0,0,0,0,0,0,0,0,0,0
334740892,2880.0,1.0,1359.0969,0.0,10707,13,41.91048,632,24,0,0,0,0.03797468,0,0,0,1,1,1,47,0,1,0,0,0,0,0,0,0,0,0,0,0,0,0
335790841,2880.0,1.0,1243.0292,0.0,10740,13,41.83271,634,24,0,0,0,0.03785489,0,0,0,1,1,1,47,0,1,0,0,0,0,0,0,0,0,0,0,0,0,0
336741297,2880.0,1.0,1355.2239,0.0,10771,13,41.791046,636,24,0,0,0,0.03773585,0,0,0,1,1,1,47,0,1,0,0,0,0,0,0,0,0,0,0,0,0,0
337742165,2880.0,1.0,1245.468,0.0,10804,13,41.914787,638,24,0,0,0,0.037617553,0,0,0,1,1,1,47,0,1,0,0,0,0,0,0,0,0,0,0,0,0,0
338790695,2880.0,1.0,1360.6842,0.0,10835,13,41.959423,640,24,0,0,0,0.0375,0,0,0,1,1,1,47,0,1,0,0,0,0,0,0,0,0,0,0,0,0,0
339743177,2880.0,1.0,1247.6956,0.0,10868,13,41.989754,642,24,0,0,0,0.037383176,0,0,0,1,1,1,47,0,1,0,0,0,0,0,0,0,0,0,0,0,0,0
340743673,2880.0,1.0,1360.8895,0.0,10899,13,41.965755,644,24,0,0,0,0.03726708,0,0,0,1,1,1,47,0,1,0,0,0,0,0,0,0,0,0,0,0,0,0
341804620,2880.0,1.0,1288.263,0.0,10938,13,41.588814,647,24,0,0,0,0.03709428,0,0,0,1,1,1,47,0,1,0,0,0,0,0,0,0,0,0,0,0,0,0
342824368,2880.0,1.0,1486.7708,0.0,10969,13,68.85046,649,24,0,0,0,0.03697997,0,0,0,1,1,1,47,0,1,0,0,0,0,0,0,0,0,0,0,0,0,0
343584773,2880.0,1.0,1242.2521,0.0,10991,13,40.81117,650,24,0,0,0,0.036923077,0,0,0,1,1,1,47,0,1,0,0,0,0,0,0,0,0,0,0,0,0,0
344795807,2880.0,1.0,1355.3358,0.0,11033,13,41.794495,653,24,0,0,0,0.036753446,0,0,0,1,1,1,47,0,1,0,0,0,0,0,0,0,0,0,0,0,0,0
345766188,2880.0,1.0,1247.481,0.0,11064,13,62.9738,655,24,0,0,0,0.03664122,0,0,0,1,1,1,47,0,1,0,0,0,0,0,0,0,0,0,0,0,0,0
346526542,2880.0,1.0,1361.6249,0.0,11085,13,20.978813,656,24,0,0,0,0.036585364,0,0,0,1,1,1,47,0,1,0,0,0,0,0,0,0,0,0,0,0,0,0
347807530,2880.0,1.0,1280.4645,0.0,11130,13,41.754276,659,24,0,0,0,0.036418818,0,0,0,1,1,1,47,0,1,0,0,0,0,0,0,0,0,0,0,0,0,0
348767681,2880.0,1.0,1356.4443,0.0,11159,13,62.696987,661,24,0,0,0,0.036308624,0,0,0,1,1,1,47,0,1,0,0,0,0,0,0,0,0,0,0,0,0,0
349751791,2880.0,1.0,1240.2201,0.0,11192,13,20.869087,663,24,0,0,0,0.036199097,0,0,0,1,1,1,47,0,1,0,0,0,0,0,0,0,0,0,0,0,0,0
350808687,2880.0,1.0,1362.2726,0.0,11225,13,62.96638,665,24,0,0,0,0.036090225,0,0,0,1,1,1,47,0,1,0,0,0,0,0,0,0,0,0,0,0,0,0
351769066,2880.0,1.0,1300.7333,0.0,11258,13,41.99139,668,24,0,0,0,0.035928145,0,0,0,1,1,1,47,0,1,0,0,0,0,0,0,0,0,0,0,0,0,0
352529648,2880.0,1.0,1355.9397,0.0,11279,13,46.756542,669,24,0,0,0,0.03587444,0,0,0,1,1,1,47,0,1,0,0,0,0,0,0,0,0,0,0,0,0,0
353805837,2880.0,1.0,1240.8528,0.0,11324,13,41.759468,672,24,0,0,0,0.035714287,0,0,0,1,1,1,47,0,1,0,0,0,0,0,0,0,0,0,0,0,0,0
354834651,2880.0,1.0,1357.2534,0.0,11355,13,62.734386,674,24,0,0,0,0.03560831,0,0,0,1,1,1,47,0,1,0,0,0,0,0,0,0,0,0,0,0,0,0
355596873,2880.0,1.0,1247.4685,0.0,11378,13,20.991056,675,24,0,0,0,0.035555556,0,0,0,1,1,1,47,0,1,0,0,0,0,0,0,0,0,0,0,0,0,0
356807582,2880.0,1.0,1416.2069,0.0,11419,13,41.97649,678,24,0,0,0,0.03539823,0,0,0,1,1,1,47,0,1,0,0,0,0,0,0,0,0,0,0,0,0,0
357835793,2880.0,1.0,1247.2642,0.0,11452,13,62.962852,680,24,0,0,0,0.03529412,0,0,0,1,1,1,47,0,1,0,0,0,0,0,0,0,0,0,0,0,0,0
358586611,2880.0,1.0,1360.8418,0.0,11472,13,20.966747,681,24,0,0,0,0.03524229,0,0,0,1,1,1,47,0,1,0,0,0,0,0,0,0,0,0,0,0,0,0
359653863,2880.0,1.0,1271.2694,0.0,11511,13,62.619213,683,24,0,0,0,0.03513909,0,0,0,1,1,1,47,0,1,0,0,0,0,0,0,0,0,0,0,0,0,0
360844034,2880.0,1.0,1362.7003,0.0,11547,13,41.990765,686,24,0,0,0,0.034985423,0,0,0,1,1,1,47,0,1,0,0,0,0,0,0,0,0,0,0,0,0,0
361600231,2880.0,1.0,1293.9802,0.0,11572,13,20.88669,688,24,0,0,0,0.034883723,0,0,0,1,1,1,47,0,1,0,0,0,0,0,0,0,0,0,0,0,0,0
362655490,2880.0,1.0,1361.509,0.0,11608,13,88.90265,690,24,0,0,0,0.034782607,0,0,0,1,1,1,47,0,1,0,0,0,0,0,0,0,0,0,0,0,0,0
363601200,2880.0,1.0,1241.2106,0.0,11636,13,41.771507,692,24,0,0,0,0.03468208,0,0,0,1,1,1,47,0,1,0,0,0,0,0,0,0,0,0,0,0,0,0
364741684,2880.0,1.0,1351.8649,0.0,11675,13,41.779488,694,24,0,0,0,0.034582134,0,0,0,1,1,1,47,0,1,0,0,0,0,0,0,0,0,0,0,0,0,0
365752477,2880.0,1.0,1240.4507,0.0,11708,13,41.94761,696,24,0,0,0,0.03448276,0,0,0,1,1,1,47,0,1,0,0,0,0,0,0,0,0,0,0,0,0,0
366677038,2880.0,1.0,1349.1598,0.0,11737,13,41.788136,698,24,0,0,0,0.034383953,0,0,0,1,1,1,47,0,1,0,0,0,0,0,0,0,0,0,0,0,0,0
367723159,2880.0,1.0,1240.3723,0.0,11771,13,20.989378,699,24,0,0,0,0.034334764,0,0,0,1,1,1,47,0,1,0,0,0,0,0,0,0,0,0,0,0,0,0
368753889,2880.0,1.0,1388.4658,0.0,11803,13,41.803272,701,24,0,0,0,0.034236804,0,0,0,1,1,1,47,0,1,0,0,0,0,0,0,0,0,0,0,0,0,0
369684096,2880.0,1.0,1234.1772,0.0,11834,13,41.802776,703,24,0,0,0,0.034139402,0,0,0,1,1,1,47,0,1,0,0,0,0,0,0,0,0,0,0,0,0,0
370739600,2880.0,1.0,1352.1793,0.0,11867,13,41.912567,705,24,0,0,0,0.034042552,0,0,0,1,1,1,47,0,1,0,0,0,0,0,0,0,0,0,0,0,0,0
371698622,2880.0,1.0,1291.6914,0.0,11901,13,41.795868,708,24,0,0,0,0.033898305,0,0,0,1,1,1,47,0,1,0,0,0,0,0,0,0,0,0,0,0,0,0
372685835,2880.0,1.0,1353.6058,0.0,11931,13,67.93003,710,24,0,0,0,0.03380282,0,0,0,1,1,1,47,0,1,0,0,0,0,0,0,0,0,0,0,0,0,0
373741992,2880.0,1.0,1239.8983,0.0,11966,13,41.996555,712,24,0,0,0,0.033707865,0,0,0,1,1,1,47,0,1,0,0,0,0,0,0,0,0,0,0,0,0,0
374667224,2880.0,1.0,1346.2292,0.0,11995,13,41.72814,714,24,0,0,0,0.033613447,0,0,0,1,1,1,47,0,1,0,0,0,0,0,0,0,0,0,0,0,0,0
375677843,2880.0,1.0,1235.5323,0.0,12028,13,41.848675,716,24,0,0,0,0.033519555,0,0,0,1,1,1,47,0,1,0,0,0,0,0,0,0,0,0,0,0,0,0
376748150,2880.0,1.0,1348.0778,0.0,12061,13,41.785435,718,24,0,0,0,0.033426184,0,0,0,1,1,1,47,0,1,0,0,0,0,0,0,0,0,0,0,0,0,0
377758361,2880.0,1.0,1236.9484,0.0,12094,13,41.89664,720,24,0,0,0,0.033333335,0,0,0,1,1,1,47,0,1,0,0,0,0,0,0,0,0,0,0,0,0,0
378684626,2880.0,1.0,1347.2692,0.0,12124,13,41.791214,722,24,0,0,0,0.033240996,0,0,0,1,1,1,47,0,1,0,0,0,0,0,0,0,0,0,0,0,0,0
379756562,2880.0,1.0,1300.4213,0.0,12159,13,41.884735,724,24,0,0,0,0.03314917,0,0,0,1,1,1,47,0,1,0,0,0,0,0,0,0,0,0,0,0,0,0
380766800,2880.0,1.0,1353.4086,0.0,12191,13,41.98165,726,24,0,0,0,0.03305785,0,0,0,1,1,1,47,0,1,0,0,0,0,0,0,0,0,0,0,0,0,0
