timestamp,timestamp_sample,q[0],q[1],q[2],q[3],delta_q_reset[0],delta_q_reset[1],delta_q_reset[2],delta_q_reset[3],quat_reset_counter
186844344,186843179,0.9976356,0.026473345,0.010066252,0.06261904,0.9999992,-1.2071932e-09,-3.640398e-10,-0.0012806279,2
186849476,186848181,0.9976384,0.02645038,0.01006422,0.06258443,0.9999992,-1.2071932e-09,-3.640398e-10,-0.0012806279,2
186894403,186893202,0.99765474,0.026436564,0.010049701,0.062332172,0.9999992,-1.2071932e-09,-3.640398e-10,-0.0012806279,2
186949461,186948224,0.99764997,0.026801031,0.010029775,0.06225414,0.9999992,-1.2071932e-09,-3.640398e-10,-0.0012806279,2
186994441,186993246,0.9976412,0.026823208,0.010045494,0.06238438,0.9999992,-1.2071932e-09,-3.640398e-10,-0.0012806279,2
187044558,187043277,0.9976337,0.026563473,0.0100459205,0.06261426,0.9999992,-1.2071932e-09,-3.640398e-10,-0.0012806279,2
187094536,187093294,0.9976355,0.02575772,0.010017873,0.062926024,0.9999992,-1.2071932e-09,-3.640398e-10,-0.0012806279,2
187149575,187148313,0.99762464,0.025353609,0.010116022,0.063246444,0.9999992,-1.2071932e-09,-3.640398e-10,-0.0012806279,2
187194656,187193341,0.9975996,0.025475947,0.010145336,0.06358535,0.9999992,-1.2071932e-09,-3.640398e-10,-0.0012806279,2
187244568,187243365,0.99759656,0.025308745,0.010157284,0.06369844,0.9999992,-1.2071932e-09,-3.640398e-10,-0.0012806279,2
187299854,187298395,0.9976034,0.025987862,0.01008029,0.06332923,0.9999992,-1.2071932e-09,-3.640398e-10,-0.0012806279,2
187344717,187343415,0.99765044,0.0262326,0.01002322,0.062489662,0.9999992,-1.2071932e-09,-3.640398e-10,-0.0012806279,2
187394744,187393439,0.9976921,0.026594812,0.009894737,0.06168674,0.9999992,-1.2071932e-09,-3.640398e-10,-0.0012806279,2
187449790,187448465,0.997765,0.026244126,0.009793523,0.060667016,0.9999992,-1.2071932e-09,-3.640398e-10,-0.0012806279,2
187494691,187493483,0.9978301,0.025745256,0.00966489,0.059824683,0.9999992,-1.2071932e-09,-3.640398e-10,-0.0012806279,2
187544769,187543529,0.99790287,0.024917083,0.009572015,0.058970917,0.9999992,-1.2071932e-09,-3.640398e-10,-0.0012806279,2
187594850,187593542,0.9979302,0.024774482,0.009536117,0.058572173,0.9999992,-1.2071932e-09,-3.640398e-10,-0.0012806279,2
187649867,187648556,0.9979529,0.024551729,0.009502143,0.05828434,0.9999992,-1.2071932e-09,-3.640398e-10,-0.0012806279,2
187694760,187693582,0.99795926,0.024371468,0.00948732,0.05825329,0.9999992,-1.2071932e-09,-3.640398e-10,-0.0012806279,2
187744794,187743602,0.9979711,0.02408683,0.00946065,0.058172937,0.9999992,-1.2071932e-09,-3.640398e-10,-0.0012806279,2
187799810,187798628,0.9980033,0.023379669,0.009414777,0.057915635,0.9999992,-1.2071932e-09,-3.640398e-10,-0.0012806279,2
187844805,187843649,0.99799794,0.023124725,0.009421376,0.058109805,0.9999992,-1.2071932e-09,-3.640398e-10,-0.0012806279,2
187894890,187893677,0.9979578,0.022963399,0.009467836,0.058849983,0.9999992,-1.2071932e-09,-3.640398e-10,-0.0012806279,2
187944843,187943697,0.9979494,0.022492625,0.009551546,0.05916043,0.9999992,-1.2071932e-09,-3.640398e-10,-0.0012806279,2
187999930,187998723,0.99797577,0.022723371,0.009437384,0.058642466,0.9999992,-1.2071932e-09,-3.640398e-10,-0.0012806279,2
188044887,188043746,0.9979865,0.022923082,0.009441313,0.058381207,0.9999992,-1.2071932e-09,-3.640398e-10,-0.0012806279,2
188094937,188093782,0.9980279,0.022746742,0.009363706,0.05775083,0.9999992,-1.2071932e-09,-3.640398e-10,-0.0012806279,2
188150072,188148802,0.99801606,0.022811443,0.009369015,0.057930656,0.9999992,-1.2071932e-09,-3.640398e-10,-0.0012806279,2
188194955,188193816,0.9979694,0.023061035,0.0094704935,0.058614608,0.9999992,-1.2071932e-09,-3.640398e-10,-0.0012806279,2
188245164,188243841,0.99795115,0.023091516,0.009486607,0.058910236,0.9999992,-1.2071932e-09,-3.640398e-10,-0.0012806279,2
188295101,188293862,0.9979411,0.02315285,0.009526615,0.05904861,0.9999992,-1.2071932e-09,-3.640398e-10,-0.0012806279,2
188350238,188348890,0.9979545,0.022064215,0.009628575,0.059223127,0.9999992,-1.2071932e-09,-3.640398e-10,-0.0012806279,2
188395141,188393911,0.9979605,0.021899668,0.009600031,0.059187166,0.9999992,-1.2071932e-09,-3.640398e-10,-0.0012806279,2
188445263,188443935,0.99796855,0.022131901,0.009541842,0.058973435,0.9999992,-1.2071932e-09,-3.640398e-10,-0.0012806279,2
188500130,188498961,0.9979656,0.022145534,0.009513025,0.059024554,0.9999992,-1.2071932e-09,-3.640398e-10,-0.0012806279,2
188545264,188543983,0.99797463,0.021969926,0.009489975,0.0589407,0.9999992,-1.2071932e-09,-3.640398e-10,-0.0012806279,2
188595217,188594006,0.99796546,0.021989647,0.009519843,0.059083458,0.9999992,-1.2071932e-09,-3.640398e-10,-0.0012806279,2
188645276,188644030,0.9979852,0.021527274,0.009392898,0.05894183,0.9999992,-1.2071932e-09,-3.640398e-10,-0.0012806279,2
188695346,188694054,0.9980448,0.02015849,0.009433043,0.05840653,0.9999992,-1.2071932e-09,-3.640398e-10,-0.0012806279,2
188745268,188744078,0.99808395,0.019782376,0.00921556,0.05789882,0.9999992,-1.2071932e-09,-3.640398e-10,-0.0012806279,2
188795308,188794115,0.9981375,0.01886257,0.009068889,0.057303816,0.9999992,-1.2071932e-09,-3.640398e-10,-0.0012806279,2
188850384,188849128,0.9981728,0.018512024,0.008876953,0.056829695,0.9999992,-1.2071932e-09,-3.640398e-10,-0.0012806279,2
188895348,188894149,0.9981504,0.018580299,0.008918711,0.05719331,0.9999992,-1.2071932e-09,-3.640398e-10,-0.0012806279,2
188945465,188944173,0.9981214,0.019293396,0.008827609,0.057476904,0.9999992,-1.2071932e-09,-3.640398e-10,-0.0012806279,2
188995439,188994216,0.9980955,0.0190155,0.009035673,0.05798528,0.9999992,-1.2071932e-09,-3.640398e-10,-0.0012806279,2
189045360,189044220,0.9980724,0.018721858,0.0091067925,0.058464315,0.9999992,-1.2071932e-09,-3.640398e-10,-0.0012806279,2
189095429,189094244,0.99806994,0.01859899,0.009181923,0.058534086,0.9999992,-1.2071932e-09,-3.640398e-10,-0.0012806279,2
189145453,189144273,0.9980804,0.018490523,0.009193987,0.058389004,0.9999992,-1.2071932e-09,-3.640398e-10,-0.0012806279,2
189200504,189199295,0.9981093,0.018455256,0.009074943,0.057923134,0.9999992,-1.2071932e-09,-3.640398e-10,-0.0012806279,2
189245476,189244316,0.9981453,0.018318446,0.00899444,0.057355404,0.9999992,-1.2071932e-09,-3.640398e-10,-0.0012806279,2
189295503,189294344,0.9981967,0.018381527,0.008803237,0.056461744,0.9999992,-1.2071932e-09,-3.640398e-10,-0.0012806279,2
189345531,189344364,0.99818367,0.018355422,0.008811048,0.056699358,0.9999992,-1.2071932e-09,-3.640398e-10,-0.0012806279,2
189395570,189394396,0.99814135,0.018500717,0.008890188,0.057381876,0.9999992,-1.2071932e-09,-3.640398e-10,-0.0012806279,2
189445558,189444422,0.99814165,0.018463138,0.008857393,0.05739352,0.9999992,-1.2071932e-09,-3.640398e-10,-0.0012806279,2
189495614,189494442,0.9981756,0.017784845,0.008917606,0.05700554,0.9999992,-1.2071932e-09,-3.640398e-10,-0.0012806279,2
189545639,189544459,0.9980899,0.018575376,0.009063861,0.058217958,0.9999992,-1.2071932e-09,-3.640398e-10,-0.0012806279,2
189595647,189594483,0.99809337,0.017462585,0.009039966,0.058507375,0.9999992,-1.2071932e-09,-3.640398e-10,-0.0012806279,2
189645743,189644507,0.9981466,0.01709857,0.008955861,0.057713754,0.9999992,-1.2071932e-09,-3.640398e-10,-0.0012806279,2
189695889,189694561,0.99823517,0.016187318,0.008658036,0.056476966,0.9999992,-1.2071932e-09,-3.640398e-10,-0.0012806279,2
189745779,189744554,0.9982802,0.015659854,0.008387849,0.05586765,0.9999992,-1.2071932e-09,-3.640398e-10,-0.0012806279,2
189795826,189794578,0.9982728,0.015684674,0.008389953,0.055993088,0.9999992,-1.2071932e-09,-3.640398e-10,-0.0012806279,2
189845815,189844601,0.99826974,0.015078086,0.008345288,0.056218553,0.9999992,-1.2071932e-09,-3.640398e-10,-0.0012806279,2
189895893,189894625,0.99827063,0.014642676,0.008270882,0.056329206,0.9999992,-1.2071932e-09,-3.640398e-10,-0.0012806279,2
189945927,189944649,0.99829715,0.014583981,0.008361276,0.055859018,0.9999992,-1.2071932e-09,-3.640398e-10,-0.0012806279,2
189995969,189994673,0.99826485,0.01520914,0.008276036,0.056280296,0.9999992,-1.2071932e-09,-3.640398e-10,-0.0012806279,2
190045973,190044697,0.99822176,0.015911564,0.008488101,0.05681711,0.9999992,-1.2071932e-09,-3.640398e-10,-0.0012806279,2
190096031,190094721,0.99818677,0.016926093,0.008582111,0.057122372,0.9999992,-1.2071932e-09,-3.640398e-10,-0.0012806279,2
190145957,190144744,0.9981421,0.0180441,0.008681153,0.057544544,0.9999992,-1.2071932e-09,-3.640398e-10,-0.0012806279,2
190196034,190194768,0.9980931,0.020275336,0.008948175,0.057610612,0.9999992,-1.2071932e-09,-3.640398e-10,-0.0012806279,2
190246005,190244792,0.9980991,0.02132744,0.008951706,0.057124875,0.9999992,-1.2071932e-09,-3.640398e-10,-0.0012806279,2
190296132,190294816,0.99812245,0.021524046,0.009257366,0.05659214,0.9999992,-1.2071932e-09,-3.640398e-10,-0.0012806279,2
190346134,190344840,0.99820036,0.021552755,0.009222726,0.055195287,0.9999992,-1.2071932e-09,-3.640398e-10,-0.0012806279,2
190396182,190394870,0.99830323,0.022317013,0.009063145,0.0530158,0.9999992,-1.2071932e-09,-3.640398e-10,-0.0012806279,2
190446020,190444887,0.9984099,0.02291413,0.00877512,0.05075157,0.9999992,-1.2071932e-09,-3.640398e-10,-0.0012806279,2
190496088,190494911,0.9984606,0.023218011,0.008572156,0.0496377,0.9999992,-1.2071932e-09,-3.640398e-10,-0.0012806279,2
190546110,190544935,0.998445,0.023258798,0.008566313,0.04993386,0.9999992,-1.2071932e-09,-3.640398e-10,-0.0012806279,2
190596126,190594963,0.99840015,0.02291283,0.008795307,0.050939832,0.9999992,-1.2071932e-09,-3.640398e-10,-0.0012806279,2
190646143,190644983,0.998351,0.023083782,0.008958791,0.051790815,0.9999992,-1.2071932e-09,-3.640398e-10,-0.0012806279,2
190696160,190695007,0.9983027,0.023875587,0.009295162,0.052299876,0.9999992,-1.2071932e-09,-3.640398e-10,-0.0012806279,2
190746245,190745030,0.9982762,0.023559084,0.0092258165,0.05295829,0.9999992,-1.2071932e-09,-3.640398e-10,-0.0012806279,2
190796210,190795049,0.9982477,0.022725422,0.009011521,0.05388998,0.9999992,-1.2071932e-09,-3.640398e-10,-0.0012806279,2
190846240,190845102,0.9981938,0.022686979,0.0089625055,0.054902196,0.9999992,-1.2071932e-09,-3.640398e-10,-0.0012806279,2
190896347,190895102,0.998159,0.022992047,0.009208243,0.055363625,0.9999992,-1.2071932e-09,-3.640398e-10,-0.0012806279,2
190946433,190945126,0.99815476,0.022613436,0.009115362,0.05561316,0.9999992,-1.2071932e-09,-3.640398e-10,-0.0012806279,2
190996302,190995149,0.9981406,0.022139642,0.009280261,0.05602802,0.9999992,-1.2071932e-09,-3.640398e-10,-0.0012806279,2
191046344,191045174,0.9981212,0.021834977,0.009406409,0.05647138,0.9999992,-1.2071932e-09,-3.640398e-10,-0.0012806279,2
191096415,191095197,0.99810755,0.021954596,0.009370174,0.056671605,0.9999992,-1.2071932e-09,-3.640398e-10,-0.0012806279,2
191146463,191145221,0.99811435,0.021667827,0.009325515,0.05667017,0.9999992,-1.2071932e-09,-3.640398e-10,-0.0012806279,2
191196428,191195251,0.9981199,0.021396963,0.009179773,0.056698114,0.9999992,-1.2071932e-09,-3.640398e-10,-0.0012806279,2
191246532,191245268,0.99810594,0.021028126,0.009252854,0.05706879,0.9999992,-1.2071932e-09,-3.640398e-10,-0.0012806279,2
191296490,191295292,0.9980903,0.020467272,0.009164423,0.0575585,0.9999992,-1.2071932e-09,-3.640398e-10,-0.0012806279,2
191346614,191345320,0.9980737,0.019962564,0.009089719,0.05803406,0.9999992,-1.2071932e-09,-3.640398e-10,-0.0012806279,2
191396660,191395340,0.998032,0.020002095,0.00920009,0.058716465,0.9999992,-1.2071932e-09,-3.640398e-10,-0.0012806279,2
191446646,191445364,0.9979843,0.020236045,0.009234461,0.059436616,0.9999992,-1.2071932e-09,-3.640398e-10,-0.0012806279,2
191496687,191495397,0.99797404,0.020653486,0.009284309,0.05945836,0.9999992,-1.2071932e-09,-3.640398e-10,-0.0012806279,2
191546698,191545415,0.99796706,0.021134952,0.009286759,0.059404302,0.9999992,-1.2071932e-09,-3.640398e-10,-0.0012806279,2
191596647,191595435,0.9979616,0.021206213,0.009264487,0.059475113,0.9999992,-1.2071932e-09,-3.640398e-10,-0.0012806279,2
191646711,191645475,0.997945,0.020955,0.009292413,0.059836082,0.9999992,-1.2071932e-09,-3.640398e-10,-0.0012806279,2
191696778,191695483,0.9979183,0.021115456,0.009371396,0.06021272,0.9999992,-1.2071932e-09,-3.640398e-10,-0.0012806279,2
191746768,191745524,0.9979109,0.021417312,0.009346079,0.060230795,0.9999992,-1.2071932e-09,-3.640398e-10,-0.0012806279,2
191796887,191795530,0.9978894,0.021553416,0.009367138,0.06053408,0.9999992,-1.2071932e-09,-3.640398e-10,-0.0012806279,2
191846758,191845554,0.9978555,0.021549106,0.009372291,0.061092228,0.9999992,-1.2071932e-09,-3.640398e-10,-0.0012806279,2
191896816,191895578,0.997884,0.021071363,0.009149019,0.06082736,0.9999992,-1.2071932e-09,-3.640398e-10,-0.0012806279,2
191946920,191945602,0.9979101,0.020893198,0.009328987,0.060432043,0.9999992,-1.2071932e-09,-3.640398e-10,-0.0012806279,2
191996775,191995626,0.99792486,0.020946143,0.009102867,0.060204558,0.9999992,-1.2071932e-09,-3.640398e-10,-0.0012806279,2
192046795,192045650,0.9979733,0.020298861,0.0090584,0.059624866,0.9999992,-1.2071932e-09,-3.640398e-10,-0.0012806279,2
192096822,192095674,0.99802536,0.019588316,0.008801583,0.05902725,0.9999992,-1.2071932e-09,-3.640398e-10,-0.0012806279,2
192146843,192145697,0.9980178,0.018836332,0.008894227,0.059384964,0.9999992,-1.2071932e-09,-3.640398e-10,-0.0012806279,2
192196894,192195738,0.99802524,0.017917389,0.009046301,0.05952164,0.9999992,-1.2071932e-09,-3.640398e-10,-0.0012806279,2
192246987,192245752,0.99806386,0.01710871,0.008907761,0.05913071,0.9999992,-1.2071932e-09,-3.640398e-10,-0.0012806279,2
192296936,192295769,0.998096,0.016025666,0.008493951,0.058954287,0.9999992,-1.2071932e-09,-3.640398e-10,-0.0012806279,2
192346983,192345812,0.9981155,0.015390701,0.008019172,0.058859274,0.9999992,-1.2071932e-09,-3.640398e-10,-0.0012806279,2
192397141,192395820,0.99815065,0.015213972,0.00776003,0.058341112,0.9999992,-1.2071932e-09,-3.640398e-10,-0.0012806279,2
192447098,192445840,0.9981902,0.015155111,0.007857593,0.057662867,0.9999992,-1.2071932e-09,-3.640398e-10,-0.0012806279,2
192497160,192495867,0.9981929,0.014801937,0.007777144,0.05771754,0.9999992,-1.2071932e-09,-3.640398e-10,-0.0012806279,2
192547126,192545888,0.9981907,0.015292894,0.00786859,0.057615638,0.9999992,-1.2071932e-09,-3.640398e-10,-0.0012806279,2
192597264,192595915,0.9981905,0.015694678,0.00795909,0.05749848,0.9999992,-1.2071932e-09,-3.640398e-10,-0.0012806279,2
192647085,192645935,0.9981707,0.016296191,0.007890135,0.05768389,0.9999992,-1.2071932e-09,-3.640398e-10,-0.0012806279,2
192697237,192695959,0.9982675,0.019849671,0.008547504,0.054726876,0.9999992,-1.2071932e-09,-3.640398e-10,-0.0012806279,2
192747233,192745983,0.99852234,0.021338325,0.0079994025,0.049333364,0.9999992,-1.2071932e-09,-3.640398e-10,-0.0012806279,2
192797325,192796007,0.9986794,0.02060053,0.0069233137,0.04655432,0.9999992,-1.2071932e-09,-3.640398e-10,-0.0012806279,2
192847318,192846034,0.9987588,0.018758029,0.006671452,0.045657754,0.9999992,-1.2071932e-09,-3.640398e-10,-0.0012806279,2
192897340,192896055,0.99883646,0.01796759,0.0064339945,0.04428782,0.9999992,-1.2071932e-09,-3.640398e-10,-0.0012806279,2
192947352,192946078,0.9988889,0.016812513,0.006193642,0.043588,0.9999992,-1.2071932e-09,-3.640398e-10,-0.0012806279,2
192997317,192996106,0.998856,0.016392112,0.0066107563,0.04443279,0.9999992,-1.2071932e-09,-3.640398e-10,-0.0012806279,2
193047551,193046165,0.99876046,0.01742192,0.0070517585,0.04609112,0.9999992,-1.2071932e-09,-3.640398e-10,-0.0012806279,2
193097453,193096154,0.99867094,0.018180072,0.007481936,0.047644038,0.9999992,-1.2071932e-09,-3.640398e-10,-0.0012806279,2
193147501,193146183,0.9985946,0.018596804,0.007841873,0.04900515,0.9999992,-1.2071932e-09,-3.640398e-10,-0.0012806279,2
193197514,193196197,0.998511,0.01943271,0.008115241,0.05032185,0.9999992,-1.2071932e-09,-3.640398e-10,-0.0012806279,2
193247520,193246222,0.99840194,0.021039356,0.008002668,0.05183616,0.9999992,-1.2071932e-09,-3.640398e-10,-0.0012806279,2
193297407,193296245,0.99824476,0.022733886,0.008264631,0.054057367,0.9999992,-1.2071932e-09,-3.640398e-10,-0.0012806279,2
193347410,193346269,0.99808884,0.024493903,0.008870186,0.056036383,0.9999992,-1.2071932e-09,-3.640398e-10,-0.0012806279,2
193397463,193396293,0.9980283,0.024946647,0.009017548,0.056885228,0.9999992,-1.2071932e-09,-3.640398e-10,-0.0012806279,2
193447550,193446317,0.9980281,0.025550313,0.008796094,0.05665395,0.9999992,-1.2071932e-09,-3.640398e-10,-0.0012806279,2
193497498,193496341,0.9980724,0.025072064,0.008884562,0.05607138,0.9999992,-1.2071932e-09,-3.640398e-10,-0.0012806279,2
193547612,193546372,0.9980953,0.02545342,0.008617424,0.05553233,0.9999992,-1.2071932e-09,-3.640398e-10,-0.0012806279,2
193597599,193596439,0.9980745,0.026374899,0.009006014,0.05541318,0.9999992,-1.2071932e-09,-3.640398e-10,-0.0012806279,2
193647568,193646412,0.99817306,0.025139749,0.009188529,0.054167975,0.9999992,-1.2071932e-09,-3.640398e-10,-0.0012806279,2
193697629,193696436,0.9982922,0.024176767,0.00890513,0.052429866,0.9999992,-1.2071932e-09,-3.640398e-10,-0.0012806279,2
193747691,193746460,0.9983545,0.023395209,0.008995055,0.051577102,0.9999992,-1.2071932e-09,-3.640398e-10,-0.0012806279,2
193797694,193796484,0.99834365,0.023849132,0.008599438,0.05164663,0.9999992,-1.2071932e-09,-3.640398e-10,-0.0012806279,2
193847762,193846508,0.9981638,0.026322326,0.009561322,0.053709444,0.9999992,-1.2071932e-09,-3.640398e-10,-0.0012806279,2
193892795,193891530,0.9980966,0.025079211,0.009842501,0.05547448,0.9999992,-1.2071932e-09,-3.640398e-10,-0.0012806279,2
193947714,193946555,0.99799854,0.02381603,0.00916657,0.057859488,0.9999992,-1.2071932e-09,-3.640398e-10,-0.0012806279,2
193997791,193996579,0.9978844,0.023596864,0.009918023,0.0597631,0.9999992,-1.2071932e-09,-3.640398e-10,-0.0012806279,2
194047973,194046603,0.9977493,0.024018276,0.009647798,0.061858244,0.9999992,-1.2071932e-09,-3.640398e-10,-0.0012806279,2
194097898,194096627,0.9976162,0.02502274,0.010019303,0.06352565,0.9999992,-1.2071932e-09,-3.640398e-10,-0.0012806279,2
194147915,194146651,0.99752176,0.025739424,0.009940516,0.06472347,0.9999992,-1.2071932e-09,-3.640398e-10,-0.0012806279,2
194197936,194196674,0.99747515,0.025737341,0.00993633,0.06543945,0.9999992,-1.2071932e-09,-3.640398e-10,-0.0012806279,2
194242953,194241696,0.9975151,0.025177145,0.009936829,0.06504659,0.9999992,-1.2071932e-09,-3.640398e-10,-0.0012806279,2
194298025,194296725,0.9975991,0.024599561,0.009676394,0.0640104,0.9999992,-1.2071932e-09,-3.640398e-10,-0.0012806279,2
194347926,194346746,0.9976169,0.024464026,0.00975855,0.0637723,0.9999992,-1.2071932e-09,-3.640398e-10,-0.0012806279,2
194397998,194396783,0.99760723,0.024726382,0.009743441,0.06382395,0.9999992,-1.2071932e-09,-3.640398e-10,-0.0012806279,2
194448190,194446794,0.9976363,0.024672227,0.009656876,0.06340228,0.9999992,-1.2071932e-09,-3.640398e-10,-0.0012806279,2
194497971,194496817,0.99759525,0.02507574,0.0097593665,0.063873716,0.9999992,-1.2071932e-09,-3.640398e-10,-0.0012806279,2
194548095,194546841,0.99760175,0.025097521,0.009659405,0.06377898,0.9999992,-1.2071932e-09,-3.640398e-10,-0.0012806279,2
194593019,194591863,0.9976024,0.025336161,0.009512381,0.06369554,0.9999992,-1.2071932e-09,-3.640398e-10,-0.0012806279,2
194648232,194646889,0.9976019,0.02548811,0.009551226,0.06363606,0.9999992,-1.2071932e-09,-3.640398e-10,-0.0012806279,2
194698073,194696918,0.9976335,0.025999926,0.009484279,0.06294053,0.9999992,-1.2071932e-09,-3.640398e-10,-0.0012806279,2
194743124,194741942,0.9976432,0.026079752,0.00942574,0.062763296,0.9999992,-1.2071932e-09,-3.640398e-10,-0.0012806279,2
194798118,194796961,0.9976846,0.026217837,0.00925753,0.062068526,0.9999992,-1.2071932e-09,-3.640398e-10,-0.0012806279,2
194848127,194846985,0.99770975,0.026520917,0.0092589995,0.061532404,0.9999992,-1.2071932e-09,-3.640398e-10,-0.0012806279,2
194898170,194897006,0.9977353,0.02645452,0.009586109,0.061094537,0.9999992,-1.2071932e-09,-3.640398e-10,-0.0012806279,2
194943192,194942052,0.9977299,0.02645922,0.009588494,0.06118145,0.9999992,-1.2071932e-09,-3.640398e-10,-0.0012806279,2
194998229,194997065,0.9977012,0.026517166,0.009789915,0.061590463,0.9999992,-1.2071932e-09,-3.640398e-10,-0.0012806279,2
195048294,195047080,0.997722,0.026285833,0.009609573,0.06137967,0.9999992,-1.2071932e-09,-3.640398e-10,-0.0012806279,2
195093259,195092103,0.99776155,0.024924595,0.010521014,0.06115608,0.9999992,-1.2071932e-09,-3.640398e-10,-0.0012806279,2
195148312,195147127,0.9978165,0.024859378,0.009680904,0.060420454,0.9999992,-1.2071932e-09,-3.640398e-10,-0.0012806279,2
195198325,195197155,0.9977982,0.024953779,0.009889208,0.060649723,0.9999992,-1.2071932e-09,-3.640398e-10,-0.0012806279,2
195248370,195247175,0.99775994,0.025535556,0.009603055,0.061080463,0.9999992,-1.2071932e-09,-3.640398e-10,-0.0012806279,2
195293473,195292209,0.9977225,0.02557065,0.0097705275,0.061647467,0.9999992,-1.2071932e-09,-3.640398e-10,-0.0012806279,2
195348384,195347223,0.9977043,0.02546698,0.009950095,0.061955694,0.9999992,-1.2071932e-09,-3.640398e-10,-0.0012806279,2
195398514,195397247,0.9976913,0.025320401,0.009927791,0.06222955,0.9999992,-1.2071932e-09,-3.640398e-10,-0.0012806279,2
195443573,195442275,0.9977083,0.025327288,0.009791952,0.061973814,0.9999992,-1.2071932e-09,-3.640398e-10,-0.0012806279,2
195498530,195497295,0.9977463,0.025099754,0.009773918,0.06145544,0.9999992,-1.2071932e-09,-3.640398e-10,-0.0012806279,2
195548649,195547318,0.99776304,0.025270095,0.009739061,0.06111994,0.9999992,-1.2071932e-09,-3.640398e-10,-0.0012806279,2
195598638,195597342,0.99777585,0.025309721,0.00975892,0.060889583,0.9999992,-1.2071932e-09,-3.640398e-10,-0.0012806279,2
195643727,195642364,0.9977803,0.025497211,0.009695261,0.060748626,0.9999992,-1.2071932e-09,-3.640398e-10,-0.0012806279,2
195698712,195697416,0.99778724,0.025455913,0.009772697,0.060640804,0.9999992,-1.2071932e-09,-3.640398e-10,-0.0012806279,2
195748626,195747418,0.9977839,0.025684958,0.009650877,0.060617197,0.9999992,-1.2071932e-09,-3.640398e-10,-0.0012806279,2
195793715,195792435,0.9977759,0.025604766,0.009838811,0.060751867,0.9999992,-1.2071932e-09,-3.640398e-10,-0.0012806279,2
195848725,195847462,0.99780697,0.025524734,0.009745467,0.06029032,0.9999992,-1.2071932e-09,-3.640398e-10,-0.0012806279,2
195898741,195897486,0.9978366,0.02539109,0.009834805,0.059838656,0.9999992,-1.2071932e-09,-3.640398e-10,-0.0012806279,2
195943665,195942507,0.99783796,0.025300128,0.009929927,0.059841067,0.9999992,-1.2071932e-09,-3.640398e-10,-0.0012806279,2
195993717,195992531,0.99783194,0.025255302,0.00992906,0.059958883,0.9999992,-1.2071932e-09,-3.640398e-10,-0.0012806279,2
196048821,196047557,0.99783164,0.025322469,0.00977985,0.059960354,0.9999992,-1.2071932e-09,-3.640398e-10,-0.0012806279,2
196098756,196097581,0.9978051,0.025460415,0.010049764,0.06029764,0.9999992,-1.2071932e-09,-3.640398e-10,-0.0012806279,2
196143799,196142617,0.9977939,0.025472978,0.009815124,0.060515687,0.9999992,-1.2071932e-09,-3.640398e-10,-0.0012806279,2
196198794,196197629,0.9978094,0.025098987,0.009956542,0.060393948,0.9999992,-1.2071932e-09,-3.640398e-10,-0.0012806279,2
196248824,196247669,0.9978289,0.024727756,0.009836031,0.06024417,0.9999992,-1.2071932e-09,-3.640398e-10,-0.0012806279,2
196293946,196292683,0.99783444,0.024754945,0.009809727,0.06014597,0.9999992,-1.2071932e-09,-3.640398e-10,-0.0012806279,2
196343871,196342705,0.9978108,0.024974223,0.010045246,0.060408216,0.9999992,-1.2071932e-09,-3.640398e-10,-0.0012806279,2
196398920,196397731,0.997793,0.025597766,0.009746494,0.060489543,0.9999992,-1.2071932e-09,-3.640398e-10,-0.0012806279,2
196448914,196447748,0.9977535,0.025876362,0.009996036,0.060979936,0.9999992,-1.2071932e-09,-3.640398e-10,-0.0012806279,2
196493993,196492769,0.9977389,0.025958959,0.009830316,0.061210334,0.9999992,-1.2071932e-09,-3.640398e-10,-0.0012806279,2
196549060,196547796,0.99775416,0.025821066,0.0098262,0.061019376,0.9999992,-1.2071932e-09,-3.640398e-10,-0.0012806279,2
196599066,196597820,0.99776614,0.026361864,0.009483417,0.060645327,0.9999992,-1.2071932e-09,-3.640398e-10,-0.0012806279,2
196644065,196642841,0.9977618,0.026647473,0.009629411,0.060569037,0.9999992,-1.2071932e-09,-3.640398e-10,-0.0012806279,2
196694197,196692865,0.997776,0.027165774,0.009382789,0.060143016,0.9999992,-1.2071932e-09,-3.640398e-10,-0.0012806279,2
196749069,196747891,0.997766,0.027463267,0.009389936,0.060171768,0.9999992,-1.2071932e-09,-3.640398e-10,-0.0012806279,2
196794263,196792913,0.9977784,0.027368829,0.009273566,0.0600264,0.9999992,-1.2071932e-09,-3.640398e-10,-0.0012806279,2
196844259,196842961,0.99778825,0.027317867,0.0091567105,0.05990361,0.9999992,-1.2071932e-09,-3.640398e-10,-0.0012806279,2
196899190,196897963,0.9977709,0.027773956,0.0090095205,0.060006067,0.9999992,-1.2071932e-09,-3.640398e-10,-0.0012806279,2
196949224,196947987,0.9977767,0.027629549,0.008970379,0.059982873,0.9999992,-1.2071932e-09,-3.640398e-10,-0.0012806279,2
196994322,196993008,0.9977861,0.02799489,0.008658035,0.05970132,0.9999992,-1.2071932e-09,-3.640398e-10,-0.0012806279,2
197044274,197043032,0.9977902,0.028292553,0.00869341,0.05948645,0.9999992,-1.2071932e-09,-3.640398e-10,-0.0012806279,2
197099392,197098058,0.9978094,0.028269062,0.00879602,0.05916015,0.9999992,-1.2071932e-09,-3.640398e-10,-0.0012806279,2
197144437,197143080,0.9978524,0.028019346,0.008639841,0.0585748,0.9999992,-1.2071932e-09,-3.640398e-10,-0.0012806279,2
197194395,197193104,0.99790573,0.027763061,0.008864521,0.057749495,0.9999992,-1.2071932e-09,-3.640398e-10,-0.0012806279,2
197249511,197248139,0.9979285,0.02761918,0.0087119,0.05744534,0.9999992,-1.2071932e-09,-3.640398e-10,-0.0012806279,2
197299478,197298154,0.9979424,0.027596336,0.009007958,0.05717026,0.9999992,-1.2071932e-09,-3.640398e-10,-0.0012806279,2
197344399,197343176,0.99794847,0.027762707,0.009365924,0.056924865,0.9999992,-1.2071932e-09,-3.640398e-10,-0.0012806279,2
197394381,197393200,0.99792796,0.028206164,0.009221455,0.0570899,0.9999992,-1.2071932e-09,-3.640398e-10,-0.0012806279,2
197449477,197448226,0.9979365,0.028076215,0.00940933,0.056975037,0.9999992,-1.2071932e-09,-3.640398e-10,-0.0012806279,2
197494434,197493248,0.9979428,0.028154323,0.010042333,0.056716494,0.9999992,-1.2071932e-09,-3.640398e-10,-0.0012806279,2
197544510,197543294,0.9979329,0.02845748,0.009808163,0.05677953,0.9999992,-1.2071932e-09,-3.640398e-10,-0.0012806279,2
197594447,197593301,0.99792826,0.02872224,0.009913292,0.05671029,0.9999992,-1.2071932e-09,-3.640398e-10,-0.0012806279,2
197649587,197648332,0.9979225,0.02902839,0.00993879,0.05665011,0.9999992,-1.2071932e-09,-3.640398e-10,-0.0012806279,2
197694739,197693372,0.99791515,0.029312536,0.009924943,0.056637004,0.9999992,-1.2071932e-09,-3.640398e-10,-0.0012806279,2
197744527,197743367,0.9979223,0.029148353,0.010016639,0.056579087,0.9999992,-1.2071932e-09,-3.640398e-10,-0.0012806279,2
197799616,197798399,0.99792385,0.029267456,0.009968355,0.05649911,0.9999992,-1.2071932e-09,-3.640398e-10,-0.0012806279,2
197844581,197843418,0.99791366,0.029429147,0.009927746,0.05660126,0.9999992,-1.2071932e-09,-3.640398e-10,-0.0012806279,2
197894683,197893439,0.9979022,0.029415507,0.009923821,0.05681117,0.9999992,-1.2071932e-09,-3.640398e-10,-0.0012806279,2
197949807,197948465,0.9978907,0.029592037,0.009877786,0.056929775,0.9999992,-1.2071932e-09,-3.640398e-10,-0.0012806279,2
197994708,197993487,0.9978811,0.029558772,0.010000189,0.05709282,0.9999992,-1.2071932e-09,-3.640398e-10,-0.0012806279,2
198044782,198043511,0.9978719,0.02968721,0.010023857,0.057184715,0.9999992,-1.2071932e-09,-3.640398e-10,-0.0012806279,2
198094737,198093535,0.9978743,0.029625878,0.010028379,0.05717136,0.9999992,-1.2071932e-09,-3.640398e-10,-0.0012806279,2
198149919,198148560,0.9978806,0.029801283,0.009919512,0.056991693,0.9999992,-1.2071932e-09,-3.640398e-10,-0.0012806279,2
198194889,198193582,0.997872,0.03002047,0.009935892,0.057022694,0.9999992,-1.2071932e-09,-3.640398e-10,-0.0012806279,2
198245005,198243606,0.9978499,0.029867938,0.010027075,0.057472706,0.9999992,-1.2071932e-09,-3.640398e-10,-0.0012806279,2
198299858,198298633,0.99781066,0.030039527,0.010025889,0.05806075,0.9999992,-1.2071932e-09,-3.640398e-10,-0.0012806279,2
198344898,198343657,0.9977718,0.029774453,0.00987498,0.05888557,0.9999992,-1.2071932e-09,-3.640398e-10,-0.0012806279,2
198395013,198393678,0.99775046,0.02955666,0.0101033775,0.05931707,0.9999992,-1.2071932e-09,-3.640398e-10,-0.0012806279,2
198445024,198443702,0.997758,0.029471843,0.010190349,0.059217565,0.9999992,-1.2071932e-09,-3.640398e-10,-0.0012806279,2
198499991,198498728,0.99775285,0.029487165,0.010016002,0.059325762,0.9999992,-1.2071932e-09,-3.640398e-10,-0.0012806279,2
198545122,198543753,0.9977759,0.028887838,0.010054427,0.059226286,0.9999992,-1.2071932e-09,-3.640398e-10,-0.0012806279,2
198594911,198593773,0.9978326,0.027650427,0.010003685,0.058868505,0.9999992,-1.2071932e-09,-3.640398e-10,-0.0012806279,2
198649944,198648800,0.9978233,0.02737658,0.009840899,0.05918107,0.9999992,-1.2071932e-09,-3.640398e-10,-0.0012806279,2
198694984,198693821,0.9977821,0.027281879,0.009932011,0.05990009,0.9999992,-1.2071932e-09,-3.640398e-10,-0.0012806279,2
198744982,198743845,0.9977571,0.027353462,0.009946394,0.06028106,0.9999992,-1.2071932e-09,-3.640398e-10,-0.0012806279,2
198795045,198793871,0.99775314,0.027656497,0.00977434,0.060235962,0.9999992,-1.2071932e-09,-3.640398e-10,-0.0012806279,2
198850132,198848901,0.9977636,0.027846571,0.009790863,0.05997233,0.9999992,-1.2071932e-09,-3.640398e-10,-0.0012806279,2
198895086,198893917,0.99773467,0.028353725,0.009753815,0.060221117,0.9999992,-1.2071932e-09,-3.640398e-10,-0.0012806279,2
198945166,198943941,0.99768656,0.029023279,0.00982331,0.06068586,0.9999992,-1.2071932e-09,-3.640398e-10,-0.0012806279,2
199000167,198998972,0.9976667,0.029538404,0.009857347,0.060757287,0.9999992,-1.2071932e-09,-3.640398e-10,-0.0012806279,2
199045223,199044004,0.9976596,0.030306801,0.009504105,0.06055269,0.9999992,-1.2071932e-09,-3.640398e-10,-0.0012806279,2
199095284,199094021,0.9976509,0.030775433,0.009538833,0.06045252,0.9999992,-1.2071932e-09,-3.640398e-10,-0.0012806279,2
199145195,199144037,0.9976223,0.031332754,0.009431408,0.060655143,0.9999992,-1.2071932e-09,-3.640398e-10,-0.0012806279,2
199195238,199194061,0.9976397,0.031163575,0.009608913,0.060428917,0.9999992,-1.2071932e-09,-3.640398e-10,-0.0012806279,2
199245455,199244085,0.9976458,0.031482942,0.009392625,0.06019531,0.9999992,-1.2071932e-09,-3.640398e-10,-0.0012806279,2
199295356,199294118,0.9976276,0.031910907,0.009332643,0.060281936,0.9999992,-1.2071932e-09,-3.640398e-10,-0.0012806279,2
199350429,199349135,0.99761474,0.03214031,0.009447228,0.060354576,0.9999992,-1.2071932e-09,-3.640398e-10,-0.0012806279,2
199395389,199394156,0.99761,0.032009985,0.009518371,0.06049095,0.9999992,-1.2071932e-09,-3.640398e-10,-0.0012806279,2
199445427,199444180,0.99761105,0.031393714,0.009475003,0.060801413,0.9999992,-1.2071932e-09,-3.640398e-10,-0.0012806279,2
199495553,199494266,0.9976029,0.030919474,0.009710562,0.061141994,0.9999992,-1.2071932e-09,-3.640398e-10,-0.0012806279,2
199545574,199544228,0.99759567,0.03090393,0.009568951,0.061288387,0.9999992,-1.2071932e-09,-3.640398e-10,-0.0012806279,2
199595533,199594252,0.997594,0.030772159,0.0097397445,0.06135506,0.9999992,-1.2071932e-09,-3.640398e-10,-0.0012806279,2
199645700,199644276,0.99760544,0.030265315,0.009795035,0.06141176,0.9999992,-1.2071932e-09,-3.640398e-10,-0.0012806279,2
199700571,199699303,0.99771684,0.027305344,0.010475294,0.060875345,0.9999992,-1.2071932e-09,-3.640398e-10,-0.0012806279,2
199745574,199744328,0.9977258,0.02761721,0.00989724,0.060685392,0.9999992,-1.2071932e-09,-3.640398e-10,-0.0012806279,2
199795681,199794352,0.99768555,0.027907623,0.010044407,0.06118679,0.9999992,-1.2071932e-09,-3.640398e-10,-0.0012806279,2
199845656,199844378,0.99764764,0.028676197,0.009957186,0.061464258,0.9999992,-1.2071932e-09,-3.640398e-10,-0.0012806279,2
199895631,199894404,0.99763536,0.028969353,0.009901071,0.061534893,0.9999992,-1.2071932e-09,-3.640398e-10,-0.0012806279,2
199945738,199944424,0.99768585,0.027581384,0.010392097,0.06127226,0.9999992,-1.2071932e-09,-3.640398e-10,-0.0012806279,2
199995741,199994448,0.99767184,0.028186385,0.009883134,0.06130977,0.9999992,-1.2071932e-09,-3.640398e-10,-0.0012806279,2
200045785,200044470,0.9976441,0.028481016,0.010202677,0.061571147,0.9999992,-1.2071932e-09,-3.640398e-10,-0.0012806279,2
200095784,200094492,0.99764216,0.02887148,0.009917586,0.06146752,0.9999992,-1.2071932e-09,-3.640398e-10,-0.0012806279,2
200145669,200144516,0.9976388,0.029083427,0.009879902,0.06142761,0.9999992,-1.2071932e-09,-3.640398e-10,-0.0012806279,2
200195764,200194575,0.9976039,0.029341063,0.009885551,0.061868817,0.9999992,-1.2071932e-09,-3.640398e-10,-0.0012806279,2
200245709,200244564,0.9975758,0.029458724,0.009909467,0.06226225,0.9999992,-1.2071932e-09,-3.640398e-10,-0.0012806279,2
200295784,200294592,0.99755013,0.029659111,0.0098806815,0.062582016,0.9999992,-1.2071932e-09,-3.640398e-10,-0.0012806279,2
200345803,200344612,0.99753916,0.029856909,0.009893278,0.06266196,0.9999992,-1.2071932e-09,-3.640398e-10,-0.0012806279,2
200395793,200394637,0.9975489,0.02984206,0.009898989,0.06251252,0.9999992,-1.2071932e-09,-3.640398e-10,-0.0012806279,2
200445855,200444692,0.997549,0.030111441,0.009844329,0.062389866,0.9999992,-1.2071932e-09,-3.640398e-10,-0.0012806279,2
200495842,200494684,0.99756515,0.030021017,0.009847945,0.062174726,0.9999992,-1.2071932e-09,-3.640398e-10,-0.0012806279,2
200545904,200544708,0.99756455,0.030189635,0.009704665,0.062125042,0.9999992,-1.2071932e-09,-3.640398e-10,-0.0012806279,2
200595912,200594732,0.9975555,0.030177943,0.009786868,0.0622616,0.9999992,-1.2071932e-09,-3.640398e-10,-0.0012806279,2
200645897,200644756,0.99754894,0.030122174,0.009793281,0.062392823,0.9999992,-1.2071932e-09,-3.640398e-10,-0.0012806279,2
200695957,200694787,0.9975464,0.030118302,0.00981139,0.062432937,0.9999992,-1.2071932e-09,-3.640398e-10,-0.0012806279,2
200745980,200744813,0.9975574,0.03002138,0.009768255,0.06231068,0.9999992,-1.2071932e-09,-3.640398e-10,-0.0012806279,2
200796063,200794828,0.99755317,0.030062089,0.009806815,0.06235205,0.9999992,-1.2071932e-09,-3.640398e-10,-0.0012806279,2
200846085,200844854,0.9975485,0.030356849,0.009530497,0.062326692,0.9999992,-1.2071932e-09,-3.640398e-10,-0.0012806279,2
200896208,200894916,0.9975207,0.030677963,0.009367667,0.062640026,0.9999992,-1.2071932e-09,-3.640398e-10,-0.0012806279,2
200946233,200944899,0.9974779,0.030668315,0.009265676,0.063336276,0.9999992,-1.2071932e-09,-3.640398e-10,-0.0012806279,2
200996303,200994924,0.99747944,0.03007144,0.009298324,0.06359362,0.9999992,-1.2071932e-09,-3.640398e-10,-0.0012806279,2
201046329,201044948,0.9975903,0.027237115,0.009722573,0.06306503,0.9999992,-1.2071932e-09,-3.640398e-10,-0.0012806279,2
201096315,201094972,0.9976433,0.027235474,0.009474986,0.062259804,0.9999992,-1.2071932e-09,-3.640398e-10,-0.0012806279,2
201146284,201144995,0.9976036,0.028510477,0.0092957495,0.062352553,0.9999992,-1.2071932e-09,-3.640398e-10,-0.0012806279,2
201196262,201195020,0.99759287,0.02853676,0.009454192,0.062488273,0.9999992,-1.2071932e-09,-3.640398e-10,-0.0012806279,2
201246240,201245043,0.99759525,0.02874541,0.00929412,0.062379424,0.9999992,-1.2071932e-09,-3.640398e-10,-0.0012806279,2
201296290,201295068,0.99761456,0.027825322,0.009755404,0.062416174,0.9999992,-1.2071932e-09,-3.640398e-10,-0.0012806279,2
201346249,201345103,0.9976018,0.027643777,0.009427752,0.06275139,0.9999992,-1.2071932e-09,-3.640398e-10,-0.0012806279,2
201396263,201395115,0.99760395,0.027379543,0.009861851,0.06276579,0.9999992,-1.2071932e-09,-3.640398e-10,-0.0012806279,2
201446321,201445145,0.997609,0.027447855,0.009563864,0.062700234,0.9999992,-1.2071932e-09,-3.640398e-10,-0.0012806279,2
201496320,201495163,0.99763334,0.027508097,0.009475931,0.06230086,0.9999992,-1.2071932e-09,-3.640398e-10,-0.0012806279,2
201546356,201545188,0.99766386,0.027128648,0.009137813,0.06202672,0.9999992,-1.2071932e-09,-3.640398e-10,-0.0012806279,2
201596443,201595212,0.99764997,0.027080003,0.00903538,0.0622864,0.9999992,-1.2071932e-09,-3.640398e-10,-0.0012806279,2
201646421,201645236,0.99765015,0.026917228,0.009163681,0.062335208,0.9999992,-1.2071932e-09,-3.640398e-10,-0.0012806279,2
201696446,201695260,0.99770707,0.025848342,0.00904892,0.06189202,0.9999992,-1.2071932e-09,-3.640398e-10,-0.0012806279,2
201746538,201745287,0.99774754,0.026478305,0.008819983,0.061000533,0.9999992,-1.2071932e-09,-3.640398e-10,-0.0012806279,2
201796481,201795324,0.9977619,0.026873922,0.00852822,0.060632095,0.9999992,-1.2071932e-09,-3.640398e-10,-0.0012806279,2
201846503,201845339,0.9977568,0.027026732,0.008930315,0.060591087,0.9999992,-1.2071932e-09,-3.640398e-10,-0.0012806279,2
201896544,201895355,0.99770075,0.026934242,0.009095307,0.06152204,0.9999992,-1.2071932e-09,-3.640398e-10,-0.0012806279,2
201946612,201945388,0.99763125,0.026955629,0.009551702,0.06256251,0.9999992,-1.2071932e-09,-3.640398e-10,-0.0012806279,2
201996592,201995404,0.99755526,0.027279807,0.009957089,0.063563235,0.9999992,-1.2071932e-09,-3.640398e-10,-0.0012806279,2
202046586,202045428,0.9974976,0.028222784,0.009723847,0.06409057,0.9999992,-1.2071932e-09,-3.640398e-10,-0.0012806279,2
202096625,202095452,0.99746215,0.028821997,0.009999086,0.06433205,0.9999992,-1.2071932e-09,-3.640398e-10,-0.0012806279,2
202146766,202145515,0.9974612,0.028888285,0.009826756,0.064343855,0.9999992,-1.2071932e-09,-3.640398e-10,-0.0012806279,2
202196698,202195500,0.9975049,0.028564138,0.009877301,0.063801415,0.9999992,-1.2071932e-09,-3.640398e-10,-0.0012806279,2
202246802,202245524,0.99754345,0.028818639,0.00959424,0.06312352,0.9999992,-1.2071932e-09,-3.640398e-10,-0.0012806279,2
202296811,202295549,0.9976606,0.028429145,0.009346595,0.06146338,0.9999992,-1.2071932e-09,-3.640398e-10,-0.0012806279,2
202346810,202345572,0.9977823,0.027642129,0.008973985,0.059881855,0.9999992,-1.2071932e-09,-3.640398e-10,-0.0012806279,2
202396985,202395596,0.9978204,0.026850156,0.009028156,0.05959922,0.9999992,-1.2071932e-09,-3.640398e-10,-0.0012806279,2
202446892,202445620,0.9977281,0.02680923,0.009178395,0.061119787,0.9999992,-1.2071932e-09,-3.640398e-10,-0.0012806279,2
202496853,202495647,0.9975974,0.028107464,0.009666746,0.062577814,0.9999992,-1.2071932e-09,-3.640398e-10,-0.0012806279,2
202546895,202545672,0.9975479,0.028978346,0.009391018,0.06300961,0.9999992,-1.2071932e-09,-3.640398e-10,-0.0012806279,2
202597028,202595692,0.9976294,0.02826437,0.009096724,0.06208156,0.9999992,-1.2071932e-09,-3.640398e-10,-0.0012806279,2
202646981,202645716,0.99776417,0.027515057,0.008801573,0.060266923,0.9999992,-1.2071932e-09,-3.640398e-10,-0.0012806279,2
202696940,202695740,0.99787587,0.026796054,0.008779065,0.058725387,0.9999992,-1.2071932e-09,-3.640398e-10,-0.0012806279,2
202746909,202745764,0.9979591,0.025430137,0.008944911,0.057888214,0.9999992,-1.2071932e-09,-3.640398e-10,-0.0012806279,2
202796949,202795788,0.9980046,0.02470305,0.009238134,0.057370342,0.9999992,-1.2071932e-09,-3.640398e-10,-0.0012806279,2
202847005,202845812,0.9980055,0.024619391,0.0089658145,0.057432394,0.9999992,-1.2071932e-09,-3.640398e-10,-0.0012806279,2
202896987,202895836,0.99800074,0.024882669,0.0090696225,0.057386477,0.9999992,-1.2071932e-09,-3.640398e-10,-0.0012806279,2
202947017,202945860,0.9980166,0.025337055,0.009132648,0.056900464,0.9999992,-1.2071932e-09,-3.640398e-10,-0.0012806279,2
202997139,202995884,0.9980599,0.025564067,0.008991235,0.056055054,0.9999992,-1.2071932e-09,-3.640398e-10,-0.0012806279,2
203047135,203045908,0.9980853,0.02657296,0.009211505,0.055088248,0.9999992,-1.2071932e-09,-3.640398e-10,-0.0012806279,2
203097096,203095933,0.9981105,0.026797121,0.009158358,0.05453098,0.9999992,-1.2071932e-09,-3.640398e-10,-0.0012806279,2
203147192,203145958,0.9981371,0.026624553,0.0091806995,0.054121997,0.9999992,-1.2071932e-09,-3.640398e-10,-0.0012806279,2
203197168,203196015,0.99803585,0.02739698,0.009343857,0.055556796,0.9999992,-1.2071932e-09,-3.640398e-10,-0.0012806279,2
203247249,203246004,0.99789083,0.026249362,0.009258038,0.0586456,0.9999992,-1.2071932e-09,-3.640398e-10,-0.0012806279,2
203297241,203296028,0.99774975,0.024992587,0.009536849,0.061481003,0.9999992,-1.2071932e-09,-3.640398e-10,-0.0012806279,2
203347206,203346053,0.9975717,0.026464302,0.009937249,0.06365322,0.9999992,-1.2071932e-09,-3.640398e-10,-0.0012806279,2
203397269,203396077,0.99744827,0.027981672,0.009865166,0.06493596,0.9999992,-1.2071932e-09,-3.640398e-10,-0.0012806279,2
203447317,203446101,0.9974486,0.027493672,0.010053422,0.06510935,0.9999992,-1.2071932e-09,-3.640398e-10,-0.0012806279,2
203497287,203496125,0.9975333,0.02599984,0.00982045,0.06445778,0.9999992,-1.2071932e-09,-3.640398e-10,-0.0012806279,2
203547341,203546158,0.9976041,0.026073297,0.009749321,0.063334055,0.9999992,-1.2071932e-09,-3.640398e-10,-0.0012806279,2
203597342,203596173,0.99764234,0.027424203,0.009510947,0.062187254,0.9999992,-1.2071932e-09,-3.640398e-10,-0.0012806279,2
203647398,203646197,0.9976918,0.027805567,0.009454937,0.061225276,0.9999992,-1.2071932e-09,-3.640398e-10,-0.0012806279,2
203697531,203696221,0.9977556,0.026776453,0.009373504,0.06065452,0.9999992,-1.2071932e-09,-3.640398e-10,-0.0012806279,2
203747531,203746247,0.9977757,0.026072202,0.0094009,0.060626537,0.9999992,-1.2071932e-09,-3.640398e-10,-0.0012806279,2
203797580,203796273,0.99773234,0.026718179,0.009481941,0.06104439,0.9999992,-1.2071932e-09,-3.640398e-10,-0.0012806279,2
203847665,203846293,0.9976753,0.027353344,0.009564914,0.06168043,0.9999992,-1.2071932e-09,-3.640398e-10,-0.0012806279,2
203897542,203896317,0.997655,0.026940186,0.009628451,0.062178772,0.9999992,-1.2071932e-09,-3.640398e-10,-0.0012806279,2
203947637,203946342,0.99765855,0.02634168,0.0096571185,0.06237308,0.9999992,-1.2071932e-09,-3.640398e-10,-0.0012806279,2
203997635,203996369,0.99765855,0.026563546,0.009648896,0.062279776,0.9999992,-1.2071932e-09,-3.640398e-10,-0.0012806279,2
204047589,204046396,0.9976635,0.02716835,0.009596184,0.06194742,0.9999992,-1.2071932e-09,-3.640398e-10,-0.0012806279,2
204097665,204096414,0.9976879,0.02718852,0.009538609,0.06155211,0.9999992,-1.2071932e-09,-3.640398e-10,-0.0012806279,2
204147600,204146441,0.9977154,0.026793612,0.009498886,0.06128562,0.9999992,-1.2071932e-09,-3.640398e-10,-0.0012806279,2
204197638,204196462,0.9977158,0.026767083,0.009491432,0.061292287,0.9999992,-1.2071932e-09,-3.640398e-10,-0.0012806279,2
204247836,204246511,0.99769175,0.02709124,0.009535911,0.061532907,0.9999992,-1.2071932e-09,-3.640398e-10,-0.0012806279,2
204297676,204296510,0.9976729,0.02709486,0.009563524,0.06183262,0.9999992,-1.2071932e-09,-3.640398e-10,-0.0012806279,2
204347703,204346534,0.9976678,0.026789485,0.0096025625,0.062042117,0.9999992,-1.2071932e-09,-3.640398e-10,-0.0012806279,2
204392772,204391558,0.9976684,0.026742779,0.009598538,0.06205328,0.9999992,-1.2071932e-09,-3.640398e-10,-0.0012806279,2
204447809,204446582,0.99767303,0.026959138,0.009585803,0.061886545,0.9999992,-1.2071932e-09,-3.640398e-10,-0.0012806279,2
204497794,204496611,0.9976886,0.026953448,0.009536784,0.061643988,0.9999992,-1.2071932e-09,-3.640398e-10,-0.0012806279,2
204547806,204546644,0.99770445,0.02673955,0.00951605,0.061484158,0.9999992,-1.2071932e-09,-3.640398e-10,-0.0012806279,2
204597811,204596662,0.99770594,0.026717491,0.009522082,0.061469924,0.9999992,-1.2071932e-09,-3.640398e-10,-0.0012806279,2
204647864,204646679,0.99769264,0.02691371,0.0095364135,0.061597608,0.9999992,-1.2071932e-09,-3.640398e-10,-0.0012806279,2
204697913,204696703,0.9976809,0.02696807,0.009565928,0.061759356,0.9999992,-1.2071932e-09,-3.640398e-10,-0.0012806279,2
204742909,204741724,0.9976782,0.026830971,0.009581161,0.061860006,0.9999992,-1.2071932e-09,-3.640398e-10,-0.0012806279,2
204797934,204796755,0.9976805,0.026783109,0.009570712,0.06184559,0.9999992,-1.2071932e-09,-3.640398e-10,-0.0012806279,2
204847928,204846775,0.9976824,0.02696872,0.009543976,0.061737917,0.9999992,-1.2071932e-09,-3.640398e-10,-0.0012806279,2
204897984,204896803,0.9976884,0.02704549,0.009531589,0.06160858,0.9999992,-1.2071932e-09,-3.640398e-10,-0.0012806279,2
204948029,204946831,0.99769634,0.026902793,0.009529873,0.06154329,0.9999992,-1.2071932e-09,-3.640398e-10,-0.0012806279,2
204998024,204996847,0.9976958,0.026857754,0.009533221,0.061570596,0.9999992,-1.2071932e-09,-3.640398e-10,-0.0012806279,2
205048154,205046871,0.9976854,0.026976917,0.009560841,0.061683048,0.9999992,-1.2071932e-09,-3.640398e-10,-0.0012806279,2
205093165,205091893,0.99767685,0.027042456,0.009560916,0.06179203,0.9999992,-1.2071932e-09,-3.640398e-10,-0.0012806279,2
205148253,205146919,0.99767643,0.02693765,0.009565245,0.06184466,0.9999992,-1.2071932e-09,-3.640398e-10,-0.0012806279,2
205198244,205196944,0.9976823,0.026840994,0.009546414,0.06179423,0.9999992,-1.2071932e-09,-3.640398e-10,-0.0012806279,2
205243257,205241966,0.9976866,0.026910942,0.009524066,0.06169622,0.9999992,-1.2071932e-09,-3.640398e-10,-0.0012806279,2
205298289,205296992,0.99769115,0.027010508,0.009505443,0.061583906,0.9999992,-1.2071932e-09,-3.640398e-10,-0.0012806279,2
205348219,205347016,0.99769694,0.026905918,0.009503595,0.061536647,0.9999992,-1.2071932e-09,-3.640398e-10,-0.0012806279,2
205398260,205397040,0.9976966,0.026824014,0.009502289,0.061577328,0.9999992,-1.2071932e-09,-3.640398e-10,-0.0012806279,2
205443316,205442062,0.99768955,0.026894942,0.009506099,0.061659213,0.9999992,-1.2071932e-09,-3.640398e-10,-0.0012806279,2
205498406,205497089,0.9976813,0.026983595,0.009514382,0.06175348,0.9999992,-1.2071932e-09,-3.640398e-10,-0.0012806279,2
205548396,205547112,0.9976832,0.02692212,0.009519062,0.061748337,0.9999992,-1.2071932e-09,-3.640398e-10,-0.0012806279,2
205593435,205592134,0.997688,0.026863586,0.009508027,0.061697416,0.9999992,-1.2071932e-09,-3.640398e-10,-0.0012806279,2
205648509,205647161,0.9976935,0.026911441,0.009474414,0.061592896,0.9999992,-1.2071932e-09,-3.640398e-10,-0.0012806279,2
205698331,205697185,0.9976959,0.026983615,0.00945665,0.061526157,0.9999992,-1.2071932e-09,-3.640398e-10,-0.0012806279,2
205748390,205747209,0.99769765,0.026916578,0.009455232,0.061526455,0.9999992,-1.2071932e-09,-3.640398e-10,-0.0012806279,2
205793390,205792231,0.99769616,0.02682849,0.00947151,0.061588064,0.9999992,-1.2071932e-09,-3.640398e-10,-0.0012806279,2
205848422,205847257,0.99768907,0.026865525,0.009490956,0.06168175,0.9999992,-1.2071932e-09,-3.640398e-10,-0.0012806279,2
205898471,205897278,0.997681,0.027001379,0.0094951475,0.061751686,0.9999992,-1.2071932e-09,-3.640398e-10,-0.0012806279,2
205943483,205942333,0.99768054,0.027045777,0.009492494,0.06174102,0.9999992,-1.2071932e-09,-3.640398e-10,-0.0012806279,2
205998564,205997330,0.99768734,0.026969839,0.009478246,0.061666626,0.9999992,-1.2071932e-09,-3.640398e-10,-0.0012806279,2
206048553,206047354,0.99769366,0.026938919,0.009464139,0.061580405,0.9999992,-1.2071932e-09,-3.640398e-10,-0.0012806279,2
206093618,206092416,0.9976945,0.02698541,0.009451968,0.06154793,0.9999992,-1.2071932e-09,-3.640398e-10,-0.0012806279,2
206143709,206142400,0.99769074,0.027045881,0.009449612,0.061583962,0.9999992,-1.2071932e-09,-3.640398e-10,-0.0012806279,2
206198636,206197423,0.99768835,0.026955368,0.009458374,0.061660025,0.9999992,-1.2071932e-09,-3.640398e-10,-0.0012806279,2
206248667,206247450,0.99768543,0.026922803,0.009466769,0.06171998,0.9999992,-1.2071932e-09,-3.640398e-10,-0.0012806279,2
206293631,206292472,0.9976829,0.026998432,0.00947062,0.061727367,0.9999992,-1.2071932e-09,-3.640398e-10,-0.0012806279,2
206348736,206347506,0.99768454,0.02703975,0.009452394,0.061686076,0.9999992,-1.2071932e-09,-3.640398e-10,-0.0012806279,2
206398722,206397523,0.99769074,0.026968779,0.009443914,0.0616176,0.9999992,-1.2071932e-09,-3.640398e-10,-0.0012806279,2
206443810,206442544,0.997696,0.026896022,0.009431727,0.06156566,0.9999992,-1.2071932e-09,-3.640398e-10,-0.0012806279,2
206493838,206492569,0.99769706,0.02690298,0.009425703,0.061547305,0.9999992,-1.2071932e-09,-3.640398e-10,-0.0012806279,2
206548971,206547595,0.99769545,0.026906218,0.009434093,0.061571028,0.9999992,-1.2071932e-09,-3.640398e-10,-0.0012806279,2
206598864,206597619,0.99769443,0.026806016,0.009451806,0.061627712,0.9999992,-1.2071932e-09,-3.640398e-10,-0.0012806279,2
206643940,206642641,0.9976942,0.02674793,0.009463872,0.061654553,0.9999992,-1.2071932e-09,-3.640398e-10,-0.0012806279,2
206698955,206697671,0.9976946,0.026673438,0.009270557,0.06170875,0.9999992,-1.2071932e-09,-3.640398e-10,-0.0012806279,2
206748897,206747692,0.99766535,0.026465164,0.00937708,0.062254332,0.9999992,-1.2071932e-09,-3.640398e-10,-0.0012806279,2
206794121,206792721,0.9976356,0.02626272,0.009445717,0.06280347,0.9999992,-1.2071932e-09,-3.640398e-10,-0.0012806279,2
206844082,206842738,0.99763227,0.026191542,0.00917745,0.062926486,0.9999992,-1.2071932e-09,-3.640398e-10,-0.0012806279,2
206899111,206897798,0.9976336,0.026188098,0.009316177,0.062885866,0.9999992,-1.2071932e-09,-3.640398e-10,-0.0012806279,2
206949056,206947788,0.9976447,0.02636261,0.009106271,0.062667646,0.9999992,-1.2071932e-09,-3.640398e-10,-0.0012806279,2
206993950,206992810,0.99766964,0.026306706,0.009143216,0.062287807,0.9999992,-1.2071932e-09,-3.640398e-10,-0.0012806279,2
207049049,207047837,0.99769676,0.02635196,0.009271553,0.061812673,0.9999992,-1.2071932e-09,-3.640398e-10,-0.0012806279,2
207099121,207097861,0.99772346,0.026363583,0.008817188,0.061442487,0.9999992,-1.2071932e-09,-3.640398e-10,-0.0012806279,2
207144016,207142883,0.9977349,0.025945107,0.00890345,0.061422218,0.9999992,-1.2071932e-09,-3.640398e-10,-0.0012806279,2
207194190,207192907,0.9977241,0.02574618,0.008995953,0.0616679,0.9999992,-1.2071932e-09,-3.640398e-10,-0.0012806279,2
207249079,207247935,0.99770725,0.02600614,0.008872093,0.061847843,0.9999992,-1.2071932e-09,-3.640398e-10,-0.0012806279,2
207294106,207292958,0.997695,0.0259791,0.00902272,0.06203468,0.9999992,-1.2071932e-09,-3.640398e-10,-0.0012806279,2
207344151,207342987,0.99768746,0.02587639,0.0089449445,0.06221023,0.9999992,-1.2071932e-09,-3.640398e-10,-0.0012806279,2
207399160,207398006,0.9976828,0.025996026,0.009162329,0.062204912,0.9999992,-1.2071932e-09,-3.640398e-10,-0.0012806279,2
207449275,207448031,0.997691,0.02632281,0.009003796,0.061959326,0.9999992,-1.2071932e-09,-3.640398e-10,-0.0012806279,2
207494282,207493052,0.99769324,0.026276847,0.008962471,0.061947644,0.9999992,-1.2071932e-09,-3.640398e-10,-0.0012806279,2
207544252,207543076,0.99768746,0.025866903,0.009024515,0.062203187,0.9999992,-1.2071932e-09,-3.640398e-10,-0.0012806279,2
207599299,207598111,0.99765295,0.02566789,0.009394813,0.06278084,0.9999992,-1.2071932e-09,-3.640398e-10,-0.0012806279,2
207644418,207643125,0.9976414,0.025921345,0.009295014,0.062876076,0.9999992,-1.2071932e-09,-3.640398e-10,-0.0012806279,2
207694344,207693149,0.99764,0.025899943,0.009268189,0.062910184,0.9999992,-1.2071932e-09,-3.640398e-10,-0.0012806279,2
207749539,207748175,0.9976474,0.025627954,0.009293232,0.06290108,0.9999992,-1.2071932e-09,-3.640398e-10,-0.0012806279,2
207799415,207798200,0.9976148,0.025955297,0.009444861,0.063260496,0.9999992,-1.2071932e-09,-3.640398e-10,-0.0012806279,2
207844434,207843221,0.99758047,0.02647788,0.009487471,0.063578,0.9999992,-1.2071932e-09,-3.640398e-10,-0.0012806279,2
207894432,207893246,0.9975623,0.026390873,0.009580131,0.063885,0.9999992,-1.2071932e-09,-3.640398e-10,-0.0012806279,2
207949607,207948272,0.99755925,0.025799014,0.0095829265,0.06417267,0.9999992,-1.2071932e-09,-3.640398e-10,-0.0012806279,2
207994556,207993294,0.99761224,0.025396135,0.009196893,0.063563615,0.9999992,-1.2071932e-09,-3.640398e-10,-0.0012806279,2
208044613,208043321,0.9976726,0.025196087,0.009182094,0.06269215,0.9999992,-1.2071932e-09,-3.640398e-10,-0.0012806279,2
208094561,208093343,0.99767625,0.02544857,0.009195615,0.062529765,0.9999992,-1.2071932e-09,-3.640398e-10,-0.0012806279,2
208149601,208148369,0.99771225,0.025275405,0.008466445,0.062126637,0.9999992,-1.2071932e-09,-3.640398e-10,-0.0012806279,2
208194738,208193393,0.9977599,0.024379393,0.00844602,0.06172133,0.9999992,-1.2071932e-09,-3.640398e-10,-0.0012806279,2
208244702,208243415,0.997812,0.024034783,0.008653765,0.06098214,0.9999992,-1.2071932e-09,-3.640398e-10,-0.0012806279,2
208299835,208298474,0.99782777,0.025181858,0.0084063485,0.060292043,0.9999992,-1.2071932e-09,-3.640398e-10,-0.0012806279,2
208344791,208343464,0.99783075,0.025498495,0.008458995,0.06010154,0.9999992,-1.2071932e-09,-3.640398e-10,-0.0012806279,2
208394662,208393488,0.99782956,0.02485823,0.008436089,0.060390975,0.9999992,-1.2071932e-09,-3.640398e-10,-0.0012806279,2
208449723,208448514,0.9977834,0.024782978,0.0090030255,0.06109798,0.9999992,-1.2071932e-09,-3.640398e-10,-0.0012806279,2
208494713,208493536,0.9977384,0.025596019,0.0087941345,0.061526667,0.9999992,-1.2071932e-09,-3.640398e-10,-0.0012806279,2
208544732,208543561,0.99772215,0.025881505,0.008986373,0.06164424,0.9999992,-1.2071932e-09,-3.640398e-10,-0.0012806279,2
208594759,208593611,0.99773,0.0254654,0.008935885,0.061697643,0.9999992,-1.2071932e-09,-3.640398e-10,-0.0012806279,2
208649774,208648616,0.997705,0.025938366,0.008919586,0.061906334,0.9999992,-1.2071932e-09,-3.640398e-10,-0.0012806279,2
208694799,208693655,0.99766535,0.026513705,0.008768578,0.06232248,0.9999992,-1.2071932e-09,-3.640398e-10,-0.0012806279,2
208744888,208743661,0.997647,0.026199548,0.009030148,0.06270968,0.9999992,-1.2071932e-09,-3.640398e-10,-0.0012806279,2
208799848,208798684,0.9976774,0.025811458,0.009013838,0.06238919,0.9999992,-1.2071932e-09,-3.640398e-10,-0.0012806279,2
208844848,208843706,0.9977109,0.026140282,0.008976703,0.061717663,0.9999992,-1.2071932e-09,-3.640398e-10,-0.0012806279,2
208895024,208893730,0.9977473,0.026882578,0.008936372,0.060810246,0.9999992,-1.2071932e-09,-3.640398e-10,-0.0012806279,2
208945053,208943754,0.99780196,0.027042339,0.008860382,0.059846334,0.9999992,-1.2071932e-09,-3.640398e-10,-0.0012806279,2
209000084,208998811,0.99784523,0.026354507,0.0088823065,0.059425704,0.9999992,-1.2071932e-09,-3.640398e-10,-0.0012806279,2
209045063,209043802,0.9978697,0.026196254,0.009081271,0.059054103,0.9999992,-1.2071932e-09,-3.640398e-10,-0.0012806279,2
209095042,209093831,0.9979023,0.026929945,0.009067204,0.05817045,0.9999992,-1.2071932e-09,-3.640398e-10,-0.0012806279,2
209150068,209148854,0.99792033,0.027638668,0.008715138,0.057578653,0.9999992,-1.2071932e-09,-3.640398e-10,-0.0012806279,2
209195108,209193875,0.99792033,0.02723161,0.008747189,0.057766017,0.9999992,-1.2071932e-09,-3.640398e-10,-0.0012806279,2
209245135,209243899,0.99794203,0.026456106,0.008722447,0.05775572,0.9999992,-1.2071932e-09,-3.640398e-10,-0.0012806279,2
209295190,209293924,0.9979664,0.026643379,0.008656169,0.05725756,0.9999992,-1.2071932e-09,-3.640398e-10,-0.0012806279,2
209345216,209343948,0.9979669,0.02673332,0.009067124,0.05714279,0.9999992,-1.2071932e-09,-3.640398e-10,-0.0012806279,2
209395312,209393972,0.9979296,0.026339943,0.008728067,0.058023978,0.9999992,-1.2071932e-09,-3.640398e-10,-0.0012806279,2
209445289,209444012,0.99788505,0.026053142,0.009010692,0.058868203,0.9999992,-1.2071932e-09,-3.640398e-10,-0.0012806279,2
209500312,209499023,0.99783444,0.026715418,0.0088895755,0.059445787,0.9999992,-1.2071932e-09,-3.640398e-10,-0.0012806279,2
209545231,209544045,0.9978014,0.026793096,0.008952202,0.059952095,0.9999992,-1.2071932e-09,-3.640398e-10,-0.0012806279,2
209595399,209594069,0.99777246,0.02609201,0.009159522,0.06070837,0.9999992,-1.2071932e-09,-3.640398e-10,-0.0012806279,2
209645328,209644093,0.9977589,0.026197074,0.009338871,0.0608584,0.9999992,-1.2071932e-09,-3.640398e-10,-0.0012806279,2
209695267,209694121,0.9977739,0.026604732,0.009146458,0.06046385,0.9999992,-1.2071932e-09,-3.640398e-10,-0.0012806279,2
209745310,209744142,0.99781275,0.02603896,0.00899437,0.06009115,0.9999992,-1.2071932e-09,-3.640398e-10,-0.0012806279,2
209795354,209794166,0.9978456,0.025839832,0.008785564,0.059661243,0.9999992,-1.2071932e-09,-3.640398e-10,-0.0012806279,2
209850416,209849193,0.9978718,0.025433505,0.008741931,0.059402928,0.9999992,-1.2071932e-09,-3.640398e-10,-0.0012806279,2
209895379,209894215,0.9978638,0.024971336,0.008824975,0.059719604,0.9999992,-1.2071932e-09,-3.640398e-10,-0.0012806279,2
209945379,209944239,0.99780035,0.025393244,0.009198332,0.06054015,0.9999992,-1.2071932e-09,-3.640398e-10,-0.0012806279,2
209995475,209994313,0.9977109,0.026697444,0.009292774,0.061431646,0.9999992,-1.2071932e-09,-3.640398e-10,-0.0012806279,2
210045492,210044292,0.9976521,0.02722384,0.009389771,0.062136687,0.9999992,-1.2071932e-09,-3.640398e-10,-0.0012806279,2
210095489,210094333,0.9976534,0.02685675,0.009426286,0.062269043,0.9999992,-1.2071932e-09,-3.640398e-10,-0.0012806279,2
210145622,210144401,0.9976509,0.02726349,0.009282445,0.06215509,0.9999992,-1.2071932e-09,-3.640398e-10,-0.0012806279,2
210200595,210199363,0.99767905,0.02788532,0.008861836,0.061485186,0.9999992,-1.2071932e-09,-3.640398e-10,-0.0012806279,2
210245538,210244392,0.99775976,0.02647955,0.00875332,0.060808495,0.9999992,-1.2071932e-09,-3.640398e-10,-0.0012806279,2
210295636,210294409,0.99774593,0.025263792,0.008943521,0.061521336,0.9999992,-1.2071932e-09,-3.640398e-10,-0.0012806279,2
210345598,210344440,0.9976284,0.025930071,0.009049639,0.06311455,0.9999992,-1.2071932e-09,-3.640398e-10,-0.0012806279,2
210395628,210394458,0.9975497,0.026868956,0.00912907,0.06394856,0.9999992,-1.2071932e-09,-3.640398e-10,-0.0012806279,2
210445641,210444482,0.9975901,0.026633859,0.008839199,0.06345448,0.9999992,-1.2071932e-09,-3.640398e-10,-0.0012806279,2
210495812,210494506,0.99767125,0.026093384,0.008811036,0.062399793,0.9999992,-1.2071932e-09,-3.640398e-10,-0.0012806279,2
210545779,210544530,0.99765587,0.026437916,0.008963389,0.062478922,0.9999992,-1.2071932e-09,-3.640398e-10,-0.0012806279,2
210595928,210594554,0.9974696,0.027271368,0.009501455,0.06496577,0.9999992,-1.2071932e-09,-3.640398e-10,-0.0012806279,2
210645881,210644579,0.9972849,0.027933089,0.009712427,0.067440696,0.9999992,-1.2071932e-09,-3.640398e-10,-0.0012806279,2
210695894,210694603,0.99727404,0.02769662,0.009955566,0.06766258,0.9999992,-1.2071932e-09,-3.640398e-10,-0.0012806279,2
210745819,210744627,0.997366,0.02744074,0.009492716,0.066468276,0.9999992,-1.2071932e-09,-3.640398e-10,-0.0012806279,2
210795916,210794652,0.9974377,0.026912412,0.009548961,0.06559437,0.9999992,-1.2071932e-09,-3.640398e-10,-0.0012806279,2
210845926,210844711,0.9974743,0.02657603,0.009225563,0.065219305,0.9999992,-1.2071932e-09,-3.640398e-10,-0.0012806279,2
210895905,210894700,0.99745476,0.026317474,0.00889929,0.06566772,0.9999992,-1.2071932e-09,-3.640398e-10,-0.0012806279,2
210945999,210944724,0.9974331,0.02623387,0.009065542,0.06600603,0.9999992,-1.2071932e-09,-3.640398e-10,-0.0012806279,2
210996075,210994756,0.9974405,0.026383853,0.009168921,0.06582084,0.9999992,-1.2071932e-09,-3.640398e-10,-0.0012806279,2
211046050,211044773,0.9974529,0.026872607,0.0089363735,0.06546597,0.9999992,-1.2071932e-09,-3.640398e-10,-0.0012806279,2
211095955,211094797,0.99752796,0.027021905,0.008800343,0.064268164,0.9999992,-1.2071932e-09,-3.640398e-10,-0.0012806279,2
211145974,211144822,0.9976033,0.026833033,0.008774088,0.06317209,0.9999992,-1.2071932e-09,-3.640398e-10,-0.0012806279,2
211196027,211194846,0.99763167,0.026834328,0.008552612,0.062752366,0.9999992,-1.2071932e-09,-3.640398e-10,-0.0012806279,2
211246092,211244874,0.9975894,0.026911013,0.00883369,0.06334898,0.9999992,-1.2071932e-09,-3.640398e-10,-0.0012806279,2
211296061,211294895,0.9975372,0.02712385,0.009146501,0.06403329,0.9999992,-1.2071932e-09,-3.640398e-10,-0.0012806279,2
211346061,211344919,0.9975032,0.027225822,0.009100633,0.064523965,0.9999992,-1.2071932e-09,-3.640398e-10,-0.0012806279,2
211396157,211395006,0.9974689,0.026799442,0.009375267,0.06519039,0.9999992,-1.2071932e-09,-3.640398e-10,-0.0012806279,2
211446203,211444967,0.9974327,0.026636802,0.009430074,0.06579936,0.9999992,-1.2071932e-09,-3.640398e-10,-0.0012806279,2
211496175,211495030,0.99739426,0.02671871,0.009353044,0.06635857,0.9999992,-1.2071932e-09,-3.640398e-10,-0.0012806279,2
211546298,211545025,0.9973651,0.026755275,0.00953758,0.066754736,0.9999992,-1.2071932e-09,-3.640398e-10,-0.0012806279,2
