timestamp,timestamp_sample,baro_device_id,baro_alt_meter,baro_temp_celcius,baro_pressure_pa,rho
186807761,186787577,3997706,-17.301908,37.53,101533.0,1.2413186
186858015,186840355,3997706,-17.592564,37.53,101536.5,1.2422134
186919277,186895842,3997706,-17.571424,37.54,101536.24,1.2422103
186969521,186949325,3997706,-17.42874,37.54,101534.5,1.241337
187019762,187002105,3997706,-17.529148,37.54,101535.75,1.2413521
187080124,187057390,3997706,-17.449879,37.54,101534.75,1.2413399
187130409,187110209,3997706,-17.592564,37.54,101536.5,1.2413614
187180669,187163005,3997706,-17.529148,37.54,101535.74,1.2422041
187241952,187218547,3997706,-17.550287,37.54,101536.0,1.2422073
187292288,187272007,3997706,-17.492155,37.54,101535.25,1.241346
187342468,187324783,3997706,-17.2015,37.54,101531.75,1.2413033
187402796,187380123,3997706,-17.63484,37.54,101536.99,1.2413673
187453054,187432877,3997706,-17.2015,37.54,101531.75,1.2413033
187503342,187485655,3997706,-17.492155,37.54,101535.25,1.241346
187564588,187541202,3997706,-17.42874,37.54,101534.5,1.241337
187614872,187594663,3997706,-17.550287,37.54,101536.0,1.2413552
187665070,187647408,3997706,-17.529148,37.54,101535.74,1.2422041
187725388,187702694,3997706,-17.529148,37.54,101535.74,1.2422041
187775690,187755485,3997706,-17.529148,37.54,101535.75,1.2422041
187825950,187808303,3997706,-17.513294,37.54,101535.5,1.2422011
187887284,187863795,3997706,-17.323048,37.54,101533.24,1.2421734
187937456,187917287,3997706,-17.344185,37.54,101533.5,1.2421767
187987695,187970045,3997706,-17.449879,37.54,101534.75,1.2413399
188047960,188025291,3997706,-17.677118,37.54,101537.5,1.2413735
188098227,188078051,3997706,-17.529148,37.54,101535.74,1.2413521
188148460,188130807,3997706,-17.529148,37.54,101535.74,1.2413521
188208732,188186058,3997706,-17.571424,37.54,101536.26,1.2413584
188259897,188239270,3997706,-17.323048,37.54,101533.24,1.2413214
188310117,188292467,3997706,-17.550287,37.54,101536.0,1.2413552
188370433,188347754,3997706,-17.613703,37.54,101536.74,1.2413644
188420730,188400564,3997706,-17.571424,37.54,101536.26,1.2413584
188470966,188453313,3997706,-17.323048,37.54,101533.25,1.2413216
188531270,188508583,3997706,-17.613703,37.54,101536.75,1.2413645
188582646,188561603,3997706,-17.719395,37.54,101538.0,1.2422317
188632781,188615122,3997706,-17.471016,37.54,101535.0,1.242195
188693098,188670403,3997706,-17.492155,37.54,101535.25,1.242198
188743355,188723173,3997706,-17.550287,37.54,101536.01,1.2413553
188793602,188775949,3997706,-17.65598,37.54,101537.24,1.2413704
188853920,188831225,3997706,-17.719395,37.54,101538.0,1.2413796
188904216,188883999,3997706,-17.719395,37.54,101537.99,1.2413795
188955488,188937429,3997706,-17.550287,37.54,101535.99,1.2413552
189015624,188992947,3997706,-17.698256,37.54,101537.74,1.2413765
189065896,189045718,3997706,-17.677118,37.54,101537.5,1.2413735
189116124,189098464,3997706,-17.592564,37.54,101536.5,1.2413614
189176422,189153716,3997706,-17.592564,37.54,101536.5,1.2413614
189226652,189206489,3997706,-17.78281,37.54,101538.74,1.2413888
189277941,189259477,3997706,-17.508009,37.54,101535.49,1.242201
189338137,189315467,3997706,-17.677118,37.54,101537.49,1.2422254
189388365,189368208,3997706,-17.42874,37.54,101534.5,1.2421889
189438627,189420950,3997706,-17.592564,37.54,101536.5,1.2413614
189498937,189476232,3997706,-17.529148,37.54,101535.75,1.2413521
189549177,189529016,3997706,-17.550287,37.54,101536.0,1.2413552
189599407,189581754,3997706,-17.550287,37.54,101536.0,1.2413552
189660716,189637486,3997706,-17.761671,37.54,101538.49,1.2413857
189710862,189690705,3997706,-17.4076,37.54,101534.25,1.2413338
189761091,189743442,3997706,-17.698256,37.54,101537.74,1.2413765
189821395,189798713,3997706,-17.698256,37.54,101537.74,1.2413765
189871711,189851507,3997706,-17.719395,37.54,101538.0,1.2422317
189921939,189904284,3997706,-17.677118,37.54,101537.5,1.2422255
189983232,189959780,3997706,-17.677118,37.54,101537.5,1.2413735
190033398,190013230,3997706,-17.529148,37.54,101535.74,1.2422041
190083700,190065999,3997706,-17.761671,37.54,101538.49,1.2422377
190144013,190121283,3997706,-17.513294,37.55,101535.5,1.2413491
190194233,190174040,3997706,-17.492155,37.54,101535.25,1.241346
190244514,190226808,3997706,-17.492155,37.54,101535.25,1.241346
190304769,190282097,3997706,-17.571424,37.54,101536.25,1.2413584
190355928,190335305,3997706,-17.677118,37.54,101537.5,1.2413735
190406184,190388522,3997706,-17.65598,37.54,101537.24,1.2413704
190466461,190443784,3997706,-17.386463,37.54,101534.0,1.2413309
190516811,190496542,3997706,-17.571424,37.54,101536.24,1.2413583
190567003,190549299,3997706,-17.138084,37.54,101531.0,1.241294
190627264,190604596,3997706,-17.386463,37.54,101533.99,1.2413307
190677558,190657336,3997706,-17.471016,37.54,101535.0,1.241343
190728675,190710792,3997706,-17.571424,37.54,101536.26,1.2413584
190788955,190766284,3997706,-17.513294,37.54,101535.5,1.2422011
190839184,190819024,3997706,-17.386463,37.54,101534.0,1.2413309
190889529,190871766,3997706,-17.471016,37.54,101535.0,1.241343
190949765,190927084,3997706,-17.42874,37.54,101534.5,1.241337
190999991,190979831,3997706,-17.65598,37.54,101537.26,1.2413707
191050248,191032567,3997706,-17.550287,37.54,101536.01,1.2413553
191111470,191088773,3997706,-17.613703,37.54,101536.74,1.2413644
191161699,191141543,3997706,-17.761671,37.54,101538.49,1.2413857
191211958,191194276,3997706,-17.571424,37.54,101536.24,1.2413583
191272228,191249555,3997706,-17.513294,37.54,101535.5,1.2413491
191322509,191302321,3997706,-17.719395,37.54,101537.99,1.2413795
191372874,191355112,3997706,-17.677118,37.54,101537.5,1.2422255
191433984,191411087,3997706,-17.63484,37.54,101537.0,1.2422194
191484213,191464053,3997706,-17.534433,37.54,101535.76,1.2422042
191534508,191516816,3997706,-17.365324,37.54,101533.75,1.2413278
191594787,191572109,3997706,-17.534433,37.54,101535.76,1.2413522
191645003,191624846,3997706,-17.63484,37.55,101537.0,1.2413675
191695289,191677581,3997706,-17.613703,37.55,101536.74,1.2413644
191756621,191733130,3997706,-17.571424,37.54,101536.26,1.2413584
191806844,191786618,3997706,-17.513294,37.54,101535.5,1.2413491
191857055,191839407,3997706,-17.698256,37.54,101537.74,1.2413765
191917422,191894683,3997706,-17.719395,37.54,101537.99,1.2413795
191967701,191947471,3997706,-17.492155,37.55,101535.25,1.242198
192017909,192000247,3997706,-17.529148,37.54,101535.74,1.2422041
192078228,192055512,3997706,-17.550287,37.54,101536.0,1.2413552
192129339,192108932,3997706,-17.550287,37.54,101536.0,1.2422073
192179601,192161944,3997706,-17.449879,37.55,101534.75,1.2421919
192239930,192217255,3997706,-17.4076,37.54,101534.25,1.2413338
192290219,192270003,3997706,-17.571424,37.54,101536.26,1.2413584
192340416,192322761,3997706,-17.42874,37.54,101534.5,1.241337
192400698,192378020,3997706,-17.719395,37.54,101538.0,1.2413796
192451899,192430984,3997706,-17.42874,37.54,101534.5,1.241337
192502161,192484429,3997706,-17.471016,37.54,101535.0,1.241343
192562352,192539685,3997706,-17.4076,37.54,101534.25,1.2413338
192612669,192592431,3997706,-17.513294,37.54,101535.5,1.2413491
192662916,192645214,3997706,-17.740534,37.55,101538.24,1.2413827
192723135,192700465,3997706,-17.42874,37.54,101534.5,1.241337
192773408,192753228,3997706,-17.677118,37.54,101537.49,1.2413734
192824649,192806469,3997706,-17.344185,37.54,101533.5,1.2421767
192884852,192862187,3997706,-17.740534,37.55,101538.25,1.2422348
192935144,192914940,3997706,-17.529148,37.54,101535.74,1.2422041
192985465,192967764,3997706,-17.677118,37.55,101537.5,1.2422255
193045729,193023057,3997706,-17.323048,37.54,101533.25,1.2413216
193095993,193075795,3997706,-17.301908,37.54,101532.99,1.2413185
193146244,193128558,3997706,-17.719395,37.54,101538.0,1.2413796
193207413,193184739,3997706,-17.592564,37.54,101536.5,1.2413614
193257672,193237500,3997706,-17.63484,37.55,101537.0,1.2413675
193307906,193290251,3997706,-17.677118,37.55,101537.5,1.2413735
193368162,193345496,3997706,-17.571424,37.55,101536.24,1.2413583
193418437,193398226,3997706,-17.449879,37.55,101534.75,1.2413399
193468688,193451032,3997706,-17.550287,37.55,101536.0,1.2413552
193529967,193506506,3997706,-17.698256,37.54,101537.75,1.2422286
193580140,193559957,3997706,-17.613703,37.55,101536.75,1.2422165
193630367,193612714,3997706,-17.78281,37.54,101538.74,1.2413888
193690662,193667979,3997706,-17.386463,37.55,101534.0,1.2413309
193740943,193720742,3997706,-17.42874,37.55,101534.5,1.241337
193791172,193773524,3997706,-17.513294,37.54,101535.5,1.2413491
193851452,193828765,3997706,-17.550287,37.55,101536.0,1.2413552
193902653,193882022,3997706,-17.42874,37.54,101534.5,1.241337
193952926,193935238,3997706,-17.571424,37.55,101536.25,1.2413584
194013155,193990489,3997706,-17.63484,37.55,101537.0,1.2413675
194063453,194043268,3997706,-17.4076,37.54,101534.25,1.2413338
194113703,194096051,3997706,-17.592564,37.55,101536.5,1.2413614
194173979,194151302,3997706,-17.386463,37.54,101534.0,1.2413309
194224308,194204051,3997706,-17.677118,37.55,101537.5,1.2413735
194275388,194257730,3997706,-17.449879,37.55,101534.75,1.2413399
194335755,194312993,3997706,-17.449879,37.55,101534.75,1.2421919
194385997,194365772,3997706,-17.592564,37.55,101536.5,1.2422134
194436177,194418525,3997706,-17.719395,37.55,101538.0,1.2413796
194496453,194473780,3997706,-17.63484,37.55,101537.0,1.2413675
194546753,194526551,3997706,-17.798664,37.55,101538.99,1.2413919
194597918,194579792,3997706,-17.529148,37.55,101535.74,1.2413521
194658244,194635509,3997706,-17.740534,37.55,101538.24,1.2413827
194708503,194688282,3997706,-17.4076,37.55,101534.24,1.2413337
194758765,194741054,3997706,-17.42874,37.55,101534.5,1.241337
194818979,194796299,3997706,-17.471016,37.55,101535.0,1.241343
194869224,194849053,3997706,-17.492155,37.55,101535.25,1.241346
194919495,194901806,3997706,-17.571424,37.55,101536.24,1.2422103
194980723,194957513,3997706,-17.613703,37.55,101536.74,1.2422163
195030934,195010755,3997706,-17.613703,37.55,101536.76,1.2413646
195081168,195063518,3997706,-17.217354,37.55,101531.99,1.2413063
195141447,195118762,3997706,-17.550287,37.55,101536.0,1.2413552
195191776,195171582,3997706,-17.677118,37.55,101537.5,1.2413735
195242010,195224359,3997706,-17.492155,37.55,101535.25,1.241346
195303275,195279838,3997706,-17.513294,37.55,101535.5,1.2413491
195353454,195333290,3997706,-17.492155,37.55,101535.25,1.241346
195403723,195386044,3997706,-17.529148,37.55,101535.75,1.2413521
195463947,195441286,3997706,-17.698256,37.559998,101537.74,1.2413765
195514247,195494042,3997706,-17.571424,37.55,101536.25,1.2413584
195564509,195546833,3997706,-17.534433,37.55,101535.76,1.2413522
195624789,195602104,3997706,-17.492155,37.55,101535.25,1.241346
195675965,195655326,3997706,-17.323048,37.55,101533.24,1.2413214
195726188,195708539,3997706,-17.613703,37.55,101536.74,1.2422163
195786511,195763787,3997706,-17.471016,37.55,101535.0,1.242195
195836717,195816559,3997706,-17.63484,37.55,101537.0,1.2422194
195886944,195869294,3997706,-17.4076,37.55,101534.25,1.2421858
195947219,195924553,3997706,-17.4076,37.559998,101534.24,1.2413337
195997591,195977342,3997706,-17.259632,37.559998,101532.49,1.2413124
196048777,196030810,3997706,-17.449879,37.55,101534.75,1.2413399
196109034,196086300,3997706,-17.386463,37.55,101534.0,1.2413309
196159233,196139073,3997706,-17.4076,37.55,101534.24,1.2413337
196209509,196191827,3997706,-17.42874,37.55,101534.5,1.241337
196269830,196247109,3997706,-17.365324,37.559998,101533.75,1.2413278
196320076,196299858,3997706,-17.513294,37.559998,101535.5,1.2413491
196370277,196352596,3997706,-17.386463,37.55,101534.0,1.2413309
196431536,196408816,3997706,-17.492155,37.559998,101535.25,1.242198
196481817,196461604,3997706,-17.344185,37.55,101533.5,1.2421767
196531990,196514340,3997706,-17.2015,37.55,101531.75,1.2421552
196592309,196569587,3997706,-17.344185,37.559998,101533.5,1.2421767
196642559,196622372,3997706,-17.449879,37.559998,101534.75,1.2413399
196692926,196675166,3997706,-17.534433,37.559998,101535.76,1.2413522
196754027,196731118,3997706,-17.301908,37.559998,101532.99,1.2413185
196804249,196784089,3997706,-17.217354,37.559998,101531.99,1.2413063
196854559,196836828,3997706,-17.243778,37.559998,101532.25,1.2413094
196914829,196892113,3997706,-17.65598,37.559998,101537.24,1.2413704
196965049,196944882,3997706,-17.529148,37.559998,101535.75,1.2413521
197015330,196997637,3997706,-17.301908,37.559998,101533.0,1.2413186
197075643,197052913,3997706,-17.05353,37.559998,101530.0,1.2412819
197126822,197106630,3997706,-17.365324,37.559998,101533.75,1.2413278
197177192,197159437,3997706,-17.365324,37.559998,101533.75,1.2413278
197237405,197214722,3997706,-17.365324,37.559998,101533.75,1.2421796
197287647,197267482,3997706,-17.42874,37.559998,101534.5,1.2421889
197337885,197320236,3997706,-17.365324,37.559998,101533.75,1.2413278
197398265,197375532,3997706,-17.449879,37.559998,101534.74,1.2413398
197449436,197429220,3997706,-17.4076,37.559998,101534.24,1.2413337
197499668,197481981,3997706,-17.534433,37.559998,101535.76,1.2413522
197559945,197537265,3997706,-17.28077,37.559998,101532.75,1.2413155
197610163,197590008,3997706,-17.301908,37.559998,101532.99,1.2413185
197660406,197642745,3997706,-17.28077,37.559998,101532.75,1.2413155
197720796,197698063,3997706,-17.05353,37.559998,101530.0,1.2412819
197771936,197751037,3997706,-17.63484,37.559998,101537.0,1.2413675
197822139,197804473,3997706,-17.386463,37.559998,101534.0,1.2421829
197882488,197859760,3997706,-17.095808,37.57,101530.5,1.2421399
197932736,197912542,3997706,-17.28077,37.57,101532.74,1.2421674
197983004,197965306,3997706,-17.365324,37.57,101533.75,1.2421796
198043265,198020571,3997706,-17.344185,37.57,101533.5,1.2413247
198093521,198073302,3997706,-17.259632,37.559998,101532.5,1.2413125
198144647,198126516,3997706,-17.159224,37.559998,101531.25,1.2412971
198204911,198182242,3997706,-17.4076,37.57,101534.25,1.2413338
198255146,198234987,3997706,-17.323048,37.57,101533.25,1.2413216
198305458,198287761,3997706,-17.2015,37.57,101531.75,1.2413033
198365762,198343090,3997706,-17.217354,37.57,101531.99,1.2413063
198415997,198395835,3997706,-17.4076,37.57,101534.25,1.2413338
198466287,198448575,3997706,-16.990114,37.559998,101529.25,1.2412728
198527509,198504798,3997706,-17.259632,37.57,101532.49,1.2413124
198577765,198557593,3997706,-17.529148,37.57,101535.74,1.2413521
198628067,198610389,3997706,-17.175077,37.57,101531.49,1.2421521
198688350,198665675,3997706,-17.301908,37.57,101533.0,1.2413186
198738600,198718434,3997706,-17.138084,37.57,101531.0,1.241294
198788929,198771229,3997706,-17.323048,37.57,101533.25,1.2413216
198850094,198827429,3997706,-17.032393,37.57,101529.75,1.2412789
198900357,198880173,3997706,-17.095808,37.57,101530.49,1.2412878
198950626,198932967,3997706,-17.323048,37.57,101533.25,1.2413216
199010892,198988225,3997706,-17.344185,37.579998,101533.5,1.2413247
199061184,199040972,3997706,-17.196215,37.579998,101531.74,1.2413032
199111394,199093730,3997706,-16.947838,37.57,101528.75,1.2412666
199172644,199149497,3997706,-17.365324,37.579998,101533.74,1.2413276
199222953,199202758,3997706,-17.386463,37.57,101534.0,1.2413309
199273181,199255528,3997706,-17.095808,37.579998,101530.5,1.241288
199333563,199310814,3997706,-17.116945,37.57,101530.75,1.242143
199383766,199363593,3997706,-17.032393,37.57,101529.75,1.2421308
199434000,199416348,3997706,-17.2015,37.579998,101531.75,1.2413033
199494331,199471602,3997706,-17.18036,37.57,101531.5,1.2413002
199545461,199525267,3997706,-17.138084,37.579998,101530.99,1.241294
199595707,199578049,3997706,-17.138084,37.579998,101530.99,1.241294
199656099,199633314,3997706,-17.159224,37.579998,101531.25,1.2412971
199706365,199686133,3997706,-17.116945,37.579998,101530.75,1.241291
199756573,199738905,3997706,-16.968977,37.579998,101529.0,1.2412697
199816936,199794166,3997706,-17.05353,37.579998,101530.0,1.2412819
199868105,199847369,3997706,-17.011253,37.579998,101529.5,1.2412758
199918233,199900586,3997706,-16.84743,37.579998,101527.5,1.2412513
199978583,199955855,3997706,-16.868568,37.579998,101527.75,1.2412543
200028809,200008653,3997706,-16.968977,37.59,101529.0,1.2412697
200079096,200061390,3997706,-17.18036,37.579998,101531.5,1.2421521
200139307,200116638,3997706,-17.4076,37.59,101534.25,1.2421858
200189624,200169402,3997706,-17.365324,37.579998,101533.75,1.2413278
200240825,200223079,3997706,-17.095808,37.59,101530.5,1.241288
200301044,200278322,3997706,-16.741737,37.59,101526.25,1.241236
200351291,200331112,3997706,-17.217354,37.579998,101531.99,1.2413063
200401573,200383893,3997706,-17.074669,37.59,101530.25,1.241285
200461921,200439191,3997706,-17.011253,37.59,101529.5,1.2412758
200512147,200491977,3997706,-17.18036,37.59,101531.5,1.2413002
200563292,200545162,3997706,-16.741737,37.59,101526.25,1.241236
200623589,200600879,3997706,-17.032393,37.59,101529.76,1.2421309
200673816,200653657,3997706,-16.784014,37.59,101526.75,1.242094
200724051,200706397,3997706,-16.805153,37.59,101527.0,1.2412453
200784369,200761652,3997706,-17.217354,37.59,101531.99,1.2421583
200834596,200814424,3997706,-17.032393,37.59,101529.75,1.2421308
200884856,200867171,3997706,-17.095808,37.59,101530.5,1.241288
200946124,200923133,3997706,-16.720598,37.59,101525.99,1.2412329
200996275,200976121,3997706,-16.990114,37.59,101529.25,1.2412728
201046558,201028857,3997706,-16.926699,37.59,101528.5,1.2412635
201106849,201084118,3997706,-16.82629,37.59,101527.25,1.2412483
201157050,201136885,3997706,-16.990114,37.59,101529.25,1.2412728
201207274,201189625,3997706,-16.868568,37.59,101527.75,1.2412543
201267643,201244927,3997706,-17.05353,37.59,101530.0,1.2412819
201318774,201298602,3997706,-16.84743,37.59,101527.5,1.2412513
201368990,201351341,3997706,-17.2015,37.59,101531.75,1.2413033
201429388,201406612,3997706,-16.926699,37.6,101528.5,1.2412635
201479594,201459408,3997706,-16.889706,37.6,101528.0,1.2421094
201529831,201512179,3997706,-17.159224,37.59,101531.25,1.2421491
201590196,201567430,3997706,-17.175077,37.59,101531.49,1.2413002
201641341,201620661,3997706,-17.032393,37.6,101529.75,1.2412789
201691570,201673904,3997706,-16.990114,37.6,101529.25,1.2412728
201751878,201729196,3997706,-16.968977,37.59,101529.0,1.2412697
201802179,201781950,3997706,-16.90556,37.6,101528.25,1.2412604
201852355,201834701,3997706,-16.84743,37.6,101527.5,1.2412513
201912680,201889978,3997706,-16.84743,37.6,101527.5,1.2412513
201963956,201943016,3997706,-17.116945,37.6,101530.75,1.241291
202014238,201996484,3997706,-16.926699,37.6,101528.5,1.2412635
202074509,202051812,3997706,-17.074669,37.6,101530.25,1.241285
202124734,202104578,3997706,-16.868568,37.6,101527.75,1.2412543
202175016,202157315,3997706,-16.762875,37.6,101526.5,1.2420911
202235242,202212573,3997706,-17.116945,37.61,101530.75,1.242143
202285607,202265336,3997706,-17.032393,37.6,101529.75,1.2421308
202336704,202318814,3997706,-17.138084,37.61,101531.0,1.242146
202396965,202374296,3997706,-17.05353,37.61,101530.0,1.2412819
202447213,202427036,3997706,-17.032393,37.6,101529.75,1.2412789
202497516,202479799,3997706,-16.990114,37.6,101529.25,1.2412728
202557762,202535093,3997706,-17.159224,37.61,101531.25,1.2412971
202607999,202587836,3997706,-17.159224,37.61,101531.25,1.2412971
202658298,202640598,3997706,-17.05353,37.61,101530.0,1.2412819
202719520,202696812,3997706,-17.032393,37.61,101529.75,1.2412789
202769738,202749585,3997706,-16.968977,37.61,101528.99,1.2421215
202819989,202802320,3997706,-17.159224,37.61,101531.25,1.2421491
202880259,202857585,3997706,-17.116945,37.61,101530.75,1.241717
202930506,202910338,3997706,-16.990114,37.61,101529.25,1.2416986
202980735,202963085,3997706,-17.032393,37.61,101529.75,1.2421308
203041980,203018839,3997706,-16.82629,37.61,101527.25,1.2421001
203092223,203072054,3997706,-17.074669,37.61,101530.24,1.2412848
203142495,203124811,3997706,-16.947838,37.61,101528.75,1.2412666
203202825,203180099,3997706,-16.990114,37.62,101529.25,1.2412728
203252999,203232839,3997706,-17.116945,37.61,101530.75,1.241291
203303308,203285593,3997706,-16.947838,37.62,101528.75,1.2412666
203363623,203340904,3997706,-17.05353,37.62,101530.0,1.2412819
203414813,203394606,3997706,-17.138084,37.62,101531.0,1.241294
203465023,203447367,3997706,-17.095808,37.62,101530.49,1.2412878
203525286,203502617,3997706,-17.159224,37.62,101531.25,1.2412971
203575604,203555374,3997706,-16.868568,37.62,101527.75,1.2416803
203625822,203608140,3997706,-16.947838,37.62,101528.75,1.2416925
203686091,203663422,3997706,-16.90556,37.62,101528.25,1.2421124
203737332,203716386,3997706,-16.805153,37.62,101527.0,1.2420971
203787553,203769874,3997706,-17.116945,37.62,101530.75,1.241291
203847819,203825151,3997706,-17.074669,37.62,101530.25,1.241285
203898063,203877892,3997706,-16.90556,37.62,101528.25,1.2412604
203948412,203930668,3997706,-16.990114,37.62,101529.25,1.2412728
204008653,203985962,3997706,-16.889706,37.62,101528.0,1.2408319
204058933,204038721,3997706,-17.032393,37.629997,101529.75,1.2408533
204110072,204092173,3997706,-16.741737,37.62,101526.24,1.2408103
204170335,204147666,3997706,-16.90556,37.629997,101528.25,1.2412604
204220658,204200426,3997706,-16.82629,37.629997,101527.25,1.2412483
204270906,204253249,3997706,-16.990114,37.629997,101529.25,1.2412728
204331198,204308512,3997706,-17.011253,37.629997,101529.5,1.2412758
204381447,204361268,3997706,-16.805153,37.62,101526.99,1.241671
204432679,204414784,3997706,-16.90556,37.629997,101528.25,1.2416863
204492952,204470277,3997706,-17.011253,37.629997,101529.49,1.2408501
204543244,204523052,3997706,-16.69946,37.629997,101525.75,1.2408043
204593506,204575834,3997706,-16.889706,37.629997,101528.0,1.2408319
204653810,204631131,3997706,-17.011253,37.629997,101529.5,1.2408502
204704108,204683917,3997706,-16.90556,37.629997,101528.25,1.2412604
204755288,204737153,3997706,-16.720598,37.629997,101525.99,1.2408073
204815634,204792882,3997706,-16.926699,37.629997,101528.5,1.2408379
204865805,204845647,3997706,-16.82629,37.629997,101527.25,1.2408227
204916051,204898392,3997706,-16.762875,37.64,101526.5,1.2408135
204976425,204953670,3997706,-16.90556,37.64,101528.25,1.2408348
205026674,205006453,3997706,-16.62019,37.64,101524.75,1.2407922
205076848,205059201,3997706,-16.868568,37.64,101527.75,1.2412543
205138072,205115143,3997706,-16.69946,37.64,101525.75,1.2412299
205188285,205168133,3997706,-16.62019,37.64,101524.75,1.2407922
205238560,205220896,3997706,-16.741737,37.64,101526.25,1.2408104
205298894,205276191,3997706,-17.116945,37.64,101530.75,1.241291
205349145,205328974,3997706,-16.762875,37.64,101526.5,1.2408135
205399428,205381712,3997706,-16.90556,37.64,101528.25,1.2408348
205460672,205437215,3997706,-16.678322,37.64,101525.5,1.2408013
205510849,205490687,3997706,-16.69946,37.64,101525.74,1.2408042
205561127,205543422,3997706,-16.90556,37.64,101528.25,1.2408348
205621361,205598677,3997706,-16.889706,37.649998,101528.0,1.2408319
205671617,205651447,3997706,-16.784014,37.649998,101526.75,1.242094
205721860,205704208,3997706,-16.62019,37.649998,101524.75,1.2420696
205782170,205759454,3997706,-17.032393,37.649998,101529.75,1.2417047
205833330,205812708,3997706,-16.741737,37.64,101526.25,1.2416619
205883603,205865943,3997706,-16.657183,37.649998,101525.25,1.2407982
205943927,205921231,3997706,-16.678322,37.649998,101525.5,1.2408013
205994170,205974001,3997706,-16.62019,37.649998,101524.75,1.2407922
206044429,206026762,3997706,-16.678322,37.649998,101525.5,1.2408013
206104758,206082068,3997706,-16.741737,37.649998,101526.25,1.2408104
206155963,206135049,3997706,-16.926699,37.649998,101528.5,1.2408379
206206198,206188488,3997706,-16.741737,37.649998,101526.25,1.2408104
206266509,206243816,3997706,-16.990114,37.649998,101529.25,1.2408471
206316758,206296587,3997706,-16.82629,37.649998,101527.25,1.2408227
206366983,206349336,3997706,-16.90556,37.649998,101528.25,1.2416863
206427364,206404641,3997706,-16.69946,37.66,101525.75,1.2416558
206477609,206457392,3997706,-16.84743,37.66,101527.5,1.2408258
206528846,206510891,3997706,-16.408804,37.649998,101522.25,1.2407616
206589096,206566386,3997706,-16.784014,37.66,101526.75,1.2408166
206639284,206619124,3997706,-16.926699,37.66,101528.5,1.2408379
206689634,206671898,3997706,-16.82629,37.66,101527.25,1.2408227
206749869,206727199,3997706,-16.84743,37.66,101527.5,1.2408258
206800191,206779943,3997706,-16.62019,37.66,101524.75,1.2407922
206851307,206832905,3997706,-16.868568,37.66,101527.75,1.2408288
206911580,206888881,3997706,-16.59905,37.66,101524.5,1.240789
206961923,206941653,3997706,-16.84743,37.66,101527.5,1.2408258
207012111,206994429,3997706,-16.69946,37.66,101525.74,1.2408042
207072386,207049711,3997706,-16.84743,37.67,101527.5,1.2408258
207122665,207102485,3997706,-16.889706,37.66,101528.0,1.2408319
207173030,207155253,3997706,-16.805153,37.66,101527.0,1.2408197
207234153,207211493,3997706,-16.69946,37.67,101525.75,1.2408043
207284457,207264230,3997706,-16.762875,37.67,101526.5,1.241665
207334688,207317035,3997706,-16.784014,37.67,101526.74,1.2416679
207394949,207372283,3997706,-16.741737,37.67,101526.25,1.2408104
207445196,207425030,3997706,-16.90556,37.67,101528.25,1.2408348
207495510,207477825,3997706,-16.636044,37.67,101525.0,1.2407953
207556721,207533809,3997706,-16.784014,37.67,101526.74,1.2408165
207606980,207586805,3997706,-16.926699,37.67,101528.5,1.2408379
207657207,207639555,3997706,-16.868568,37.67,101527.75,1.2408288
207717506,207694814,3997706,-16.84743,37.68,101527.5,1.2408258
207767788,207747583,3997706,-16.990114,37.68,101529.25,1.2408471
207818004,207800355,3997706,-16.69946,37.67,101525.75,1.2408043
207878305,207855601,3997706,-16.741737,37.68,101526.25,1.2416619
207929519,207909301,3997706,-16.784014,37.68,101526.74,1.2416679
207979723,207962078,3997706,-16.805153,37.68,101527.0,1.2416711
208039982,208017314,3997706,-16.868568,37.68,101527.75,1.2408288
208090256,208070048,3997706,-16.762875,37.68,101526.5,1.2408135
208140512,208122837,3997706,-16.636044,37.68,101525.0,1.2407953
208200984,208178130,3997706,-16.868568,37.68,101527.75,1.2408288
208251980,208231347,3997706,-16.720598,37.68,101526.0,1.2408074
208302195,208284543,3997706,-16.62019,37.68,101524.75,1.2407922
208362604,208339786,3997706,-16.762875,37.68,101526.5,1.2408135
208412753,208392552,3997706,-16.720598,37.69,101526.0,1.2408074
208462980,208445330,3997706,-16.678322,37.68,101525.5,1.2408013
208523268,208500581,3997706,-16.577911,37.69,101524.25,1.2407861
208573642,208553342,3997706,-16.59905,37.69,101524.5,1.2416404
208624705,208606806,3997706,-16.657183,37.69,101525.25,1.2416496
208684971,208662299,3997706,-16.741737,37.69,101526.24,1.2416618
208735269,208715036,3997706,-16.82629,37.69,101527.25,1.2408227
208785451,208767794,3997706,-16.926699,37.69,101528.5,1.2408379
208845732,208823060,3997706,-16.493359,37.69,101523.25,1.2407738
208896065,208875818,3997706,-16.69946,37.69,101525.75,1.2408043
208946329,208928628,3997706,-16.59905,37.69,101524.5,1.240789
209007453,208984770,3997706,-16.556774,37.69,101524.0,1.2407829
209057734,209037548,3997706,-16.303112,37.7,101521.0,1.2407463
209107956,209090309,3997706,-16.47222,37.7,101523.0,1.2407707
209168238,209145568,3997706,-16.514498,37.7,101523.5,1.2407768
209218541,209198334,3997706,-16.762875,37.7,101526.5,1.2408135
209268827,209251134,3997706,-16.556774,37.7,101524.0,1.2407829
209330061,209306885,3997706,-16.762875,37.71,101526.5,1.2408135
209380322,209360145,3997706,-16.577911,37.71,101524.25,1.2416375
209430577,209412921,3997706,-16.614904,37.7,101524.74,1.2416434
209490915,209468179,3997706,-16.741737,37.71,101526.25,1.2416619
209541138,209520966,3997706,-16.84743,37.71,101527.5,1.2408258
209591385,209573733,3997706,-16.514498,37.7,101523.5,1.2407768
209652677,209629279,3997706,-16.805153,37.7,101527.0,1.2408197
209702886,209682721,3997706,-16.345388,37.71,101521.5,1.2407523
209753103,209735453,3997706,-16.202703,37.71,101519.74,1.2407309
209813450,209790748,3997706,-16.408804,37.71,101522.25,1.2407616
209863693,209843535,3997706,-16.577911,37.71,101524.25,1.2416375
209913919,209896268,3997706,-16.345388,37.7,101521.5,1.2416039
209974334,209951522,3997706,-16.493359,37.71,101523.25,1.2407738
210025364,210004746,3997706,-16.429943,37.71,101522.5,1.241616
210075673,210057980,3997706,-16.303112,37.71,101521.0,1.2415977
210135980,210113238,3997706,-16.493359,37.71,101523.25,1.2416252
210186179,210166001,3997706,-16.451082,37.71,101522.75,1.2416191
210236458,210218763,3997706,-16.514498,37.71,101523.5,1.2407768
210296771,210274077,3997706,-16.47222,37.719997,101523.0,1.2407707
210347033,210326838,3997706,-16.303112,37.719997,101521.0,1.2407463
210398150,210380480,3997706,-16.514498,37.719997,101523.5,1.2407768
210458512,210435796,3997706,-16.266119,37.719997,101520.49,1.2407401
210508778,210488590,3997706,-16.181566,37.719997,101519.49,1.2407279
210559004,210541354,3997706,-16.408804,37.719997,101522.25,1.2407616
210619316,210596627,3997706,-16.451082,37.719997,101522.75,1.2407677
210669629,210649400,3997706,-16.139288,37.719997,101518.99,1.2407218
210720940,210702918,3997706,-16.139288,37.719997,101518.99,1.2407218
210781083,210758418,3997706,-16.266119,37.73,101520.49,1.2415915
210831313,210811154,3997706,-16.097012,37.73,101518.49,1.241567
210881615,210863908,3997706,-16.223843,37.719997,101519.99,1.2415854
210941875,210919208,3997706,-15.991318,37.719997,101517.24,1.2407004
210992107,210971947,3997706,-15.927902,37.73,101516.49,1.2406913
211043343,211024932,3997706,-16.181566,37.73,101519.49,1.2407279
211103595,211080908,3997706,-16.223843,37.73,101519.99,1.240734
211153821,211133661,3997706,-16.139288,37.73,101518.99,1.2407218
211204085,211186411,3997706,-16.075872,37.73,101518.25,1.2407126
211264346,211241682,3997706,-16.202703,37.73,101519.74,1.2407309
211314602,211294426,3997706,-15.991318,37.73,101517.24,1.2407004
211364832,211347185,3997706,-16.054733,37.73,101518.0,1.2407097
211426161,211402924,3997706,-16.24498,37.739998,101520.24,1.2415885
211476323,211456155,3997706,-15.975464,37.73,101517.0,1.2415488
211526605,211508926,3997706,-16.160427,37.739998,101519.24,1.2415762
211586856,211564190,3997706,-16.075872,37.739998,101518.25,1.241564
211637129,211616942,3997706,-15.642532,37.739998,101513.0,1.2406485
211687425,211669714,3997706,-15.869771,37.739998,101515.75,1.2406821
211748678,211725254,3997706,-16.033594,37.739998,101517.75,1.2407066
211798937,211778691,3997706,-16.097012,37.739998,101518.49,1.2407156
211849109,211831452,3997706,-15.975464,37.739998,101517.0,1.2406974
211909422,211886702,3997706,-16.075872,37.739998,101518.24,1.2407125
211959644,211939473,3997706,-16.139288,37.739998,101518.99,1.2407218
212009916,211992229,3997706,-16.160427,37.739998,101519.24,1.2407248
212070178,212047510,3997706,-16.097012,37.75,101518.49,1.2407156
212121409,212100716,3997706,-16.033594,37.75,101517.75,1.2407066
212171627,212153969,3997706,-16.118149,37.739998,101518.74,1.2407187
212231908,212209244,3997706,-15.89091,37.75,101516.0,1.2415365
212282242,212261975,3997706,-15.700663,37.75,101513.74,1.241509
212332401,212314712,3997706,-15.912048,37.75,101516.25,1.2406882
212392665,212369987,3997706,-15.954325,37.75,101516.74,1.2406943
212442906,212422738,3997706,-15.991318,37.75,101517.24,1.2407004
212494084,212476200,3997706,-15.912048,37.75,101516.25,1.2406882
212554362,212531693,3997706,-15.996603,37.75,101517.25,1.2407005
212604708,212584441,3997706,-15.991318,37.76,101517.24,1.2407004
212654942,212637209,3997706,-16.033594,37.76,101517.75,1.2407066
212715165,212692494,3997706,-16.075872,37.76,101518.24,1.2407125
212765402,212745234,3997706,-15.954325,37.76,101516.75,1.2406944
212815723,212797990,3997706,-16.075872,37.76,101518.24,1.2407125
212876960,212854207,3997706,-16.054733,37.76,101517.99,1.2407095
212927111,212906952,3997706,-16.118149,37.76,101518.74,1.2407187
212977383,212959719,3997706,-16.075872,37.76,101518.24,1.2407125
213037652,213014977,3997706,-15.954325,37.76,101516.75,1.2415458
213087884,213067728,3997706,-16.118149,37.76,101518.74,1.2415701
213138183,213120499,3997706,-16.139288,37.77,101518.99,1.2407218
213199435,213176006,3997706,-16.033594,37.76,101517.75,1.2407066
213249699,213229474,3997706,-15.97018,37.77,101516.99,1.2406974
213299911,213282259,3997706,-16.033594,37.77,101517.74,1.2407064
213360172,213337504,3997706,-15.975464,37.77,101517.0,1.2406974
213410399,213390237,3997706,-15.869771,37.77,101515.75,1.2406821
213460684,213443014,3997706,-15.9331875,37.77,101516.5,1.2406913
213520953,213498281,3997706,-15.954325,37.77,101516.75,1.2406944
213572150,213551481,3997706,-15.991318,37.76,101517.24,1.2407004
213622363,213604717,3997706,-16.075872,37.77,101518.24,1.2415639
213682651,213659972,3997706,-15.996603,37.77,101517.25,1.2415519
213732904,213712725,3997706,-16.033594,37.77,101517.75,1.2407066
213783165,213765503,3997706,-15.991318,37.78,101517.24,1.2407004
213843439,213820763,3997706,-15.9331875,37.77,101516.5,1.2406913
213893731,213873538,3997706,-16.24498,37.78,101520.24,1.2407371
213944858,213927200,3997706,-15.764078,37.78,101514.49,1.2406667
214005119,213982454,3997706,-15.927902,37.78,101516.49,1.2406913
214055407,214035223,3997706,-15.954325,37.78,101516.75,1.2406944
214105682,214088016,3997706,-15.996603,37.78,101517.25,1.2407005
214165956,214143283,3997706,-16.075872,37.78,101518.24,1.2407125
214216189,214196026,3997706,-16.075872,37.78,101518.24,1.2407125
214267419,214249260,3997706,-16.075872,37.79,101518.24,1.2407125
214327776,214305083,3997706,-15.9331875,37.78,101516.5,1.2406913
214378027,214357841,3997706,-15.912048,37.79,101516.25,1.2406882
214428310,214410609,3997706,-15.89091,37.79,101516.0,1.2415365
214488594,214465910,3997706,-15.848633,37.79,101515.5,1.2415304
214538900,214518713,3997706,-16.097012,37.79,101518.49,1.2407156
214590183,214571944,3997706,-15.9331875,37.79,101516.5,1.2406913
214650387,214627656,3997706,-15.806355,37.79,101515.0,1.240673
214700635,214680469,3997706,-16.054733,37.79,101518.0,1.2407097
214750875,214733219,3997706,-16.033594,37.79,101517.75,1.2407066
214811134,214788469,3997706,-16.118149,37.79,101518.74,1.2407187
214861409,214841221,3997706,-15.827495,37.79,101515.25,1.240676
214911715,214894009,3997706,-15.679524,37.79,101513.49,1.2406545
214972969,214950294,3997706,-16.223843,37.79,101519.99,1.240734
215023232,215003044,3997706,-15.912048,37.8,101516.25,1.2406882
215073462,215055804,3997706,-15.9331875,37.8,101516.5,1.2406913
215133775,215111075,3997706,-16.118149,37.79,101518.74,1.2411442
215184004,215163847,3997706,-15.912048,37.8,101516.25,1.2411138
215234240,215216585,3997706,-15.89091,37.8,101516.0,1.2406851
215295456,215272320,3997706,-15.89091,37.8,101515.99,1.240685
215345700,215325542,3997706,-16.012457,37.8,101517.49,1.2407035
215395925,215378276,3997706,-15.806355,37.8,101515.0,1.240673
215456316,215433570,3997706,-15.89091,37.8,101516.0,1.2406851
215506525,215486347,3997706,-15.912048,37.8,101516.25,1.2406882
215556757,215539105,3997706,-15.848633,37.8,101515.5,1.240679
215617124,215594371,3997706,-16.054733,37.8,101517.99,1.2407095
215668250,215648022,3997706,-15.89091,37.809998,101516.0,1.2406851
215718460,215700785,3997706,-15.869771,37.809998,101515.75,1.2415335
215778779,215756082,3997706,-15.700663,37.809998,101513.74,1.241509
215829002,215808846,3997706,-15.827495,37.809998,101515.25,1.240676
215879232,215861585,3997706,-15.9331875,37.809998,101516.5,1.2406913
215939581,215916864,3997706,-15.764078,37.809998,101514.49,1.2415181
215990837,215970108,3997706,-15.66367,37.809998,101513.24,1.2406515
216041025,216023328,3997706,-15.785217,37.809998,101514.75,1.24067
216101275,216078610,3997706,-15.806355,37.809998,101515.0,1.240673
216151594,216131352,3997706,-15.806355,37.809998,101515.0,1.240673
216201747,216184101,3997706,-15.764078,37.809998,101514.5,1.2406669
216262079,216239389,3997706,-15.679524,37.82,101513.5,1.2406546
216312303,216292144,3997706,-15.97018,37.809998,101516.99,1.2406974
216363576,216345583,3997706,-15.89091,37.82,101516.0,1.2406851
216423768,216401105,3997706,-15.827495,37.82,101515.25,1.240676
216474018,216453846,3997706,-15.927902,37.82,101516.49,1.2406913
216524276,216506609,3997706,-15.954325,37.82,101516.75,1.2415458
216584609,216561916,3997706,-16.160427,37.82,101519.24,1.2415762
216634886,216614709,3997706,-16.118149,37.82,101518.75,1.2411443
216686098,216667698,3997706,-15.74294,37.82,101514.24,1.2410892
216746302,216723632,3997706,-16.054733,37.829998,101518.0,1.2407097
216796554,216776385,3997706,-15.996603,37.829998,101517.25,1.2407005
216846831,216829133,3997706,-15.9331875,37.829998,101516.5,1.2406913
216907084,216884417,3997706,-16.075872,37.82,101518.25,1.2407126
216957312,216937156,3997706,-16.097012,37.829998,101518.49,1.2407156
217007565,216989900,3997706,-15.848633,37.82,101515.5,1.240679
217068783,217045409,3997706,-15.806355,37.829998,101515.0,1.240673
217119009,217098848,3997706,-15.621393,37.829998,101512.75,1.2406454
217169309,217151596,3997706,-15.996603,37.829998,101517.25,1.2407005
217229595,217206913,3997706,-15.848633,37.829998,101515.5,1.2415304
217279818,217259661,3997706,-15.975464,37.829998,101517.0,1.2415488
217330054,217312401,3997706,-15.721802,37.829998,101513.99,1.241512
217390415,217367680,3997706,-15.912048,37.829998,101516.25,1.2415396
217441573,217421148,3997706,-16.012457,37.829998,101517.49,1.2407035
217491825,217474161,3997706,-15.721802,37.829998,101514.0,1.2406608
217552140,217529418,3997706,-15.785217,37.829998,101514.75,1.24067
217602317,217582154,3997706,-16.054733,37.829998,101517.99,1.2407095
217652608,217634904,3997706,-15.996603,37.84,101517.25,1.2407005
217712853,217690181,3997706,-15.9331875,37.829998,101516.5,1.2406913
217763108,217742919,3997706,-16.054733,37.829998,101518.0,1.2407097
217814277,217796600,3997706,-15.721802,37.84,101513.99,1.241512
217874633,217851903,3997706,-15.975464,37.84,101517.0,1.2415488
217924865,217904663,3997706,-15.785217,37.84,101514.75,1.24067
217975085,217957392,3997706,-15.642532,37.84,101513.0,1.2406485
218035402,218012701,3997706,-15.785217,37.84,101514.75,1.2415214
218085668,218065489,3997706,-15.721802,37.84,101513.99,1.2406607
218136825,218118942,3997706,-15.74294,37.84,101514.24,1.2406638
218197087,218174417,3997706,-15.89091,37.84,101516.0,1.2406851
218247313,218227152,3997706,-15.721802,37.84,101514.0,1.2406608
218297676,218279899,3997706,-15.912048,37.84,101516.25,1.2406882
218357895,218335216,3997706,-16.118149,37.85,101518.74,1.2407187
218408107,218387949,3997706,-15.869771,37.84,101515.75,1.2406821
218458447,218440688,3997706,-15.975464,37.85,101517.0,1.2406974
218519631,218496676,3997706,-15.975464,37.85,101517.0,1.2406974
218569840,218549665,3997706,-16.097012,37.85,101518.5,1.2407157
218620090,218602401,3997706,-15.806355,37.85,101515.0,1.2415243
218680385,218657693,3997706,-15.848633,37.85,101515.5,1.2415304
218730653,218710479,3997706,-15.764078,37.85,101514.49,1.2415181
218780927,218763228,3997706,-16.054733,37.85,101517.99,1.2407095
218842138,218818753,3997706,-16.097012,37.85,101518.49,1.2407156
218892345,218872189,3997706,-16.118149,37.85,101518.75,1.2407187
218942640,218924972,3997706,-15.74294,37.85,101514.24,1.2406638
219002905,218980236,3997706,-15.785217,37.85,101514.75,1.24067
219053128,219032969,3997706,-15.89091,37.85,101516.0,1.2406851
219103408,219085703,3997706,-15.5157,37.85,101511.5,1.2402052
219163779,219141034,3997706,-15.5157,37.85,101511.5,1.2402052
219214937,219194488,3997706,-15.848633,37.86,101515.5,1.240679
219265164,219247472,3997706,-15.721802,37.85,101513.99,1.2406607
219325408,219302727,3997706,-15.806355,37.85,101515.0,1.240673
219375659,219355490,3997706,-15.912048,37.85,101516.25,1.2411138
219425935,219408256,3997706,-15.954325,37.86,101516.74,1.2411197
219486292,219463541,3997706,-16.097012,37.85,101518.49,1.2407156
219536494,219516288,3997706,-15.700663,37.85,101513.75,1.2406577
219587639,219569980,3997706,-15.927902,37.86,101516.49,1.2402661
219648010,219625318,3997706,-15.975464,37.86,101517.0,1.2402723
219698364,219678092,3997706,-16.033594,37.85,101517.75,1.2407066
219748559,219730886,3997706,-16.075872,37.86,101518.24,1.2407125
219808838,219786169,3997706,-15.721802,37.86,101514.0,1.2406608
219859156,219838904,3997706,-16.202703,37.86,101519.74,1.2407309
219910280,219892360,3997706,-15.912048,37.86,101516.25,1.2402631
219970555,219947848,3997706,-15.806355,37.86,101515.0,1.2402478
220020850,220000655,3997706,-15.827495,37.86,101515.25,1.240676
220071131,220053432,3997706,-16.012457,37.86,101517.5,1.2407036
220131378,220108692,3997706,-15.954325,37.86,101516.74,1.2406943
220181707,220161495,3997706,-15.869771,37.86,101515.75,1.2411077
220232856,220214963,3997706,-15.89091,37.86,101516.0,1.2411107
220293176,220270442,3997706,-15.954325,37.86,101516.74,1.2406943
220343396,220323219,3997706,-15.869771,37.87,101515.75,1.2406821
220393661,220376001,3997706,-16.054733,37.86,101517.99,1.2402844
220453993,220431261,3997706,-16.118149,37.87,101518.74,1.2402935
220504234,220484048,3997706,-16.181566,37.87,101519.49,1.2407279
220554496,220536807,3997706,-15.848633,37.86,101515.5,1.240679
220615721,220593026,3997706,-15.642532,37.87,101513.0,1.2406485
220665953,220645792,3997706,-16.097012,37.87,101518.5,1.2407157
220716186,220698535,3997706,-15.848633,37.87,101515.5,1.2402539
220776552,220753811,3997706,-15.764078,37.87,101514.49,1.2415181
220826762,220806595,3997706,-15.848633,37.87,101515.5,1.2415304
220876997,220859345,3997706,-15.89091,37.87,101516.0,1.2411107
220938226,220915068,3997706,-15.74294,37.87,101514.24,1.2410892
220988453,220968294,3997706,-16.012457,37.87,101517.5,1.2402785
221038691,221021045,3997706,-15.869771,37.87,101515.75,1.240257
221099049,221076296,3997706,-15.679524,37.87,101513.5,1.2406546
221149230,221129063,3997706,-15.9331875,37.879997,101516.5,1.2406913
221199462,221181808,3997706,-15.764078,37.87,101514.49,1.2402416
221259896,221237068,3997706,-15.827495,37.87,101515.25,1.240251
221311009,221290537,3997706,-15.996603,37.87,101517.25,1.2407005
221361187,221343527,3997706,-15.991318,37.879997,101517.24,1.2407004
221421521,221398806,3997706,-15.785217,37.87,101514.75,1.2415214
221471828,221451614,3997706,-15.700663,37.879997,101513.74,1.2406577
221522006,221504355,3997706,-15.74294,37.879997,101514.24,1.2406638
221582300,221559615,3997706,-15.721802,37.879997,101514.0,1.2410862
221633550,221612856,3997706,-16.075872,37.879997,101518.25,1.2411382
221683792,221666094,3997706,-15.74294,37.879997,101514.24,1.2402387
221744029,221721363,3997706,-15.679524,37.879997,101513.49,1.2402294
221794252,221774096,3997706,-15.785217,37.879997,101514.75,1.2402449
221844559,221826840,3997706,-15.74294,37.879997,101514.24,1.2402387
221904795,221882107,3997706,-15.785217,37.879997,101514.75,1.2402449
221955028,221934866,3997706,-15.927902,37.879997,101516.49,1.2402661
222006291,221988069,3997706,-15.912048,37.879997,101516.25,1.2402631
222066545,222043863,3997706,-15.5157,37.879997,101511.5,1.2402052
222116811,222096637,3997706,-15.700663,37.879997,101513.74,1.2402325
222167036,222149389,3997706,-15.806355,37.89,101515.0,1.2402478
222227370,222204657,3997706,-15.764078,37.879997,101514.49,1.2402416
222277630,222257433,3997706,-15.66367,37.89,101513.24,1.2410771
222328852,222310710,3997706,-15.66367,37.89,101513.24,1.2410771
222389098,222366429,3997706,-15.764078,37.89,101514.5,1.2402418
222439325,222419169,3997706,-15.679524,37.89,101513.5,1.2402295
222489673,222471997,3997706,-15.869771,37.89,101515.75,1.240257
222549931,222527266,3997706,-15.700663,37.89,101513.74,1.2402325
222600155,222579996,3997706,-15.66367,37.89,101513.25,1.2402264
222650387,222632733,3997706,-15.827495,37.89,101515.25,1.240251
222711724,222688739,3997706,-15.785217,37.89,101514.75,1.2402449
222761880,222741724,3997706,-15.721802,37.89,101514.0,1.2410862
222812130,222794465,3997706,-15.89091,37.89,101516.0,1.2411107
222872436,222849760,3997706,-15.848633,37.89,101515.5,1.2402539
222922732,222902539,3997706,-15.785217,37.89,101514.75,1.2402449
222972976,222955312,3997706,-15.74294,37.899998,101514.24,1.2410892
223034204,223010801,3997706,-15.991318,37.899998,101517.24,1.241126
223084389,223064215,3997706,-15.848633,37.899998,101515.5,1.2411046
223134681,223117009,3997706,-15.66367,37.899998,101513.24,1.2410771
223194947,223172274,3997706,-15.621393,37.899998,101512.74,1.2402203
223245161,223225005,3997706,-15.89091,37.899998,101516.0,1.24026
223295457,223277761,3997706,-15.827495,37.899998,101515.25,1.240251
223355727,223333059,3997706,-15.9331875,37.91,101516.5,1.2402661
223406947,223386248,3997706,-15.679524,37.899998,101513.49,1.2402294
223457174,223439472,3997706,-15.66367,37.91,101513.24,1.2402264
223517413,223494725,3997706,-15.557977,37.899998,101511.99,1.2402111
223567665,223547484,3997706,-15.66367,37.899998,101513.24,1.2410771
223618014,223600237,3997706,-15.5157,37.899998,101511.5,1.2410557
223678210,223655530,3997706,-15.996603,37.899998,101517.25,1.2402754
223728457,223708287,3997706,-15.721802,37.91,101513.99,1.2402356
223779718,223761773,3997706,-15.452285,37.899998,101510.74,1.2410464
223839918,223817252,3997706,-15.679524,37.91,101513.5,1.2410802
223890161,223869990,3997706,-15.721802,37.91,101514.0,1.2402356
223940486,223922769,3997706,-15.621393,37.91,101512.74,1.2402203
224000733,223978063,3997706,-15.785217,37.91,101514.75,1.2402449
224050955,224030797,3997706,-15.66367,37.91,101513.24,1.2402264
224101276,224083553,3997706,-15.600255,37.91,101512.49,1.2402172
224162461,224139764,3997706,-15.764078,37.91,101514.49,1.2402416
224212743,224192536,3997706,-15.764078,37.92,101514.49,1.2402416
224262967,224245306,3997706,-15.600255,37.91,101512.5,1.2402173
224323243,224300568,3997706,-15.721802,37.91,101514.0,1.2402356
224373506,224353321,3997706,-15.975464,37.91,101517.0,1.2411228
224423769,224406102,3997706,-15.473423,37.91,101511.0,1.2410496
224484961,224462060,3997706,-15.721802,37.92,101514.0,1.2410862
224535259,224515030,3997706,-15.494562,37.92,101511.24,1.2410525
224585445,224567789,3997706,-15.66367,37.92,101513.24,1.2402264
224645733,224623058,3997706,-15.66367,37.92,101513.24,1.2402264
224695958,224675797,3997706,-15.330738,37.92,101509.25,1.2401776
224746222,224728543,3997706,-15.700663,37.92,101513.75,1.2402326
224806595,224783847,3997706,-15.74294,37.92,101514.24,1.2402387
224857790,224837511,3997706,-15.642532,37.92,101512.99,1.2402233
224907975,224890288,3997706,-15.5157,37.92,101511.5,1.2402052
224968263,224945542,3997706,-15.579116,37.92,101512.24,1.2402141
225018454,224998278,3997706,-15.5157,37.92,101511.5,1.2402052
225068754,225051079,3997706,-15.827495,37.92,101515.25,1.240251
225129045,225106362,3997706,-15.388869,37.93,101510.0,1.2401868
225180369,225159605,3997706,-15.431147,37.92,101510.5,1.2410436
225230557,225212897,3997706,-15.473423,37.93,101511.0,1.2410496
225290864,225268186,3997706,-15.557977,37.93,101511.99,1.2402111
225341175,225320952,3997706,-15.848633,37.93,101515.5,1.2402539
225391356,225373708,3997706,-15.5157,37.93,101511.5,1.2402052
225451659,225428985,3997706,-15.494562,37.93,101511.26,1.2402021
225501975,225481744,3997706,-15.600255,37.93,101512.49,1.2402172
225553136,225535422,3997706,-15.388869,37.93,101510.0,1.2401868
225613350,225590687,3997706,-15.557977,37.93,101512.0,1.2402112
225663635,225643444,3997706,-15.700663,37.93,101513.74,1.2402325
225713864,225696216,3997706,-15.3096,37.93,101509.0,1.2401745
225774125,225751460,3997706,-15.764078,37.93,101514.5,1.2410923
225824437,225804243,3997706,-15.66367,37.93,101513.24,1.2410771
225875628,225857743,3997706,-15.621393,37.94,101512.74,1.241071
225935937,225913230,3997706,-15.388869,37.94,101510.0,1.2410374
225986155,225965996,3997706,-15.557977,37.94,101512.0,1.2402112
226036401,226018739,3997706,-15.700663,37.94,101513.75,1.2402326
226096690,226074020,3997706,-15.494562,37.94,101511.24,1.240202
226146963,226126781,3997706,-15.621393,37.94,101512.75,1.2402203
226197236,226179538,3997706,-15.74294,37.94,101514.24,1.2402387
226258441,226235726,3997706,-15.557977,37.94,101512.0,1.2402112
226308692,226288534,3997706,-15.494562,37.95,101511.26,1.2402021
226358914,226341270,3997706,-15.621393,37.94,101512.74,1.2402203
226419251,226396511,3997706,-15.473423,37.94,101511.0,1.240199
226469462,226449272,3997706,-15.431147,37.95,101510.5,1.2401929
226519728,226502067,3997706,-15.473423,37.94,101511.0,1.240199
226581012,226557565,3997706,-15.700663,37.95,101513.74,1.2410831
226631242,226611070,3997706,-15.557977,37.95,101512.0,1.2410618
226681526,226663853,3997706,-15.410007,37.95,101510.24,1.2401897
226741844,226719156,3997706,-15.452285,37.95,101510.74,1.2401958
226792126,226771913,3997706,-15.288461,37.95,101508.75,1.2401716
226842294,226824646,3997706,-15.473423,37.95,101511.0,1.240199
226902646,226879914,3997706,-15.494562,37.95,101511.24,1.240202
226953861,226933624,3997706,-15.267322,37.95,101508.5,1.2401685
227004029,226986384,3997706,-15.351877,37.95,101509.5,1.2401806
227064329,227041655,3997706,-15.373014,37.95,101509.74,1.2401836
227114605,227094421,3997706,-15.225045,37.96,101507.99,1.2401621
227164889,227147186,3997706,-15.452285,37.96,101510.76,1.240196
227225142,227202446,3997706,-15.288461,37.95,101508.75,1.2401716
227276315,227255685,3997706,-15.373014,37.96,101509.75,1.2401837
227326643,227308904,3997706,-15.431147,37.96,101510.5,1.2401929
227386871,227364203,3997706,-15.225045,37.96,101508.0,1.2410129
227437105,227416942,3997706,-15.225045,37.96,101507.99,1.2401621
227487364,227469683,3997706,-15.5368395,37.96,101511.74,1.240208
227547656,227524968,3997706,-15.494562,37.96,101511.25,1.2402021
227597929,227577722,3997706,-15.600255,37.969997,101512.49,1.2402172
227649071,227631141,3997706,-15.452285,37.96,101510.74,1.2401958
227709398,227686693,3997706,-15.203907,37.96,101507.75,1.2401593
227759652,227739478,3997706,-15.3096,37.969997,101509.0,1.2401745
227809943,227792218,3997706,-15.182768,37.969997,101507.49,1.240156
227870222,227847544,3997706,-15.288461,37.969997,101508.74,1.2401714
227920510,227900313,3997706,-15.431147,37.969997,101510.5,1.2401929
227971715,227953798,3997706,-15.225045,37.969997,101508.0,1.2410129
228031966,228009292,3997706,-15.373014,37.969997,101509.75,1.2410343
228082201,228062039,3997706,-15.098214,37.969997,101506.5,1.240144
228132536,228114809,3997706,-15.3096,37.98,101509.0,1.2401745
228192862,228170133,3997706,-15.288461,37.969997,101508.75,1.2401716
228243039,228222882,3997706,-15.410007,37.969997,101510.25,1.2401898
228293324,228275626,3997706,-15.473423,37.98,101511.0,1.240199
228354562,228331814,3997706,-15.203907,37.98,101507.74,1.2401592
228404788,228384577,3997706,-15.621393,37.98,101512.74,1.2402203
228454992,228437331,3997706,-15.1404915,37.98,101506.99,1.24015
228515268,228492596,3997706,-15.431147,37.98,101510.5,1.2401929
228565567,228545343,3997706,-15.330738,37.98,101509.24,1.2401775
228615789,228598111,3997706,-15.351877,37.98,101509.5,1.2401806
228676994,228653619,3997706,-15.077075,37.98,101506.25,1.240141
228727293,228707039,3997706,-15.351877,37.989998,101509.5,1.2410312
228777509,228759822,3997706,-15.3096,37.989998,101509.0,1.2410251
228837776,228815107,3997706,-15.330738,37.98,101509.25,1.2401776
228888016,228867850,3997706,-15.246184,37.989998,101508.24,1.2401654
228938342,228920617,3997706,-15.098214,37.989998,101506.49,1.2401439
228998653,228975908,3997706,-15.473423,37.98,101511.0,1.240199
229049774,229029333,3997706,-15.119352,37.98,101506.75,1.2401471
229100027,229082331,3997706,-15.1404915,37.989998,101507.0,1.2401501
229160236,229137573,3997706,-15.203907,37.989998,101507.75,1.2401593
229210508,229190323,3997706,-15.1404915,37.989998,101506.99,1.24015
229260776,229243112,3997706,-15.225045,37.989998,101507.99,1.2401621
229321041,229298370,3997706,-15.246184,38.0,101508.25,1.2401654
229371334,229351135,3997706,-15.119352,37.989998,101506.75,1.2401471
229422511,229404830,3997706,-15.225045,37.989998,101507.99,1.2401621
229482777,229460107,3997706,-15.330738,37.989998,101509.25,1.2410282
229533067,229512846,3997706,-15.077075,38.0,101506.25,1.240141
229583287,229565625,3997706,-15.1404915,38.0,101506.99,1.24015
229643600,229620905,3997706,-15.077075,38.0,101506.25,1.240141
229693969,229673698,3997706,-14.913252,38.0,101504.26,1.2401166
229745049,229727155,3997706,-15.410007,38.0,101510.25,1.2401898
229805314,229782641,3997706,-15.288461,38.01,101508.75,1.2401716
229855599,229835392,3997706,-15.1404915,38.0,101507.0,1.2401501
229905829,229888176,3997706,-15.246184,38.0,101508.25,1.2401654
229966097,229943429,3997706,-15.16163,38.0,101507.25,1.2401532
230016380,229996169,3997706,-15.203907,38.01,101507.75,1.2401593
230066651,230048938,3997706,-14.955529,38.0,101504.75,1.2401226
230127826,230105143,3997706,-15.16163,38.01,101507.25,1.2410038
230178114,230157918,3997706,-15.077075,38.01,101506.25,1.2409916
230228330,230210678,3997706,-15.579116,38.01,101512.25,1.2410648
230288703,230265993,3997706,-15.018945,38.01,101505.49,1.2409823
230339024,230318793,3997706,-15.330738,38.01,101509.25,1.2401776
230389204,230371555,3997706,-15.1404915,38.01,101506.99,1.24015
230450457,230427267,3997706,-15.040083,38.01,101505.75,1.2401348
230500659,230480506,3997706,-15.018945,38.02,101505.5,1.2401317
230550921,230533268,3997706,-15.246184,38.01,101508.24,1.2401654
230611264,230588521,3997706,-14.870975,38.02,101503.75,1.2401104
230661553,230641299,3997706,-15.077075,38.02,101506.25,1.240141
230711817,230694111,3997706,-15.119352,38.02,101506.75,1.2401471
230773076,230749594,3997706,-15.267322,38.02,101508.5,1.241019
230823259,230803082,3997706,-15.16163,38.02,101507.25,1.2401532
230873543,230855836,3997706,-15.077075,38.02,101506.25,1.240141
230933820,230911116,3997706,-15.1404915,38.02,101506.99,1.2410005
230984085,230963929,3997706,-15.040083,38.02,101505.75,1.2409854
231034352,231016691,3997706,-14.849836,38.02,101503.5,1.2401074
231095707,231072214,3997706,-15.288461,38.02,101508.75,1.2401716
231145921,231125714,3997706,-14.955529,38.03,101504.75,1.2401226
231196143,231178447,3997706,-14.78642,38.02,101502.75,1.2400982
231256422,231233724,3997706,-15.16163,38.03,101507.25,1.2401532
231306693,231286534,3997706,-15.077075,38.03,101506.25,1.240141
231356930,231339281,3997706,-14.997806,38.02,101505.25,1.2401286
231417229,231394545,3997706,-14.913252,38.03,101504.25,1.2401165
231468390,231447745,3997706,-15.16163,38.03,101507.24,1.2401531
231518661,231500948,3997706,-14.93439,38.03,101504.5,1.2409701
231578917,231556249,3997706,-14.976666,38.04,101505.0,1.2409762
231629139,231608983,3997706,-14.976666,38.04,101505.0,1.2409762
231679364,231661715,3997706,-15.077075,38.03,101506.25,1.2409916
231739740,231716997,3997706,-15.061222,38.04,101506.0,1.2401379
231789913,231769757,3997706,-15.055937,38.04,101505.99,1.2401378
231841156,231823215,3997706,-14.849836,38.03,101503.5,1.2401074
231901499,231878777,3997706,-15.055937,38.04,101505.99,1.2401378
231951705,231931542,3997706,-14.955529,38.04,101504.75,1.2401226
232001982,231984280,3997706,-14.849836,38.04,101503.5,1.2401074
232062231,232039564,3997706,-15.119352,38.04,101506.75,1.2401471
232112545,232092313,3997706,-14.955529,38.04,101504.75,1.2401226
232163720,232145319,3997706,-14.997806,38.05,101505.25,1.2401286
232223946,232201267,3997706,-14.997806,38.04,101505.25,1.2401286
232274222,232254014,3997706,-15.040083,38.04,101505.75,1.2401348
232324494,232306745,3997706,-14.955529,38.05,101504.75,1.2409731
232384703,232362036,3997706,-14.643735,38.05,101501.0,1.2409273
232434932,232414771,3997706,-14.976666,38.05,101505.0,1.2401257
232485151,232467504,3997706,-14.78642,38.05,101502.75,1.2400982
232546447,232523265,3997706,-14.976666,38.05,101505.0,1.2401257
232596750,232576561,3997706,-15.018945,38.05,101505.5,1.2401317
232647024,232629351,3997706,-14.870975,38.05,101503.75,1.2401104
232707300,232684621,3997706,-14.807559,38.05,101503.0,1.2401013
232757605,232737414,3997706,-14.93439,38.05,101504.5,1.2401196
232807854,232790188,3997706,-14.849836,38.05,101503.5,1.2401074
232869064,232845680,3997706,-14.807559,38.05,101503.0,1.2401013
232919313,232899107,3997706,-14.892113,38.05,101504.0,1.240964
232969570,232951887,3997706,-14.93439,38.059998,101504.51,1.2409703
233029828,233007160,3997706,-14.849836,38.059998,101503.5,1.2401074
233080054,233059895,3997706,-15.018945,38.059998,101505.5,1.2401317
233130335,233112659,3997706,-14.913252,38.059998,101504.25,1.2401165
233190701,233167967,3997706,-15.098214,38.059998,101506.5,1.240144
233241857,233221423,3997706,-14.749428,38.059998,101502.25,1.240092
233292055,233274410,3997706,-14.892113,38.059998,101504.0,1.2401135
233352327,233329653,3997706,-15.018945,38.07,101505.49,1.2401317
233402644,233382414,3997706,-14.913252,38.059998,101504.25,1.2401165
233452846,233435191,3997706,-14.93439,38.059998,101504.5,1.2401196
233513109,233490443,3997706,-14.913252,38.07,101504.25,1.2401165
233563412,233543180,3997706,-14.997806,38.07,101505.25,1.2401286
233614554,233596649,3997706,-15.098214,38.07,101506.49,1.2401439
233674881,233652155,3997706,-14.78642,38.07,101502.75,1.2400982
233725116,233704902,3997706,-14.892113,38.07,101504.0,1.240964
233775358,233757693,3997706,-15.077075,38.079998,101506.25,1.2409916
233835649,233812967,3997706,-14.807559,38.07,101503.0,1.2401013
233885922,233865708,3997706,-14.93439,38.07,101504.5,1.2401196
233937112,233918689,3997706,-14.765282,38.07,101502.5,1.2400951
233997337,233974662,3997706,-14.913252,38.07,101504.25,1.2401165
234047687,234027440,3997706,-14.72829,38.079998,101501.99,1.2400889
234097883,234080230,3997706,-14.78642,38.079998,101502.75,1.2400982
234158140,234135475,3997706,-14.765282,38.079998,101502.5,1.2396703
234208476,234188257,3997706,-14.870975,38.079998,101503.75,1.2401104
234258789,234241085,3997706,-14.765282,38.079998,101502.5,1.2400951
234319989,234297268,3997706,-14.749428,38.079998,101502.25,1.240092
234370241,234350053,3997706,-14.892113,38.079998,101504.0,1.2401135
234420507,234402826,3997706,-14.807559,38.079998,101503.0,1.2401013
234480767,234458102,3997706,-14.93439,38.079998,101504.5,1.2401196
234531050,234510861,3997706,-14.78642,38.09,101502.75,1.2409487
234581276,234563625,3997706,-14.976666,38.079998,101505.0,1.2409762
234642519,234619343,3997706,-14.997806,38.09,101505.25,1.2401286
234692798,234672604,3997706,-14.93439,38.09,101504.49,1.2401195
234742992,234725346,3997706,-15.119352,38.09,101506.75,1.2401471
234803313,234780586,3997706,-14.828697,38.09,101503.25,1.2401043
234853557,234833362,3997706,-14.807559,38.09,101503.0,1.2401013
234903777,234886133,3997706,-14.601458,38.09,101500.5,1.2400707
234964107,234941387,3997706,-14.70715,38.09,101501.75,1.240086
235015232,234994828,3997706,-14.870975,38.1,101503.75,1.2396855
235065471,235047810,3997706,-14.955529,38.1,101504.75,1.2396977
235125802,235103083,3997706,-14.70715,38.1,101501.75,1.240086
235176009,235155848,3997706,-14.765282,38.1,101502.5,1.2400951
235226241,235208588,3997706,-14.72829,38.09,101502.0,1.2409395
235286548,235263862,3997706,-14.807559,38.1,101503.0,1.2409518
235337768,235316872,3997706,-14.765282,38.1,101502.5,1.2400951
235387972,235370321,3997706,-14.78642,38.1,101502.75,1.2400982
235448357,235425576,3997706,-14.892113,38.1,101504.0,1.2401135
235498561,235478381,3997706,-14.807559,38.1,101503.0,1.2401013
235548788,235531136,3997706,-14.892113,38.1,101504.0,1.2401135
235609056,235586383,3997706,-14.686011,38.11,101501.5,1.2400829
235659312,235639140,3997706,-14.870975,38.11,101503.75,1.2401104
235710507,235692355,3997706,-14.892113,38.1,101504.0,1.2401135
235770814,235748094,3997706,-14.892113,38.11,101504.0,1.2401135
235821112,235800880,3997706,-14.70715,38.11,101501.75,1.2405111
235871266,235853612,3997706,-14.807559,38.11,101503.0,1.2405263
235931640,235908896,3997706,-14.955529,38.11,101504.75,1.2401226
235981874,235961715,3997706,-14.686011,38.11,101501.5,1.2400829
236032150,236014449,3997706,-14.686011,38.11,101501.5,1.2400829
236093363,236070620,3997706,-14.416495,38.12,101498.25,1.2400432
236143589,236123392,3997706,-14.807559,38.12,101503.0,1.2401013
236193873,236176165,3997706,-14.70715,38.11,101501.75,1.240086
