timestamp,timestamp_sample,device_id,x,y,z,temperature,error_count,clip_counter[0],clip_counter[1],clip_counter[2],samples
186829102,186828180,2162698,0.20590135,-0.81243247,-9.882466,39.824116,1,0,0,0,3
186831582,186830670,2162698,0.18315643,-0.80325466,-9.868899,39.824116,1,0,0,0,2
186931630,186930716,2162698,-0.025139118,-0.7649474,-9.923966,39.824116,0,0,0,0,2
187029178,187028262,2162698,0.20111294,-0.7525774,-9.916783,39.824116,0,0,0,0,3
187131756,187130834,2162698,0.10055647,-0.82360536,-9.973047,39.73,0,0,0,0,2
187229278,187228358,2162698,0.12689269,-0.96087295,-9.830592,39.73,0,0,0,0,3
187329325,187328408,2162698,0.091777734,-0.8698933,-9.803458,39.73,0,0,0,0,3
187431913,187430993,2162698,0.15203181,-0.6536171,-10.040085,39.73,0,0,0,0,2
187529418,187528499,2162698,0.056662776,-0.62728083,-9.92636,39.73,0,0,0,0,3
187631948,187631048,2162698,0.16280572,-0.62847793,-9.944317,39.73,0,0,0,0,2
187729513,187728599,2162698,0.2338337,-0.6097234,-9.958283,39.73,0,0,0,0,3
187829555,187828642,2162698,0.00877874,-0.72863543,-10.040484,39.73,0,0,0,0,3
187929613,187928690,2162698,0.3048617,-0.7366161,-10.035696,39.73,0,0,0,0,3
188029638,188028737,2162698,0.08619127,-0.45410028,-10.011754,39.73,0,0,0,0,3
188132186,188131286,2162698,-0.088585466,-0.58418524,-10.00896,39.824116,0,0,0,0,2
188229729,188228827,2162698,0.2290453,-0.5171476,-9.9926,39.824116,0,0,0,0,3
188332289,188331390,2162698,-0.010773907,-0.62967503,-9.835381,39.824116,0,0,0,0,2
188429835,188428928,2162698,-0.043095633,-0.6240886,-9.935937,39.824116,0,0,0,0,3
188529908,188528983,2162698,0.1340753,-0.44931185,-9.854534,39.824116,0,0,0,0,3
188629946,188629023,2162698,0.1412579,-0.6631939,-9.811439,39.824116,0,0,0,0,3
188729976,188729070,2162698,-0.006384538,-0.8746817,-9.855332,39.824116,0,0,0,0,3
188832533,188831627,2162698,0.035913024,-0.34237084,-9.922769,39.824116,0,0,0,0,2
188930079,188929166,2162698,0.27214092,-0.51076305,-9.943918,39.824116,0,0,0,0,3
189030122,189029213,2162698,0.16041152,-0.355938,-9.856131,39.824116,0,0,0,0,3
189130187,189129261,2162698,-0.06703765,-0.5993485,-9.720459,39.824116,0,0,0,0,3
189230210,189229309,2162698,0.02633622,-0.5315128,-9.856929,39.824116,0,0,0,0,3
189327760,189326857,2162698,0.06464344,-0.5374983,-10.163386,39.824116,0,0,0,0,2
189430326,189429420,2162698,0.06863379,-0.15163277,-10.006966,39.824116,0,0,0,0,3
189532853,189531953,2162698,0.020350715,-1.5035586,-9.886856,39.824116,0,0,0,0,2
189630455,189629540,2162698,0.03192269,-0.55944514,-9.993398,39.824116,0,0,0,0,3
189730466,189729547,2162698,-0.015163278,-0.3750916,-10.084378,39.824116,0,0,0,0,3
189830510,189829594,2162698,0.16041152,-0.39025488,-9.923966,39.824116,0,0,0,0,3
189930547,189929642,2162698,-0.02633622,-0.45649448,-9.963072,39.824116,0,0,0,0,3
190028084,190027189,2162698,-0.06584055,-0.50158525,-10.193314,39.824116,0,0,0,0,2
190130646,190129737,2162698,0.103748746,0.108537145,-9.980629,39.63588,0,0,0,0,3
190230686,190229785,2162698,0.22824724,-0.16360378,-10.213665,39.63588,0,0,0,0,3
190330748,190329836,2162698,-0.35673606,-0.4852249,-10.227232,39.63588,0,0,0,0,3
190430793,190429880,2162698,-0.37988,-0.7430006,-9.951899,39.63588,0,0,0,0,3
190528339,190527426,2162698,-0.0047884034,-1.1025299,-9.913192,39.63588,0,0,0,0,2
190630881,190629976,2162698,0.69192433,-0.49160942,-9.864111,39.63588,0,0,0,0,3
190728433,190727522,2162698,-0.20111294,-0.48841715,-9.849746,39.63588,0,0,0,0,2
190830997,190830088,2162698,0.33199596,-0.54428184,-10.08757,39.63588,0,0,0,0,3
190931041,190930121,2162698,0.047884036,-0.59615624,-9.821015,39.63588,0,0,0,0,3
191028567,191027665,2162698,0.16639702,-0.5554548,-9.976639,39.63588,0,0,0,0,2
191131128,191130214,2162698,0.29368874,-0.91298896,-9.959879,39.73,0,0,0,0,3
191228666,191227760,2162698,0.038307227,-0.82719666,-9.904813,39.73,0,0,0,0,2
191331214,191330309,2162698,0.13966177,-0.735818,-9.942322,39.73,0,0,0,0,3
191428768,191427855,2162698,0.107739076,-0.7302315,-9.949105,39.73,0,0,0,0,2
191531310,191530404,2162698,0.14764245,-0.6823475,-9.975042,39.73,0,0,0,0,3
191631360,191630456,2162698,0.07102799,-0.54428184,-9.931149,39.73,0,0,0,0,3
191728898,191727998,2162698,0.09935937,-0.7206547,-10.049662,39.73,0,0,0,0,2
191831478,191830547,2162698,0.18674773,-0.62568474,-9.961475,39.73,0,0,0,0,3
191929006,191928093,2162698,-0.023942016,-0.34356794,-9.968259,39.73,0,0,0,0,2
192031561,192030643,2162698,0.27373707,-0.9113928,-10.003773,39.73,0,0,0,0,3
192129084,192128189,2162698,0.39264908,-0.29448682,-9.700109,39.73,0,0,0,0,2
192229139,192228240,2162698,-0.16639702,-0.5434838,-9.909601,39.73,0,0,0,0,2
192329193,192328284,2162698,0.17118542,-0.34955344,-10.172963,39.73,0,0,0,0,2
192429238,192428332,2162698,0.2801216,-0.6775591,-9.722853,39.73,0,0,0,0,2
192531803,192530881,2162698,-0.17637286,-0.5043785,-9.991004,39.73,0,0,0,0,3
192629328,192628428,2162698,0.08259996,-0.60214174,-9.868899,39.73,0,0,0,0,2
192731880,192730976,2162698,-0.43414858,-1.600923,-10.361307,39.73,0,0,0,0,3
192829444,192828526,2162698,-0.08140286,-0.22984336,-9.841366,39.73,0,0,0,0,2
192929484,192928570,2162698,-0.12689269,-0.47884035,-9.730036,39.73,0,0,0,0,2
193032020,193031119,2162698,0.1731806,-0.69431853,-9.85214,39.73,0,0,0,0,3
193129565,193128665,2162698,0.33399114,-0.6751649,-9.909601,39.73,0,0,0,0,2
193232127,193231214,2162698,0.20270908,-0.9401232,-10.194511,39.73,0,0,0,0,3
193329661,193328761,2162698,-0.08499416,-0.94570965,-9.945514,39.73,0,0,0,0,2
193429714,193428808,2162698,-0.010773907,-0.7206547,-10.21965,39.73,0,0,0,0,2
193529760,193528856,2162698,0.18794483,-0.6715736,-9.733627,39.73,0,0,0,0,2
193629813,193628918,2162698,-0.05746084,-1.3072342,-10.441113,39.73,0,0,0,0,2
193732367,193731456,2162698,0.9800266,-1.4564728,-10.006966,39.73,0,0,0,0,3
193829897,193828999,2162698,-0.044292733,-0.24061728,-9.987412,39.73,0,0,0,0,2
193929945,193929047,2162698,0.23822308,-1.0726024,-11.148601,39.73,0,0,0,0,2
194030008,194029095,2162698,0.15203181,-0.6727707,-9.64983,39.73,0,0,0,0,2
194130051,194129146,2162698,0.19153613,-0.36990416,-9.962274,39.824116,0,0,0,0,2
194227597,194226688,2162698,-0.02633622,-0.65202093,-10.014946,39.824116,0,0,0,0,3
194330160,194329261,2162698,0.3184288,-0.47884035,-9.977836,39.824116,0,0,0,0,2
194432699,194431786,2162698,0.15642118,-0.15562311,-9.598355,39.824116,0,0,0,0,3
194530233,194529333,2162698,-0.09816227,-0.46686932,-9.85214,39.824116,0,0,0,0,2
194630296,194629389,2162698,0.21547815,-1.400608,-10.15381,39.824116,0,0,0,0,2
194730331,194729428,2162698,0.17477672,-0.6955156,-10.0269165,39.824116,0,0,0,0,2
194830371,194829476,2162698,0.18076223,-1.0342951,-10.084377,39.824116,0,0,0,0,2
194927939,194927037,2162698,-0.20270908,-1.0845734,-10.046071,39.824116,0,0,0,0,3
195030485,195029579,2162698,0.062249243,-1.4496891,-10.004171,39.824116,0,0,0,0,2
195130525,195129619,2162698,0.01316811,-0.20829555,-9.76116,39.824116,0,0,0,0,2
195230565,195229667,2162698,0.079008654,-0.7625532,-9.844957,39.824116,0,0,0,0,2
195330613,195329714,2162698,0.16519992,-0.59017074,-10.035296,39.824116,0,0,0,0,2
195428177,195427265,2162698,-0.08220093,-0.723847,-10.008561,39.824116,0,0,0,0,3
195530714,195529810,2162698,0.0035913025,-0.91697925,-10.070012,39.824116,0,0,0,0,2
195628268,195627356,2162698,0.16998832,-0.8507397,-9.968658,39.824116,0,0,0,0,3
195730815,195729905,2162698,0.6464345,-0.9600749,-9.919178,39.824116,0,0,0,0,2
195830856,195829956,2162698,-0.11731588,-1.1073183,-9.903615,39.824116,0,0,0,0,2
195930909,195930001,2162698,0.32800564,-0.545878,-9.91439,39.824116,0,0,0,0,2
196030956,196030049,2162698,0.20470424,-0.6895301,-9.853337,39.824116,0,0,0,0,2
196128510,196127595,2162698,0.355938,-1.1811396,-9.974244,39.824116,0,0,0,0,3
196231046,196230144,2162698,-0.31364042,-0.47524905,-10.1143055,39.824116,0,0,0,0,2
196328633,196327728,2162698,-0.33838052,-0.4437254,-10.3796625,39.824116,0,0,0,0,3
196431158,196430240,2162698,0.2657564,-0.724246,-10.192117,39.824116,0,0,0,0,2
196531203,196530288,2162698,0.092176765,-0.866701,-9.862914,39.824116,0,0,0,0,2
196628741,196627834,2162698,0.25458345,-0.9680556,-9.857727,39.824116,0,0,0,0,3
196731298,196730391,2162698,0.7433996,-0.2896984,-10.097546,39.824116,0,0,0,0,2
196828831,196827929,2162698,0.3455631,-0.3894568,-9.951899,39.824116,0,0,0,0,3
196931391,196930478,2162698,-0.19393034,-0.94570965,-9.479841,39.824116,0,0,0,0,2
197028932,197028025,2162698,0.38865876,-0.40142784,-10.101935,39.824116,0,0,0,0,3
197128982,197128073,2162698,0.20111294,-0.5315128,-9.780314,39.824116,0,0,0,0,3
197231539,197230622,2162698,-0.005985504,-0.81522566,-9.554062,39.824116,0,0,0,0,2
197329087,197328169,2162698,0.2362279,-0.9776324,-9.383675,39.824116,0,0,0,0,3
197431613,197430717,2162698,0.06464344,-0.02873042,-9.551667,39.824116,0,0,0,0,2
197529170,197528264,2162698,0.15801732,-0.44771573,-10.309433,39.824116,0,0,0,0,3
197631719,197630813,2162698,-0.02633622,-0.9696517,-9.607931,39.824116,0,0,0,0,2
197729279,197728367,2162698,0.0925758,-0.7054914,-10.336567,39.824116,0,0,0,0,3
197829313,197828408,2162698,0.10215261,-0.83876866,-9.695719,39.824116,0,0,0,0,3
197931870,197930956,2162698,0.023942016,-0.9588778,-9.671378,39.824116,0,0,0,0,2
198029414,198028503,2162698,0.1292869,-0.85393196,-9.900024,39.824116,0,0,0,0,3
198131958,198131052,2162698,0.19752164,-0.93254155,-10.075998,39.918236,0,0,0,0,2
198229509,198228599,2162698,0.20111294,-0.6727707,-10.03809,39.918236,0,0,0,0,3
198329558,198328647,2162698,0.09497,-0.75576967,-9.855332,39.918236,0,0,0,0,3
198429621,198428694,2162698,0.19632454,-0.7821059,-9.888053,39.918236,0,0,0,0,3
198529647,198528742,2162698,-0.30805397,-0.78290397,-10.175358,39.918236,0,0,0,0,3
198632214,198631294,2162698,0.19871874,-1.055843,-9.692925,39.918236,0,0,0,0,2
198729769,198728855,2162698,-0.045489833,-1.0231222,-10.048465,39.918236,0,0,0,0,3
198832291,198831392,2162698,-0.01436521,-0.50757074,-10.06283,39.918236,0,0,0,0,2
198929843,198928934,2162698,0.042297564,-0.8674991,-10.006966,39.918236,0,0,0,0,3
199029913,199028998,2162698,0.1340753,-0.5115611,-9.877678,39.918236,0,0,0,0,3
199127446,199126528,2162698,0.17717093,-0.94331545,-9.882068,39.918236,0,0,0,0,2
199229984,199229077,2162698,0.22106463,-0.7030972,-10.096349,39.918236,0,0,0,0,3
199332539,199331627,2162698,-0.019153614,-1.0079589,-9.792285,39.918236,0,0,0,0,2
199430084,199429173,2162698,0.043095633,-0.94171935,-10.0029745,39.918236,0,0,0,0,3
199530130,199529221,2162698,0.1827574,-0.8890469,-9.803458,39.918236,0,0,0,0,3
199630181,199629269,2162698,-0.07980672,-0.7198567,-9.887256,39.918236,0,0,0,0,3
199730222,199729317,2162698,-0.32002497,-0.07102799,-9.75318,39.918236,0,0,0,0,3
199827777,199826870,2162698,-0.08738836,-0.40462008,-9.962274,39.918236,0,0,0,0,2
199930318,199929413,2162698,0.5538587,-1.1931106,-10.023725,39.918236,0,0,0,0,3
200032873,200031962,2162698,0.2825158,-1.0354922,-10.236409,39.918236,0,0,0,0,2
200130434,200129509,2162698,0.39105296,-1.2130622,-9.915188,40.012352,0,0,0,0,3
200230471,200229557,2162698,0.16200766,-0.69192433,-10.073205,40.012352,0,0,0,0,3
200328006,200327103,2162698,0.09935937,-0.7338228,-9.939528,40.012352,0,0,0,0,2
200430597,200429683,2162698,0.15721925,-0.8475474,-9.983821,40.012352,0,0,0,0,3
200528101,200527203,2162698,0.025139118,-0.8678981,-9.849746,40.012352,0,0,0,0,2
200630662,200629752,2162698,-0.029528487,-0.7262412,-9.848948,40.012352,0,0,0,0,3
200730711,200729797,2162698,1.422954,-1.4285403,-10.3557205,40.012352,0,0,0,0,3
200830762,200829845,2162698,0.3511496,-0.6001466,-10.066022,40.012352,0,0,0,0,3
200928306,200927411,2162698,-0.033518825,-0.5770026,-9.994595,40.012352,0,0,0,0,2
201028343,201027441,2162698,0.12569559,-1.401805,-9.580399,40.012352,0,0,0,0,2
201130890,201129988,2162698,0.40621623,-0.5115611,-10.118694,39.918236,0,0,0,0,3
201228443,201227535,2162698,-0.19752164,-0.59136784,-10.012551,39.918236,0,0,0,0,2
201330989,201330084,2162698,-0.032720756,-1.0191319,-10.611102,39.918236,0,0,0,0,3
201428541,201427632,2162698,-0.4177882,-0.82121116,-9.41879,39.918236,0,0,0,0,2
201528574,201527679,2162698,0.37588966,-1.4784195,-10.817003,39.918236,0,0,0,0,2
201628633,201627727,2162698,-0.5470751,-0.8738836,-9.712079,39.918236,0,0,0,0,2
201728682,201727782,2162698,0.36152446,-0.61890113,-10.01734,39.918236,0,0,0,0,2
201831237,201830332,2162698,0.59136784,-0.6145118,-10.374874,39.918236,0,0,0,0,3
201928766,201927871,2162698,-0.15801731,-0.5470751,-9.825804,39.918236,0,0,0,0,2
202031331,202030421,2162698,-0.23702598,-0.21707429,-10.164185,39.918236,0,0,0,0,3
202128865,202127967,2162698,0.10534488,-0.7086837,-9.582792,39.918236,0,0,0,0,2
202228917,202228016,2162698,0.08379706,-0.91817635,-9.82341,39.918236,0,0,0,0,2
202331494,202330564,2162698,0.13487336,-0.53789735,-9.532913,39.918236,0,0,0,0,3
202429039,202428123,2162698,-0.33997664,-0.19632454,-9.734824,39.918236,0,0,0,0,2
202531581,202530661,2162698,-0.46447515,-1.4995683,-9.947908,39.918236,0,0,0,0,3
202629104,202628208,2162698,0.40462008,-1.1755531,-10.086772,39.918236,0,0,0,0,2
202729163,202728256,2162698,0.38187516,-0.92655605,-9.509769,39.918236,0,0,0,0,2
202829222,202828311,2162698,-0.073023155,-1.5286977,-9.828198,39.918236,0,0,0,0,2
202929256,202928352,2162698,-0.19393034,-0.93732995,-9.825804,39.918236,0,0,0,0,2
203031803,203030901,2162698,0.15801732,-0.5291186,-9.754776,39.918236,0,0,0,0,3
203129348,203128448,2162698,0.3172317,-0.1316811,-9.879673,40.012352,0,0,0,0,2
203231906,203230997,2162698,0.31044817,-0.65760744,-10.253568,40.012352,0,0,0,0,3
203329452,203328544,2162698,0.32680854,-0.21906945,-9.740809,40.012352,0,0,0,0,2
203429503,203428596,2162698,-0.021547815,-0.760159,-10.0903635,40.012352,0,0,0,0,2
203532056,203531142,2162698,0.06384538,-0.92256576,-9.908005,40.012352,0,0,0,0,3
203629591,203628689,2162698,0.19871874,-0.93373865,-9.949105,40.012352,0,0,0,0,2
203732158,203731239,2162698,0.13327724,-0.66957843,-9.891246,40.012352,0,0,0,0,3
203829699,203828788,2162698,0.15203181,-0.7386112,-10.019734,40.012352,0,0,0,0,2
203929740,203928833,2162698,0.12449849,-0.7553706,-9.816227,40.012352,0,0,0,0,2
204029795,204028881,2162698,0.11971009,-0.80325466,-10.006566,40.012352,0,0,0,0,2
204129830,204128929,2162698,0.14724341,-0.7649474,-9.949105,39.918236,0,0,0,0,2
204232392,204231479,2162698,0.108537145,-0.7677407,-9.899226,39.918236,0,0,0,0,3
204329920,204329026,2162698,0.11372458,-0.7673417,-9.907207,39.918236,0,0,0,0,2
204429974,204429074,2162698,0.09816227,-0.760159,-9.945514,39.918236,0,0,0,0,2
204530022,204529122,2162698,0.15562311,-0.7433996,-9.90601,39.918236,0,0,0,0,2
204630067,204629170,2162698,0.11611878,-0.7649474,-9.939528,39.918236,0,0,0,0,2
204727624,204726717,2162698,0.16679606,-0.7517794,-9.892841,39.918236,0,0,0,0,3
204830159,204829264,2162698,0.046686932,-0.770933,-9.956287,39.918236,0,0,0,0,2
204932742,204931816,2162698,0.18994,-0.7980673,-9.911995,39.918236,0,0,0,0,3
205030274,205029363,2162698,0.11731588,-0.7793127,-9.923966,39.918236,0,0,0,0,2
205130306,205129412,2162698,0.1436521,-0.7589619,-9.964667,40.012352,0,0,0,0,2
205230415,205229483,2162698,0.1400608,-0.7206547,-9.865308,40.012352,0,0,0,0,2
205330423,205329508,2162698,0.1412579,-0.712275,-9.9790325,40.012352,0,0,0,0,2
205427960,205427055,2162698,0.093373865,-0.7374141,-9.896034,40.012352,0,0,0,0,3
205530528,205529615,2162698,0.11372458,-0.70509243,-9.938332,40.012352,0,0,0,0,2
205630561,205629661,2162698,0.1340753,-0.7386112,-9.90601,40.012352,0,0,0,0,2
205730610,205729700,2162698,0.1592144,-0.7098808,-9.953894,40.012352,0,0,0,0,2
205830675,205829763,2162698,0.12210429,-0.7398083,-9.9550905,40.012352,0,0,0,0,2
205928229,205927316,2162698,0.09975841,-0.7573658,-9.988609,40.012352,0,0,0,0,3
206030740,206029846,2162698,0.11611878,-0.7553706,-9.842564,40.012352,0,0,0,0,2
206128306,206127395,2162698,0.109335214,-0.735818,-9.96786,39.918236,0,0,0,0,3
206230862,206229967,2162698,0.1340753,-0.7230489,-9.884461,39.918236,0,0,0,0,2
206330891,206329993,2162698,0.12689269,-0.7697359,-9.933543,39.918236,0,0,0,0,2
206428453,206427538,2162698,0.121306226,-0.7813078,-9.931947,39.918236,0,0,0,0,3
206530989,206530087,2162698,0.110133275,-0.7386112,-9.953894,39.918236,0,0,0,0,2
206628535,206627634,2162698,0.14365211,-0.7725291,-10.008561,39.918236,0,0,0,0,3
206731098,206730188,2162698,0.19393034,0.1364695,-9.121908,39.918236,0,0,0,0,2
206828640,206827730,2162698,0.011172942,-0.84116286,-9.875284,39.918236,0,0,0,0,3
206931231,206930314,2162698,0.22146365,-0.6967127,-9.907207,39.918236,0,0,0,0,2
207031236,207030328,2162698,0.10295067,-0.7074866,-9.7240505,39.918236,0,0,0,0,2
207128794,207127876,2162698,0.13806564,-1.04467,-9.963072,40.10647,0,0,0,0,3
207231334,207230425,2162698,0.039504327,-0.52073884,-9.980229,40.10647,0,0,0,0,2
207328917,207328009,2162698,0.038307227,-0.84674937,-9.782708,40.10647,0,0,0,0,3
207431453,207430522,2162698,0.17717093,-0.7098808,-10.004171,40.10647,0,0,0,0,2
207528979,207528069,2162698,0.42776406,-0.86350876,-9.863313,40.10647,0,0,0,0,3
207629024,207628117,2162698,-0.1827574,-0.7741252,-9.969456,40.10647,0,0,0,0,3
207731578,207730667,2162698,0.09696517,-0.7589619,-9.922769,40.10647,0,0,0,0,2
207829121,207828214,2162698,0.11252748,-0.6831456,-9.925563,40.10647,0,0,0,0,3
207931666,207930765,2162698,0.14963761,-1.009156,-9.968259,40.10647,0,0,0,0,2
208029212,208028311,2162698,-0.032720756,-1.0462662,-10.08358,40.10647,0,0,0,0,3
208131767,208130861,2162698,0.10534488,-0.40462008,-9.935937,40.10647,0,0,0,0,2
208229324,208228408,2162698,-0.033518825,-0.6927224,-9.984619,40.10647,0,0,0,0,3
208329361,208328456,2162698,0.13327724,-0.6145118,-9.943918,40.10647,0,0,0,0,3
208431925,208431006,2162698,0.4333505,-0.82719666,-10.070012,40.10647,0,0,0,0,2
208529479,208528553,2162698,-0.3607264,-0.7437987,-10.010956,40.10647,0,0,0,0,3
208632001,208631103,2162698,0.39624038,-0.7529764,-9.824607,40.10647,0,0,0,0,2
208729592,208728688,2162698,0.10454681,-0.8156247,-9.963072,40.10647,0,0,0,0,3
208829654,208828752,2162698,0.15322891,-0.5873775,-10.066022,40.10647,0,0,0,0,3
208929673,208928749,2162698,0.08459513,-0.6711746,-9.931947,40.10647,0,0,0,0,3
209029707,209028795,2162698,0.25378537,-0.8108363,-9.982225,40.10647,0,0,0,0,3
209132262,209131345,2162698,-0.074220255,-0.59855044,-10.222044,40.012352,0,0,0,0,2
209229799,209228892,2162698,0.29927522,-0.48442683,-9.89364,40.012352,0,0,0,0,3
209332349,209331445,2162698,0.23582886,-0.80086046,-9.645041,40.012352,0,0,0,0,2
209429901,209428996,2162698,-0.103748746,-0.6512229,-9.929553,40.012352,0,0,0,0,3
209529967,209529061,2162698,0.27214092,-1.2178507,-10.0341,40.012352,0,0,0,0,3
209627494,209626585,2162698,0.21787235,-0.6787562,-10.007763,40.012352,0,0,0,0,2
209730048,209729139,2162698,0.041499496,-1.221841,-10.011754,40.012352,0,0,0,0,3
209832607,209831692,2162698,-0.16400282,-1.3359646,-9.928755,40.012352,0,0,0,0,2
209930146,209929232,2162698,0.021547817,-0.59136784,-10.039686,40.012352,0,0,0,0,3
210030183,210029281,2162698,0.21867043,-0.7932789,-10.018138,40.012352,0,0,0,0,3
210130249,210129336,2162698,0.035913028,-0.58578134,-10.031705,40.10647,0,0,0,0,3
210230330,210229419,2162698,0.43494666,-1.4971741,-9.921572,40.10647,0,0,0,0,3
210327823,210326925,2162698,0.079008654,-0.60573304,-10.048465,40.10647,0,0,0,0,2
210430401,210429478,2162698,-0.03511496,-0.79248077,-10.378864,40.10647,0,0,0,0,3
210530448,210529523,2162698,0.04948017,-0.29209262,-9.843362,40.10647,0,0,0,0,3
210630491,210629572,2162698,0.54428184,-1.1444285,-9.461885,40.10647,0,0,0,0,3
210730527,210729622,2162698,-0.15721925,-1.6791335,-9.911198,40.10647,0,0,0,0,3
210828070,210827175,2162698,-0.61052144,-3.0262709,-11.002554,40.10647,0,0,0,0,2
210930626,210929725,2162698,0.21946849,-0.8403648,-9.66619,40.10647,0,0,0,0,3
211028164,211027265,2162698,0.22505496,-1.0307038,-9.713276,40.10647,0,0,0,0,2
211130720,211129814,2162698,0.122902356,-0.6440403,-9.937533,40.10647,0,0,0,0,3
211230771,211229867,2162698,0.16200766,-0.64962673,-9.949505,40.10647,0,0,0,0,3
211330823,211329912,2162698,0.17637286,-0.5977524,-9.956687,40.10647,0,0,0,0,3
211430875,211429966,2162698,-0.094171934,-0.88824886,-10.0612335,40.10647,0,0,0,0,3
211528411,211527508,2162698,-0.0023942017,-0.8583213,-9.93474,40.10647,0,0,0,0,2
211630970,211630057,2162698,0.2314395,-0.7525774,-9.975841,40.10647,0,0,0,0,3
211728511,211727605,2162698,0.23822308,-0.46806642,-9.927557,40.10647,0,0,0,0,2
211831061,211830155,2162698,0.26176605,-0.6911262,-9.828198,40.10647,0,0,0,0,3
211931108,211930203,2162698,-0.08379706,-0.84435517,-9.936735,40.10647,0,0,0,0,3
212028650,212027751,2162698,-0.093373865,-0.6452374,-10.09994,40.10647,0,0,0,0,2
212131210,212130301,2162698,0.3455631,-0.80205756,-9.817025,40.10647,0,0,0,0,3
212228777,212227859,2162698,0.40701428,0.12330139,-9.974244,40.10647,0,0,0,0,2
212331312,212330398,2162698,-0.22026657,-1.3942235,-10.484209,40.10647,0,0,0,0,3
212428853,212427949,2162698,1.7262194,-0.8762778,-10.188525,40.10647,0,0,0,0,2
212528896,212527995,2162698,0.80086046,-0.85473,-9.871294,40.10647,0,0,0,0,2
212628949,212628043,2162698,-0.7170634,-0.7469909,-10.30225,40.10647,0,0,0,0,2
212728986,212728092,2162698,-0.38307226,-0.7182605,-10.023325,40.10647,0,0,0,0,2
212831549,212830637,2162698,0.6416461,-0.9313445,-9.912793,40.10647,0,0,0,0,3
212929084,212928189,2162698,0.090979666,-0.6751649,-9.935937,40.10647,0,0,0,0,2
213031659,213030739,2162698,-0.14285403,-0.735818,-10.129069,40.10647,0,0,0,0,3
213129185,213128286,2162698,0.36990416,-0.8535329,-9.832987,40.20059,0,0,0,0,2
213229236,213228336,2162698,-0.11252748,-0.91099375,-9.779117,40.20059,0,0,0,0,2
213329294,213328392,2162698,0.33997664,-0.6607997,-10.032902,40.20059,0,0,0,0,2
213429331,213428433,2162698,0.17238252,-0.7613561,-9.883265,40.20059,0,0,0,0,2
213531899,213530990,2162698,0.038307227,-0.8204131,-10.010158,40.20059,0,0,0,0,3
213629456,213628538,2162698,0.1388637,-0.7038953,-9.97185,40.20059,0,0,0,0,2
213729487,213728579,2162698,0.20949265,-0.7182605,-9.774328,40.20059,0,0,0,0,2
213829528,213828628,2162698,0.062249243,-0.7625532,-9.744401,40.20059,0,0,0,0,2
213929584,213928677,2162698,0.06584055,-0.7386112,-10.061633,40.20059,0,0,0,0,2
214032128,214031227,2162698,0.2218627,-0.8236054,-9.977437,40.20059,0,0,0,0,3
214129669,214128774,2162698,0.25139117,-0.7350199,-10.05445,40.20059,0,0,0,0,2
214232239,214231322,2162698,0.012769076,-0.783702,-9.944716,40.20059,0,0,0,0,3
214329766,214328871,2162698,0.18315643,-0.7721301,-10.126276,40.20059,0,0,0,0,2
214429819,214428920,2162698,0.23702596,-0.81283146,-9.781511,40.20059,0,0,0,0,2
214529864,214528969,2162698,0.33039984,-0.79248077,-10.236409,40.20059,0,0,0,0,2
214629919,214629018,2162698,0.1412579,-0.7553706,-9.856929,40.20059,0,0,0,0,2
214732494,214731568,2162698,0.18435353,-0.62568474,-9.820217,40.20059,0,0,0,0,3
214830014,214829116,2162698,-0.11851298,-0.61650693,-9.718064,40.20059,0,0,0,0,2
214930063,214929162,2162698,0.21667525,-0.8690952,-10.03769,40.20059,0,0,0,0,2
215030140,215029222,2162698,0.18435353,-0.8690952,-9.840169,40.20059,0,0,0,0,2
215130166,215129262,2162698,0.08140286,-0.80325466,-9.610326,40.20059,0,0,0,0,2
215227715,215226810,2162698,-0.091777734,-0.7956731,-9.723651,40.20059,0,0,0,0,3
215330273,215329363,2162698,0.22385786,-0.61530983,-9.512163,40.20059,0,0,0,0,2
215432811,215431910,2162698,0.023942018,-0.85473,-9.936735,40.20059,0,0,0,0,3
215530360,215529457,2162698,0.272939,-0.9744401,-9.920375,40.20059,0,0,0,0,2
215630419,215629506,2162698,-0.108936176,-0.6907272,-9.946711,40.20059,0,0,0,0,2
215727967,215727061,2162698,0.07900866,-1.2441869,-9.923966,40.20059,0,0,0,0,3
215830510,215829604,2162698,0.36032736,-0.8726865,-10.135853,40.20059,0,0,0,0,2
215928062,215927151,2162698,0.032720756,-0.6847417,-10.06682,40.20059,0,0,0,0,3
216030600,216029702,2162698,0.20231004,-0.46327803,-10.016143,40.20059,0,0,0,0,2
216130658,216129750,2162698,0.35314476,-0.9708488,-9.76116,40.20059,0,0,0,0,2
216230706,216229799,2162698,-0.30765492,-1.0055647,-10.042479,40.20059,0,0,0,0,2
216330756,216329851,2162698,-0.20829555,-0.5614403,-10.010158,40.20059,0,0,0,0,2
216428297,216427396,2162698,0.42776406,-0.7781156,-10.06682,40.20059,0,0,0,0,3
216530850,216529946,2162698,-0.8810662,-2.8814218,-10.1861315,40.20059,0,0,0,0,2
216628404,216627494,2162698,-0.01995168,-0.61850214,-10.635842,40.20059,0,0,0,0,3
216730963,216730044,2162698,-0.021547815,-1.5179238,-9.8198185,40.20059,0,0,0,0,2
216830987,216830093,2162698,0.10055647,-0.6679823,-10.226832,40.20059,0,0,0,0,2
216928554,216927643,2162698,-0.06783572,-0.7908847,-9.867304,40.20059,0,0,0,0,3
217031097,217030190,2162698,0.2861071,-0.533907,-9.929952,40.20059,0,0,0,0,2
217128647,217127745,2162698,0.09656614,-0.1755748,-10.421163,40.20059,0,0,0,0,3
217231183,217230288,2162698,-0.36631286,-0.6859388,-10.113108,40.20059,0,0,0,0,2
217328742,217327836,2162698,0.49081135,-0.5754065,-9.852939,40.20059,0,0,0,0,3
217431291,217430392,2162698,0.427365,-0.9636662,-9.676167,40.20059,0,0,0,0,2
217531337,217530439,2162698,-0.22984336,-0.5542577,-10.178948,40.20059,0,0,0,0,2
217628884,217627983,2162698,0.27692935,-0.6655881,-9.965466,40.20059,0,0,0,0,3
217731453,217730531,2162698,0.1376666,-0.7541735,-9.849746,40.20059,0,0,0,0,2
217828981,217828080,2162698,0.3367844,-1.0366894,-9.962274,40.20059,0,0,0,0,3
217931546,217930630,2162698,0.02633622,-0.7529764,-9.94312,40.20059,0,0,0,0,2
218029083,218028178,2162698,0.21867043,-0.7318277,-10.046868,40.20059,0,0,0,0,3
218129128,218128227,2162698,0.0047884034,-0.7190586,-9.857727,40.20059,0,0,0,0,3
218231678,218230777,2162698,0.20829555,-0.6464345,-10.020931,40.20059,0,0,0,0,2
218329233,218328325,2162698,0.3216211,-1.0007763,-9.528125,40.20059,0,0,0,0,3
218431774,218430875,2162698,0.14604631,-0.78050977,-9.774328,40.20059,0,0,0,0,2
218529345,218528433,2162698,0.32241917,-0.6727707,-9.983821,40.20059,0,0,0,0,3
218631871,218630973,2162698,0.0047884034,-0.8702923,-10.0508585,40.20059,0,0,0,0,2
218729443,218728520,2162698,0.0973642,-0.4333505,-9.908803,40.20059,0,0,0,0,3
218829485,218828569,2162698,0.02873042,-0.84116286,-10.018936,40.20059,0,0,0,0,3
218932018,218931120,2162698,-0.38307226,-0.760159,-10.381259,40.20059,0,0,0,0,2
219029575,219028674,2162698,-0.103748746,-0.7892885,-9.769141,40.20059,0,0,0,0,3
219132126,219131217,2162698,0.06344634,-0.5734113,-9.944317,40.20059,0,0,0,0,2
219229667,219228765,2162698,0.18914194,-0.6384538,-10.043676,40.20059,0,0,0,0,3
219329725,219328814,2162698,-0.35673606,-0.6871359,-10.127474,40.20059,0,0,0,0,3
219429768,219428863,2162698,0.5905698,-0.15562311,-10.173761,40.20059,0,0,0,0,3
219529817,219528912,2162698,-0.5849833,-0.44133118,-9.97185,40.20059,0,0,0,0,3
219632367,219631465,2162698,-0.04070143,-0.40102878,-10.600328,40.20059,0,0,0,0,2
219729915,219729010,2162698,0.3806781,-1.3423492,-9.112332,40.20059,0,0,0,0,3
219832472,219831562,2162698,-0.142455,-0.8702923,-9.856929,40.20059,0,0,0,0,2
219930028,219929119,2162698,-1.1595917,-0.87308556,-10.040484,40.20059,0,0,0,0,3
220030074,220029157,2162698,0.5163495,-0.6264828,-9.757171,40.20059,0,0,0,0,3
220127644,220126741,2162698,0.8487445,-0.80924016,-9.779117,40.38882,0,0,0,0,2
220230165,220229255,2162698,-0.29209262,-0.57141614,-10.101935,40.38882,0,0,0,0,3
220332712,220331806,2162698,-0.050278235,-0.7158663,-9.89763,40.38882,0,0,0,0,2
220430274,220429353,2162698,0.32960176,-0.8036537,-9.949505,40.38882,0,0,0,0,3
220530311,220529406,2162698,-0.07262412,-0.7533755,-9.927957,40.38882,0,0,0,0,3
220630356,220629452,2162698,0.12848882,-0.62329054,-9.775526,40.38882,0,0,0,0,3
220730422,220729501,2162698,0.27373707,-0.56662774,-9.983024,40.38882,0,0,0,0,3
220827968,220827068,2162698,0.0035913025,-0.36391866,-10.006566,40.38882,0,0,0,0,2
220930513,220929599,2162698,0.027932353,-0.8060479,-9.769939,40.38882,0,0,0,0,3
221030555,221029648,2162698,0.059056975,-0.61530983,-10.056445,40.38882,0,0,0,0,3
221130617,221129704,2162698,0.83238417,-0.66000164,-9.623095,40.38882,0,0,0,0,3
221230654,221229746,2162698,-0.2681506,-0.9313445,-9.950302,40.38882,0,0,0,0,3
221328188,221327293,2162698,-0.545878,-0.31603462,-9.988609,40.38882,0,0,0,0,2
221430760,221429844,2162698,0.35434186,-0.8204131,-10.024523,40.38882,0,0,0,0,3
221528315,221527420,2162698,0.427365,-0.78529817,-9.859323,40.38882,0,0,0,0,2
221630848,221629942,2162698,-0.030326556,-0.6735688,-10.032503,40.38882,0,0,0,0,3
221728401,221727490,2162698,0.19752164,-0.7422025,-9.962274,40.38882,0,0,0,0,2
221830951,221830040,2162698,0.13567144,-0.7302315,-9.921572,40.38882,0,0,0,0,3
221930997,221930089,2162698,0.060653113,-0.65281904,-9.92636,40.38882,0,0,0,0,3
222028553,222027653,2162698,0.19273324,-0.6607997,-9.916783,40.38882,0,0,0,0,2
222131105,222130188,2162698,0.0486821,-0.6687804,-9.942322,40.38882,0,0,0,0,3
222228662,222227762,2162698,0.088585466,-0.7410054,-9.937134,40.38882,0,0,0,0,2
222331202,222330286,2162698,0.24580471,-0.46607128,-10.094752,40.38882,0,0,0,0,3
222428733,222427834,2162698,0.1592144,-0.80684596,-9.856929,40.38882,0,0,0,0,2
222528778,222527883,2162698,0.16639702,-0.39264908,-10.065224,40.38882,0,0,0,0,2
222631343,222630441,2162698,0.43414858,-0.7270393,-9.695719,40.38882,0,0,0,0,3
222728876,222727981,2162698,-0.7098808,-1.2808979,-10.140641,40.38882,0,0,0,0,2
222831464,222830532,2162698,1.1284671,-0.771731,-9.80266,40.38882,0,0,0,0,3
222929006,222928111,2162698,-0.47165772,-0.61291564,-10.255563,40.38882,0,0,0,0,2
223029030,223028129,2162698,-0.044292733,-0.6955156,-9.946711,40.38882,0,0,0,0,2
223129080,223128182,2162698,0.49679685,-0.8295909,-9.932345,40.38882,0,0,0,0,2
223229126,223228228,2162698,-0.11611878,-0.44891283,-10.041282,40.38882,0,0,0,0,2
223331683,223330778,2162698,0.16998832,-0.8970276,-9.903216,40.38882,0,0,0,0,3
223429235,223428333,2162698,0.32800564,-0.61770403,-9.975441,40.38882,0,0,0,0,2
223531792,223530877,2162698,-0.035913028,-0.6344635,-9.92237,40.38882,0,0,0,0,3
223629339,223628439,2162698,0.22744916,-0.5470751,-10.0029745,40.38882,0,0,0,0,2
223729375,223728476,2162698,-0.0047884034,-0.46806642,-9.911995,40.38882,0,0,0,0,2
223831938,223831024,2162698,0.1947284,-0.7517794,-10.060436,40.38882,0,0,0,0,3
223929485,223928581,2162698,0.051475335,-0.6440403,-10.028113,40.38882,0,0,0,0,2
224032024,224031123,2162698,0.07262412,-0.62568474,-10.016542,40.38882,0,0,0,0,3
224129565,224128671,2162698,0.33758244,-1.0726024,-9.929952,40.48294,0,0,0,0,2
224229615,224228720,2162698,0.027533319,-1.0666169,-9.831789,40.48294,0,0,0,0,2
224329683,224328777,2162698,-0.20231004,-1.6256629,-10.445902,40.48294,0,0,0,0,2
224429722,224428821,2162698,0.1400608,-0.7134721,-10.802638,40.48294,0,0,0,0,2
224532293,224531369,2162698,-0.016759412,-0.7334238,-10.100339,40.48294,0,0,0,0,3
224629816,224628917,2162698,0.12330139,-0.36391866,-10.81461,40.48294,0,0,0,0,2
224732399,224731471,2162698,0.0973642,-0.67915523,-9.81064,40.48294,0,0,0,0,3
224829958,224829058,2162698,-0.11252748,-1.6472107,-10.973824,40.48294,0,0,0,0,2
224929971,224929072,2162698,-0.25977087,-1.0618285,-9.727641,40.48294,0,0,0,0,2
225027523,225026613,2162698,0.22984336,-1.1739569,-10.093955,40.48294,0,0,0,0,3
225130068,225129164,2162698,0.8331822,0.19512744,-9.709685,40.48294,0,0,0,0,2
225232627,225231715,2162698,0.32241917,-1.4277424,-9.305464,40.48294,0,0,0,0,3
225330157,225329262,2162698,-0.2908955,-1.4867992,-11.044453,40.48294,0,0,0,0,2
225430237,225429319,2162698,-0.35314476,-0.5602432,-11.162966,40.48294,0,0,0,0,2
225530267,225529361,2162698,0.24899697,-0.8810662,-10.986992,40.48294,0,0,0,0,2
225630309,225629411,2162698,-0.12928689,-1.1204864,-10.55843,40.48294,0,0,0,0,2
225727865,225726959,2162698,0.21627623,-0.6536171,-9.450712,40.48294,0,0,0,0,3
225830422,225829510,2162698,0.094570965,-0.46447513,-9.97185,40.48294,0,0,0,0,2
225930467,225929561,2162698,0.24181437,-0.49559975,-10.103531,40.48294,0,0,0,0,2
226030514,226029608,2162698,0.09696517,-0.5686229,-9.932345,40.48294,0,0,0,0,2
226130570,226129658,2162698,0.10534488,-0.61530983,-9.91439,40.48294,0,0,0,0,2
226228140,226227238,2162698,0.22984336,-0.723847,-9.911995,40.48294,0,0,0,0,3
226330656,226329756,2162698,0.08140286,-0.60094464,-9.952697,40.48294,0,0,0,0,2
226428210,226427304,2162698,0.11811395,-0.7406064,-10.026119,40.48294,0,0,0,0,3
226530762,226529855,2162698,0.20350714,-0.6775591,-9.885659,40.48294,0,0,0,0,2
226630808,226629905,2162698,0.12449849,-0.7757214,-9.961076,40.48294,0,0,0,0,2
226730857,226729954,2162698,0.1604115,-0.7613561,-9.878476,40.48294,0,0,0,0,2
226830919,226830004,2162698,0.0035913025,-0.6679823,-9.988609,40.48294,0,0,0,0,2
226928478,226927561,2162698,0.32561144,-0.7182605,-10.143435,40.48294,0,0,0,0,3
227031004,227030106,2162698,-0.023942016,-0.641646,-10.324995,40.48294,0,0,0,0,2
227128562,227127651,2162698,0.24021824,-0.6903282,-10.131464,40.48294,0,0,0,0,3
227231109,227230202,2162698,0.20231004,-0.79248077,-9.745598,40.48294,0,0,0,0,2
227331151,227330251,2162698,0.03232172,-0.46686932,-9.941922,40.48294,0,0,0,0,2
227428700,227427799,2162698,0.11332555,-0.8283938,-9.811439,40.48294,0,0,0,0,3
227531256,227530350,2162698,0.21547815,-0.81283146,-9.915586,40.48294,0,0,0,0,2
227628813,227627912,2162698,0.46128288,-0.61131954,-9.954293,40.48294,0,0,0,0,3
227731359,227730449,2162698,0.12090719,-0.8762778,-10.055647,40.48294,0,0,0,0,2
227828899,227827997,2162698,0.1827574,-1.0159396,-9.599951,40.48294,0,0,0,0,3
227928959,227928053,2162698,-0.019153614,-1.0430739,-9.988609,40.48294,0,0,0,0,3
228031520,228030597,2162698,0.11971009,-0.7290344,-9.902418,40.48294,0,0,0,0,2
228129050,228128146,2162698,0.42696598,-0.6639919,-9.864909,40.48294,0,0,0,0,3
228231591,228230697,2162698,0.05267244,-1.163582,-9.847352,40.48294,0,0,0,0,2
228329245,228328331,2162698,0.09975841,-0.7054914,-9.587182,40.48294,0,0,0,0,3
228431712,228430802,2162698,0.15562311,-0.8726865,-10.075998,40.48294,0,0,0,0,2
228529260,228528344,2162698,0.0853932,-0.86350876,-9.864909,40.48294,0,0,0,0,3
228629323,228628417,2162698,0.21308395,-0.8643068,-9.611124,40.48294,0,0,0,0,3
228731839,228730944,2162698,0.049081136,-1.1192893,-9.902418,40.48294,0,0,0,0,2
228829403,228828493,2162698,0.11492168,-0.6392519,-9.844957,40.48294,0,0,0,0,3
228931946,228931045,2162698,-0.16998832,-0.7649474,-10.049662,40.48294,0,0,0,0,2
229029516,229028608,2162698,0.30645782,-0.66479003,-9.912793,40.48294,0,0,0,0,3
229129553,229128641,2162698,0.14285403,-0.7733272,-9.905611,40.48294,0,0,0,0,3
229229603,229228691,2162698,0.103748746,-1.0478623,-9.894438,40.48294,0,0,0,0,3
229329649,229328741,2162698,0.20270908,-0.842759,-9.913591,40.48294,0,0,0,0,3
229432195,229431291,2162698,0.2813187,-0.16879122,-9.722853,40.48294,0,0,0,0,2
229529756,229528843,2162698,0.051076304,-0.7174625,-9.81064,40.48294,0,0,0,0,3
229632290,229631395,2162698,0.33758244,-0.16400282,-10.25676,40.48294,0,0,0,0,2
229729858,229728947,2162698,0.08698933,-1.0095551,-10.010956,40.48294,0,0,0,0,3
229829900,229828988,2162698,-0.14365211,-1.1204864,-9.866506,40.48294,0,0,0,0,3
229927456,229926540,2162698,0.4213795,-1.2473791,-10.170568,40.48294,0,0,0,0,2
230029995,230029088,2162698,-0.19393034,-0.7030972,-9.930351,40.48294,0,0,0,0,3
230132540,230131639,2162698,0.06584055,-0.7422025,-9.908403,40.577057,0,0,0,0,2
230230092,230229187,2162698,0.48283067,-0.7549716,-9.729238,40.577057,0,0,0,0,3
230330141,230329237,2162698,-0.089383535,-0.7757214,-9.788295,40.577057,0,0,0,0,3
230430231,230429311,2162698,0.2952849,-0.62249243,-9.864111,40.577057,0,0,0,0,3
230530241,230529336,2162698,0.03990336,-0.83717257,-10.134656,40.577057,0,0,0,0,3
230627790,230626884,2162698,0.18435353,-0.8463503,-9.871294,40.577057,0,0,0,0,2
230730337,230729436,2162698,0.5977524,-0.8842585,-10.244789,40.577057,0,0,0,0,3
230832887,230831986,2162698,-0.31603462,0.025139118,-9.992201,40.577057,0,0,0,0,2
230930449,230929535,2162698,0.5873775,-0.688732,-10.551248,40.577057,0,0,0,0,3
231030499,231029585,2162698,0.04070143,-0.80524987,-9.994994,40.577057,0,0,0,0,3
231128033,231127133,2162698,0.20949265,-0.4441244,-9.859323,40.577057,0,0,0,0,2
231230599,231229691,2162698,0.42058143,0.30406362,-11.028491,40.577057,0,0,0,0,3
231328132,231327232,2162698,-0.11492168,-0.8403648,-10.0903635,40.577057,0,0,0,0,2
231430708,231429794,2162698,0.89543146,-0.5538587,-10.090762,40.577057,0,0,0,0,3
231530747,231529833,2162698,0.2801216,-0.003192269,-9.643845,40.577057,0,0,0,0,3
231630788,231629883,2162698,0.013567143,-0.7278373,-9.956687,40.577057,0,0,0,0,3
231730846,231729939,2162698,0.33279404,-0.7964711,-9.9926,40.577057,0,0,0,0,3
231828401,231827490,2162698,0.24779987,-0.7038953,-9.870096,40.577057,0,0,0,0,2
231930940,231930032,2162698,0.12529656,-0.58418524,-9.975042,40.577057,0,0,0,0,3
232028492,232027580,2162698,0.108936176,-0.7637503,-9.935937,40.577057,0,0,0,0,2
232131040,232130131,2162698,0.1875458,-0.9401232,-9.994994,40.671177,0,0,0,0,3
232231088,232230181,2162698,0.07262412,-0.6687804,-9.672575,40.671177,0,0,0,0,3
232328632,232327737,2162698,-0.5446809,-0.9552865,-9.55047,40.671177,0,0,0,0,2
232431186,232430281,2162698,0.28491002,-1.1851299,-10.2152605,40.671177,0,0,0,0,3
232528743,232527841,2162698,0.22744916,-0.842759,-9.970653,40.671177,0,0,0,0,2
232631330,232630417,2162698,-0.062249247,-0.901816,-9.91439,40.671177,0,0,0,0,3
232728829,232727929,2162698,-0.32561144,-1.1121067,-9.488221,40.671177,0,0,0,0,2
232831395,232830480,2162698,-0.01995168,-1.9137653,-10.449095,40.671177,0,0,0,0,3
232931462,232930530,2162698,-0.05267244,-0.7070876,-9.494606,40.671177,0,0,0,0,3
233028973,233028078,2162698,0.32680854,-0.91578215,-10.126276,40.671177,0,0,0,0,2
233131560,233130629,2162698,-0.05506664,-0.37349546,-9.761959,40.671177,0,0,0,0,3
233229081,233228178,2162698,0.11611878,-1.4460979,-10.571598,40.671177,0,0,0,0,2
233331644,233330729,2162698,0.029528487,-1.1707647,-10.0851755,40.671177,0,0,0,0,3
233429189,233428278,2162698,-0.23463176,-0.5351041,-9.242816,40.671177,0,0,0,0,2
233529231,233528327,2162698,0.30406362,-0.50876784,-10.317812,40.671177,0,0,0,0,2
233629286,233628386,2162698,0.20949265,-0.44651863,-9.913192,40.671177,0,0,0,0,2
233729330,233728430,2162698,0.4249708,-0.8319851,-10.667366,40.671177,0,0,0,0,2
233831880,233830978,2162698,0.1923342,-0.5259263,-10.045273,40.671177,0,0,0,0,3
233929438,233928527,2162698,0.1340753,-0.6560113,-9.816227,40.671177,0,0,0,0,2
234029494,234028577,2162698,0.075417355,-0.52073884,-9.973047,40.671177,0,0,0,0,2
234129530,234128627,2162698,0.10295067,-0.88944596,-9.813833,40.577057,0,0,0,0,2
234229578,234228677,2162698,0.2801216,-0.6811504,-9.968259,40.577057,0,0,0,0,2
234332147,234331232,2162698,0.088585466,-0.08698933,-9.888851,40.577057,0,0,0,0,3
234429675,234428776,2162698,0.35314476,-0.7026982,-10.284293,40.577057,0,0,0,0,2
234532249,234531327,2162698,0.28650615,-0.85393196,-9.903216,40.577057,0,0,0,0,3
234629780,234628876,2162698,0.10414778,-0.8690952,-9.896433,40.577057,0,0,0,0,2
234729841,234728943,2162698,0.020350715,-0.62728083,-9.952697,40.577057,0,0,0,0,2
234829892,234828976,2162698,0.20231004,-0.7493851,-10.105926,40.577057,0,0,0,0,2
234929933,234929026,2162698,-0.022744916,-1.780089,-10.802638,40.577057,0,0,0,0,2
235032495,235031577,2162698,0.11013328,-0.46208093,-9.761959,40.577057,0,0,0,0,3
235130034,235129130,2162698,0.3196259,-0.6967127,-9.965864,40.671177,0,0,0,0,2
235230070,235229176,2162698,0.34596214,-0.89064306,-9.706094,40.671177,0,0,0,0,2
235330141,235329225,2162698,-0.18076223,-0.40701428,-9.758766,40.671177,0,0,0,0,2
235430174,235429275,2162698,-0.061052144,-0.7266402,-10.031705,40.671177,0,0,0,0,2
235527731,235526824,2162698,0.28091967,-0.87867206,-9.936735,40.671177,0,0,0,0,3
235630283,235629388,2162698,0.15322891,-0.81522566,-9.961076,40.671177,0,0,0,0,2
235732851,235731927,2162698,0.041499496,-0.6384538,-10.000581,40.671177,0,0,0,0,3
235830370,235829475,2162698,0.20590134,-0.7182605,-9.925163,40.671177,0,0,0,0,2
235930433,235929526,2162698,0.20111294,-0.7374141,-9.929952,40.671177,0,0,0,0,2
236027981,236027074,2162698,0.07262412,-0.7916827,-9.908005,40.671177,0,0,0,0,3
236130531,236129631,2162698,0.21428105,-0.6871359,-9.9550905,40.671177,0,0,0,0,2
236228076,236227174,2162698,0.12769076,-0.7222509,-9.910399,40.671177,0,0,0,0,3
236330639,236329725,2162698,0.142455,-0.78050977,-9.964667,40.671177,0,0,0,0,2
236430679,236429776,2162698,0.15083471,-0.79008657,-9.959879,40.671177,0,0,0,0,2
236530747,236529829,2162698,0.14604631,-0.7266402,-9.944317,40.671177,0,0,0,0,2
236630778,236629875,2162698,0.15083471,-0.7422025,-9.969456,40.671177,0,0,0,0,2
236728349,236727424,2162698,0.15003665,-0.7342219,-9.976639,40.671177,0,0,0,0,3
236830870,236829975,2162698,0.1592144,-0.7565677,-9.89763,40.671177,0,0,0,0,2
236928448,236927531,2162698,0.14923857,-0.723847,-9.919178,40.671177,0,0,0,0,3
237030971,237030076,2162698,0.12689269,-0.7457938,-9.88925,40.671177,0,0,0,0,2
237131030,237130126,2162698,0.15682021,-0.7338228,-9.945514,40.671177,0,0,0,0,2
237228581,237227674,2162698,0.15083471,-0.7741252,-9.991802,40.671177,0,0,0,0,3
237331128,237330226,2162698,0.14604631,-0.7158663,-9.964667,40.671177,0,0,0,0,2
237428682,237427774,2162698,0.14923857,-0.770933,-9.979831,40.671177,0,0,0,0,3
237531235,237530332,2162698,0.12569559,-0.760159,-9.945514,40.671177,0,0,0,0,2
237628776,237627875,2162698,0.12689269,-0.758962,-9.940725,40.671177,0,0,0,0,3
237731325,237730426,2162698,0.1364695,-0.724246,-10.006566,40.671177,0,0,0,0,2
237831391,237830476,2162698,0.15682021,-0.7553706,-9.952697,40.671177,0,0,0,0,2
237928926,237928025,2162698,0.15642118,-0.7214528,-9.987014,40.671177,0,0,0,0,3
238031502,238030576,2162698,0.17238252,-0.6907272,-9.965864,40.671177,0,0,0,0,2
238129045,238128125,2162698,0.16280572,-0.7613562,-9.949505,40.671177,0,0,0,0,3
238231575,238230676,2162698,0.12928689,-0.7589619,-9.977836,40.671177,0,0,0,0,2
238329165,238328256,2162698,0.109335214,-0.7270393,-9.972649,40.671177,0,0,0,0,3
238429188,238428276,2162698,0.15642118,-0.7621542,-9.903216,40.671177,0,0,0,0,3
238529250,238528326,2162698,0.1340753,-0.7382122,-10.003773,40.671177,0,0,0,0,3
238629293,238628386,2162698,0.11412362,-0.7509813,-9.942322,40.671177,0,0,0,0,3
238731837,238730927,2162698,0.11971009,-0.7146692,-9.952697,40.671177,0,0,0,0,2
238829392,238828476,2162698,0.15642118,-0.7214528,-9.997389,40.671177,0,0,0,0,3
238929439,238928526,2162698,0.15801732,-0.7254431,-9.931947,40.671177,0,0,0,0,3
239029487,239028577,2162698,0.14684437,-0.7701349,-9.944716,40.671177,0,0,0,0,3
239129532,239128627,2162698,0.1316811,-0.67915523,-9.89364,40.671177,0,0,0,0,3
239232078,239231178,2162698,0.1400608,-0.7457938,-9.973047,40.671177,0,0,0,0,2
239329636,239328727,2162698,0.14445017,-0.7366161,-9.978235,40.671177,0,0,0,0,3
239432189,239431278,2162698,0.15562311,-0.7445967,-9.965864,40.671177,0,0,0,0,2
239529746,239528827,2162698,0.1827574,-0.76295227,-9.959082,40.671177,0,0,0,0,3
239629790,239628878,2162698,0.13088302,-0.7517794,-9.994196,40.671177,0,0,0,0,3
239729842,239728933,2162698,0.1292869,-0.735818,-9.972649,40.671177,0,0,0,0,3
239829895,239828982,2162698,0.17238253,-0.7334238,-9.924765,40.671177,0,0,0,0,3
239932443,239931529,2162698,0.08020575,-0.7625532,-9.968259,40.671177,0,0,0,0,2
240029993,240029082,2162698,0.17477673,-0.7150683,-9.947908,40.671177,0,0,0,0,3
240130042,240129132,2162698,0.14604631,-0.771731,-10.0029745,40.765293,0,0,0,0,3
240230100,240229179,2162698,0.15642118,-0.7613562,-9.900024,40.765293,0,0,0,0,3
240330162,240329231,2162698,0.1388637,-0.7621542,-9.920774,40.765293,0,0,0,0,3
240427679,240426773,2162698,0.18794483,-0.7314286,-9.93474,40.765293,0,0,0,0,2
240530231,240529330,2162698,0.12848882,-0.7134721,-9.946312,40.765293,0,0,0,0,3
240632781,240631881,2162698,0.12449849,-0.712275,-9.975441,40.765293,0,0,0,0,2
240730335,240729430,2162698,0.1388637,-0.7142702,-9.943918,40.765293,0,0,0,0,3
240827881,240826979,2162698,0.1352724,-0.7326257,-9.94312,40.765293,0,0,0,0,2
240927924,240927029,2162698,0.14604631,-0.7182605,-9.91439,40.765293,0,0,0,0,2
241030508,241029585,2162698,0.121306226,-0.7517794,-9.959879,40.765293,0,0,0,0,3
241128025,241127130,2162698,0.11133038,-0.7541735,-9.952697,40.85941,0,0,0,0,2
241230601,241229689,2162698,0.106941015,-0.7214528,-9.978235,40.85941,0,0,0,0,3
241330641,241329732,2162698,0.12210429,-0.7254431,-9.959879,40.85941,0,0,0,0,3
241430703,241429782,2162698,0.13567144,-0.7366161,-9.9550905,40.85941,0,0,0,0,3
241530743,241529832,2162698,0.15322891,-0.7573658,-9.94312,40.85941,0,0,0,0,3
241628292,241627390,2162698,0.15682021,-0.7685388,-9.910798,40.85941,0,0,0,0,2
241730846,241729936,2162698,0.11492168,-0.7142702,-9.968658,40.85941,0,0,0,0,3
241828398,241827485,2162698,0.11971009,-0.79128367,-9.945514,40.85941,0,0,0,0,2
241930939,241930034,2162698,0.13088302,-0.735818,-9.964667,40.85941,0,0,0,0,3
242028527,242027616,2162698,0.1316811,-0.7086837,-9.983821,40.85941,0,0,0,0,2
242128542,242127633,2162698,0.15083471,-0.7745243,-9.975441,40.765293,0,0,0,0,2
242228583,242227683,2162698,0.16519992,-0.7038953,-9.97185,40.765293,0,0,0,0,2
242328640,242327733,2162698,0.1340753,-0.736217,-10.038888,40.765293,0,0,0,0,2
242431187,242430285,2162698,0.15721925,-0.7302315,-9.871294,40.765293,0,0,0,0,3
242528735,242527841,2162698,0.16160862,-0.30406362,-10.226832,40.765293,0,0,0,0,2
242631325,242630411,2162698,0.011971009,-0.8259996,-10.03809,40.765293,0,0,0,0,3
242728863,242727968,2162698,0.19871874,-0.8391677,-9.939528,40.765293,0,0,0,0,2
242828889,242827985,2162698,0.11372458,-0.7230489,-9.901221,40.765293,0,0,0,0,2
242931479,242930541,2162698,0.108537145,-0.5945601,-9.987014,40.765293,0,0,0,0,3
243028986,243028086,2162698,0.0011971008,-0.91937345,-10.023325,40.765293,0,0,0,0,2
243131557,243130638,2162698,-0.091777734,-0.687934,-10.058042,40.765293,0,0,0,0,3
243229091,243228187,2162698,0.2837129,-0.36750996,-10.1382475,40.765293,0,0,0,0,2
243329154,243328248,2162698,-0.7410054,-0.9588778,-9.922769,40.765293,0,0,0,0,2
243429229,243428315,2162698,-0.110133275,-0.51954174,-9.911995,40.765293,0,0,0,0,2
243529241,243528338,2162698,0.005985504,-0.8619126,-10.022128,40.765293,0,0,0,0,2
243631799,243630890,2162698,0.48841715,-0.7086837,-9.91838,40.765293,0,0,0,0,3
243729340,243728440,2162698,0.37229836,-0.62728083,-9.878476,40.765293,0,0,0,0,2
243831931,243831030,2162698,-0.60892534,-0.7677407,-10.405999,40.765293,0,0,0,0,3
243929443,243928540,2162698,0.39504328,-0.81283146,-9.7803135,40.765293,0,0,0,0,2
244029509,244028604,2162698,0.4297592,-0.81283146,-9.890448,40.765293,0,0,0,0,2
244132058,244131152,2162698,-0.22345883,-0.7166644,-10.010158,40.85941,0,0,0,0,3
244229593,244228691,2162698,0.2645593,-0.770933,-10.006566,40.85941,0,0,0,0,2
244332181,244331243,2162698,0.27932355,-0.7541736,-9.969456,40.85941,0,0,0,0,3
244429691,244428793,2162698,-0.035913024,-0.7386112,-10.047267,40.85941,0,0,0,0,2
244529742,244528842,2162698,0.18794483,-0.79367787,-9.951499,40.85941,0,0,0,0,2
244629793,244628895,2162698,0.12808979,-0.7553706,-9.94312,40.85941,0,0,0,0,2
244729833,244728938,2162698,0.061052144,-0.7374141,-9.985018,40.85941,0,0,0,0,2
244832412,244831496,2162698,0.21867043,-0.7517794,-9.946312,40.85941,0,0,0,0,3
244929958,244929044,2162698,0.08140286,-0.7194576,-9.977836,40.85941,0,0,0,0,2
245029999,245029095,2162698,0.17717093,-0.724246,-9.941922,40.85941,0,0,0,0,2
245130057,245129145,2162698,0.10654198,-0.7338228,-9.969456,40.95353,0,0,0,0,2
245230096,245229196,2162698,0.1388637,-0.736217,-9.956287,40.95353,0,0,0,0,2
245327646,245326745,2162698,0.17397866,-0.7110779,-9.934341,40.95353,0,0,0,0,3
245430210,245429304,2162698,0.11133038,-0.7505822,-10.0029745,40.95353,0,0,0,0,2
245532786,245531881,2162698,0.16200766,-0.7302315,-9.915188,40.95353,0,0,0,0,3
245630302,245629398,2162698,0.1412579,-0.724246,-9.927557,40.95353,0,0,0,0,2
245730343,245729448,2162698,0.14604631,-0.6500258,-9.988609,40.95353,0,0,0,0,2
245830411,245829499,2162698,0.14724341,-0.7386112,-9.949105,40.95353,0,0,0,0,2
245930466,245929550,2162698,0.09935937,-0.78170687,-9.97185,40.95353,0,0,0,0,2
246028000,246027099,2162698,0.15482505,-0.7549716,-9.959879,40.95353,0,0,0,0,3
246130553,246129651,2162698,0.12928689,-0.7433996,-9.977836,40.85941,0,0,0,0,2
246230688,246229791,2162698,0.11372458,-0.7038953,-9.901221,40.85941,0,0,0,0,2
246330665,246329752,2162698,0.17118542,-0.7517793,-9.919178,40.85941,0,0,0,0,2
246430710,246429802,2162698,0.1448492,-0.7697359,-9.927557,40.85941,0,0,0,0,2
246528269,246527351,2162698,0.16041152,-0.7509813,-9.965466,40.85941,0,0,0,0,3
246630814,246629903,2162698,0.16280572,-0.7086837,-9.938332,40.85941,0,0,0,0,2
246728358,246727453,2162698,0.1412579,-0.76055807,-9.921572,40.85941,0,0,0,0,3
246830899,246830004,2162698,0.16998832,-0.7290344,-9.931149,40.85941,0,0,0,0,2
246930960,246930061,2162698,0.1388637,-0.7350199,-9.90601,40.85941,0,0,0,0,2
247028520,247027604,2162698,0.12529656,-0.7198567,-9.921572,40.85941,0,0,0,0,3
247131051,247130156,2162698,0.12210429,-0.7350199,-9.980229,40.85941,0,0,0,0,2
247228612,247227705,2162698,0.13966177,-0.7054914,-9.976639,40.85941,0,0,0,0,3
247331165,247330261,2162698,0.12689269,-0.7398083,-9.946711,40.85941,0,0,0,0,2
247428731,247427811,2162698,0.15642118,-0.75816387,-9.996591,40.85941,0,0,0,0,3
247531265,247530359,2162698,0.12808979,-0.7146692,-9.919178,40.85941,0,0,0,0,2
247631391,247630484,2162698,0.15083471,-0.7637503,-10.029311,40.85941,0,0,0,0,2
247728864,247727958,2162698,0.07900866,-0.7310296,-9.9511,40.85941,0,0,0,0,3
247831424,247830511,2162698,0.14963761,-0.7098808,-9.951499,40.85941,0,0,0,0,2
247928967,247928060,2162698,0.12609462,-0.82200927,-9.9790325,40.85941,0,0,0,0,3
248031533,248030612,2162698,0.16998832,-0.7110779,-9.946711,40.85941,0,0,0,0,2
248129069,248128161,2162698,0.15801732,-0.783702,-9.963072,40.95353,0,0,0,0,3
248229113,248228212,2162698,0.13567144,-0.7414045,-9.948707,40.95353,0,0,0,0,3
248329179,248328263,2162698,0.14684437,-0.770933,-9.9550905,40.95353,0,0,0,0,3
248429252,248428338,2162698,0.15721925,-0.6751649,-9.998186,40.95353,0,0,0,0,3
248531767,248530869,2162698,0.16280572,-0.6991069,-9.976639,40.95353,0,0,0,0,2
248629321,248628415,2162698,0.15003665,-0.76534647,-9.927957,40.95353,0,0,0,0,3
248731879,248730967,2162698,0.12808979,-0.7565677,-9.96347,40.95353,0,0,0,0,2
248829456,248828542,2162698,0.13567144,-0.7302315,-9.933543,40.95353,0,0,0,0,3
248929477,248928567,2162698,0.122902356,-0.7549716,-10.031705,40.95353,0,0,0,0,3
249032042,249031147,2162698,0.142455,-0.7182605,-9.909601,40.95353,0,0,0,0,2
249129581,249128668,2162698,0.13088302,-0.7541736,-9.942322,40.95353,0,0,0,0,3
249232141,249231220,2162698,0.16879122,-0.7290344,-9.968259,40.95353,0,0,0,0,2
249329681,249328769,2162698,0.0973642,-0.7469909,-9.965466,40.95353,0,0,0,0,3
249429735,249428820,2162698,0.14524823,-0.7134721,-9.970254,40.95353,0,0,0,0,3
249529780,249528875,2162698,0.122902356,-0.6831456,-9.895236,40.95353,0,0,0,0,3
249629840,249628931,2162698,0.1388637,-0.7366161,-10.030908,40.95353,0,0,0,0,3
249732397,249731484,2162698,0.11731588,-0.736217,-9.92636,40.95353,0,0,0,0,2
249829925,249829023,2162698,0.15881538,-0.7206547,-9.956687,40.95353,0,0,0,0,3
249929991,249929073,2162698,0.16440186,-0.7749233,-9.908005,40.95353,0,0,0,0,3
250030037,250029124,2162698,0.107739076,-0.7501832,-9.960677,40.95353,0,0,0,0,3
250130086,250129175,2162698,0.17717093,-0.7860962,-10.014148,40.95353,0,0,0,0,3
250227619,250226724,2162698,0.12689269,-0.7398083,-9.950302,40.95353,0,0,0,0,2
250330189,250329277,2162698,0.15322891,-0.7334238,-9.959082,40.95353,0,0,0,0,3
250432738,250431828,2162698,0.12808979,-0.7422025,-9.976639,40.95353,0,0,0,0,2
250530300,250529390,2162698,0.15562311,-0.7932789,-9.983821,40.95353,0,0,0,0,3
250630340,250629429,2162698,0.15003665,-0.7102799,-9.971052,40.95353,0,0,0,0,3
250727886,250726978,2162698,0.18195933,-0.7577648,-9.949105,40.95353,0,0,0,0,2
250830448,250829530,2162698,0.15562311,-0.7374141,-9.948707,40.95353,0,0,0,0,3
250927986,250927079,2162698,0.18914193,-0.7170634,-9.91439,40.95353,0,0,0,0,2
251030537,251029632,2162698,0.15482505,-0.7182605,-10.018138,40.95353,0,0,0,0,3
251130587,251129682,2162698,0.14445017,-0.7501832,-9.991004,40.95353,0,0,0,0,3
251230666,251229740,2162698,-0.2777274,-1.4141752,-9.599951,40.95353,0,0,0,0,3
251330726,251329818,2162698,0.2705448,-0.7493852,-9.817025,40.95353,0,0,0,0,3
251428242,251427333,2162698,0.10534488,-0.58777654,-10.093954,40.95353,0,0,0,0,2
251530803,251529889,2162698,0.24740085,-0.7030972,-9.904813,40.95353,0,0,0,0,3
251628330,251627435,2162698,0.062249243,-0.81163436,-10.024523,40.95353,0,0,0,0,2
251730901,251729987,2162698,0.21308395,-0.640848,-9.917582,40.95353,0,0,0,0,3
251830939,251830038,2162698,0.13966177,-0.7262412,-10.035696,40.95353,0,0,0,0,3
251928493,251927587,2162698,0.08020575,-0.7254431,-10.315418,40.95353,0,0,0,0,2
252031047,252030139,2162698,0.22585303,-0.63765574,-9.970254,40.95353,0,0,0,0,3
252128596,252127689,2162698,0.22146365,-0.7697359,-10.401609,41.047646,0,0,0,0,2
252231142,252230241,2162698,0.08220093,-0.6655881,-10.83057,41.047646,0,0,0,0,3
252328690,252327790,2162698,0.2873042,-0.7278373,-9.854534,41.047646,0,0,0,0,2
252431267,252430342,2162698,-0.10135454,-0.94730586,-10.010956,41.047646,0,0,0,0,3
252531304,252530395,2162698,0.0973642,-0.93214256,-10.854513,41.047646,0,0,0,0,3
252628837,252627943,2162698,0.09935937,-1.2006922,-9.884461,41.047646,0,0,0,0,2
252731420,252730497,2162698,0.4213795,-0.40621623,-10.429143,41.047646,0,0,0,0,3
252828948,252828044,2162698,0.027533319,-1.0737995,-8.65025,41.047646,0,0,0,0,2
252931539,252930597,2162698,0.09975841,-0.9113928,-9.442732,41.047646,0,0,0,0,3
253029044,253028146,2162698,0.10175357,-0.62967503,-9.985018,41.047646,0,0,0,0,2
253129114,253128216,2162698,0.088585466,-1.2473791,-9.57561,41.047646,0,0,0,0,2
253229158,253228248,2162698,0.06344634,-0.7086837,-10.007763,41.047646,0,0,0,0,2
253329199,253328304,2162698,0.1352724,-0.5734113,-10.370484,41.047646,0,0,0,0,2
253431759,253430851,2162698,0.09656614,-0.45170605,-10.06682,41.047646,0,0,0,0,3
253529309,253528401,2162698,0.24420857,-0.2753332,-9.688137,41.047646,0,0,0,0,2
253631862,253630952,2162698,0.05825891,-0.7469909,-10.210472,41.047646,0,0,0,0,3
253729413,253728502,2162698,0.30286652,-0.48362875,-9.736021,41.047646,0,0,0,0,2
253829479,253828562,2162698,-0.047884032,-0.89303726,-10.133459,41.047646,0,0,0,0,2
253932014,253931109,2162698,-0.18355547,-0.65521324,-9.895236,41.047646,0,0,0,0,3
254029556,254028655,2162698,0.18076223,-0.9672575,-9.803059,41.047646,0,0,0,0,2
254132123,254131207,2162698,0.20909362,-0.32880372,-10.192915,41.047646,0,0,0,0,3
254229674,254228757,2162698,0.06464344,-0.94570965,-9.752781,41.047646,0,0,0,0,2
254329703,254328808,2162698,0.11611878,-0.8439561,-9.601946,41.047646,0,0,0,0,2
254429757,254428858,2162698,0.090979666,-0.4249708,-10.065224,41.047646,0,0,0,0,2
254529810,254528912,2162698,0.11252748,-0.5482722,-10.590752,41.047646,0,0,0,0,2
254632369,254631462,2162698,0.062249247,-0.8794701,-10.485007,41.047646,0,0,0,0,3
254729910,254729011,2162698,0.073023155,-0.79966336,-9.710882,41.047646,0,0,0,0,2
254832476,254831566,2162698,0.20669942,-0.39743748,-10.342952,41.047646,0,0,0,0,3
254930019,254929118,2162698,0.16519992,-0.59855044,-10.207679,41.047646,0,0,0,0,2
255030064,255029164,2162698,0.015562311,-0.89543146,-9.770737,41.047646,0,0,0,0,2
255127615,255126714,2162698,0.12689269,-0.7430006,-9.616711,40.95353,0,0,0,0,3
255230188,255229288,2162698,0.15801731,-0.6979098,-9.974244,40.95353,0,0,0,0,2
255332737,255331821,2162698,0.047884036,-0.84196097,-10.188127,40.95353,0,0,0,0,3
255430278,255429368,2162698,0.22385786,-0.80924016,-10.1382475,40.95353,0,0,0,0,2
255530319,255529420,2162698,0.06943185,-0.7745243,-9.877279,40.95353,0,0,0,0,2
255630370,255629470,2162698,0.25498247,-0.5470751,-9.980229,40.95353,0,0,0,0,2
255730433,255729521,2162698,0.24540567,-0.94810385,-9.986216,40.95353,0,0,0,0,2
255827972,255827070,2162698,0.22984336,-0.5650316,-9.998186,40.95353,0,0,0,0,3
255930532,255929629,2162698,0.18315643,-0.6452374,-10.1226845,40.95353,0,0,0,0,2
256030568,256029674,2162698,0.1316811,-0.82599956,-9.901221,40.95353,0,0,0,0,2
256130641,256129728,2162698,0.15322891,-0.78769237,-10.089166,41.047646,0,0,0,0,2
256230674,256229776,2162698,0.11252748,-0.6943185,-9.96347,41.047646,0,0,0,0,2
256328237,256327329,2162698,0.0877874,-0.63286734,-9.931149,41.047646,0,0,0,0,3
256430819,256429917,2162698,0.20231004,-0.736217,-10.000581,41.047646,0,0,0,0,2
256528341,256527428,2162698,0.13567144,-0.64723253,-9.997389,41.047646,0,0,0,0,3
256630881,256629980,2162698,0.14604631,-0.6907272,-9.921572,41.047646,0,0,0,0,2
256730939,256730031,2162698,0.09935937,-0.736217,-9.985018,41.047646,0,0,0,0,2
256830982,256830082,2162698,0.1448492,-0.7182605,-9.94312,41.047646,0,0,0,0,2
256931032,256930133,2162698,0.1436521,-0.7673417,-10.02572,41.047646,0,0,0,0,2
257028584,257027683,2162698,0.14365211,-0.6145118,-9.929553,41.047646,0,0,0,0,3
257131135,257130235,2162698,0.11133038,-0.700304,-9.950302,41.14176,0,0,0,0,2
257228693,257227785,2162698,0.16759412,-0.7533755,-9.91439,41.14176,0,0,0,0,3
257331247,257330342,2162698,0.09816227,-0.70509243,-9.967062,41.14176,0,0,0,0,2
257431298,257430395,2162698,0.22146365,-0.7326257,-9.838972,41.14176,0,0,0,0,2
257528862,257527946,2162698,0.11891202,-0.7190586,-10.188127,41.14176,0,0,0,0,3
257631401,257630491,2162698,0.12090719,-0.7445967,-9.904813,41.14176,0,0,0,0,2
257728960,257728040,2162698,0.15642118,-0.69910693,-10.020533,41.14176,0,0,0,0,3
257831519,257830598,2162698,0.11611878,-0.7661445,-9.939528,41.14176,0,0,0,0,2
257929067,257928154,2162698,0.22744916,-0.6935204,-10.004571,41.14176,0,0,0,0,3
258029095,258028193,2162698,0.106142946,-0.7214528,-9.912793,41.14176,0,0,0,0,3
258131656,258130746,2162698,0.11133038,-0.7374141,-9.888053,41.14176,0,0,0,0,2
258229203,258228296,2162698,0.18435353,-0.79726917,-9.94312,41.14176,0,0,0,0,3
258331751,258330848,2162698,0.1376666,-0.78888947,-10.0029745,41.14176,0,0,0,0,2
258429306,258428398,2162698,0.14524823,-0.7174625,-10.073205,41.14176,0,0,0,0,3
258531867,258530964,2162698,0.16519992,-0.7350199,-9.834184,41.14176,0,0,0,0,2
258629444,258628528,2162698,0.1412579,-0.7693368,-10.060436,41.14176,0,0,0,0,3
258729475,258728551,2162698,0.103748746,-0.66957843,-9.96786,41.14176,0,0,0,0,3
258831999,258831104,2162698,0.14963761,-0.81283146,-9.981427,41.14176,0,0,0,0,2
258929583,258928653,2162698,0.16041152,-0.675963,-10.010158,41.14176,0,0,0,0,3
259032112,259031206,2162698,0.15442601,-0.748188,-10.0508585,41.14176,0,0,0,0,2
259129664,259128756,2162698,0.17876707,-0.79487497,-9.972649,41.14176,0,0,0,0,3
259229712,259228807,2162698,0.11412362,-0.7294335,-9.96387,41.14176,0,0,0,0,3
259329767,259328858,2162698,0.16599798,-0.6951166,-9.965466,41.14176,0,0,0,0,3
259429818,259428909,2162698,0.11013328,-0.7892885,-10.010956,41.14176,0,0,0,0,3
259532370,259531462,2162698,0.20829555,-0.712275,-10.053253,41.14176,0,0,0,0,2
259629927,259629014,2162698,0.11811395,-0.7669426,-10.0612335,41.14176,0,0,0,0,3
259729965,259729063,2162698,0.12609462,-0.7509813,-9.868101,41.14176,0,0,0,0,3
259830022,259829118,2162698,0.17397866,-0.7621542,-10.111512,41.14176,0,0,0,0,3
259930080,259929169,2162698,0.1364695,-0.7461929,-9.929553,41.14176,0,0,0,0,3
260027607,260026711,2162698,0.1436521,-0.7350199,-9.999383,41.14176,0,0,0,0,2
260130184,260129268,2162698,0.11252748,-0.75976,-9.891246,41.23588,0,0,0,0,3
260232731,260231820,2162698,0.19512744,-0.7505822,-10.067618,41.23588,0,0,0,0,2
260330311,260329370,2162698,0.14045984,-0.6703765,-9.954293,41.23588,0,0,0,0,3
260430332,260429421,2162698,0.14285403,-0.7765194,-10.034898,41.23588,0,0,0,0,3
260530386,260529473,2162698,0.12609462,-0.7182605,-9.909601,41.23588,0,0,0,0,3
260630443,260629524,2162698,0.11492168,-0.7613562,-9.993398,41.23588,0,0,0,0,3
260727979,260727084,2162698,0.11731588,-0.7314286,-9.983821,41.23588,0,0,0,0,2
260830528,260829626,2162698,0.15642118,-0.80524987,-9.821015,41.23588,0,0,0,0,3
260930620,260929715,2162698,0.16041152,-0.7813078,-9.894438,41.23588,0,0,0,0,3
261030645,261029729,2162698,0.0853932,-0.7533755,-9.891246,41.23588,0,0,0,0,3
261130689,261129784,2162698,0.16120958,-0.7310296,-9.93514,41.14176,0,0,0,0,3
261228241,261227332,2162698,0.19752164,-0.6895301,-9.938332,41.14176,0,0,0,0,2
261330798,261329883,2162698,0.16200766,-0.7270393,-10.074801,41.14176,0,0,0,0,3
261428336,261427433,2162698,0.3172317,-0.49081135,-9.417592,41.14176,0,0,0,0,2
261530908,261529999,2162698,0.272939,-0.5538587,-10.137848,41.14176,0,0,0,0,3
