timestamp,timestamp_sample,xyz[0],xyz[1],xyz[2]
186846541,186845680,0.40523222,0.10321152,0.07673408
186851554,186850681,0.697746,-0.016637765,0.113407165
186854049,186853179,0.64330405,-0.038093247,0.07104919
186856541,186855682,0.51582336,-0.040372625,0.02779465
186861539,186860684,0.37307906,-0.008862903,-0.0020415094
186864038,186863184,0.38378656,0.018864859,0.064157955
186869052,186868186,0.42452618,-0.008960539,0.17835052
186871558,186870694,0.4536932,-0.08200261,0.1605685
186874077,186873212,0.51547384,-0.12221702,0.1338578
186879049,186878191,0.5730531,-0.0807533,0.14443538
186881561,186880699,0.557714,-0.048823997,0.16103737
186886549,186885695,0.51457477,-0.03796452,0.28821096
186889056,186888196,0.50348043,-0.029790694,0.32393876
186891554,186890697,0.48751178,-0.028677965,0.29875115
186896554,186895699,0.45283896,-0.022304475,0.17579165
186899068,186898203,0.40533352,-0.024975007,0.12837668
186904077,186903203,0.3798604,0.025688685,0.080333866
186906564,186905704,0.34766027,0.06149142,0.07339346
186909071,186908205,0.32405862,0.08868731,0.0893262
186914075,186913208,0.20161225,0.05684256,0.16660391
186916563,186915709,0.17895436,0.024907004,0.17328642
186921582,186920711,0.25746605,-0.01826522,0.15321724
186924072,186923212,0.27485347,-0.053621,0.16208963
186926574,186925713,0.24176446,-0.084582135,0.17663844
186931584,186930716,-0.04703451,-0.07088026,0.19415681
186934097,186933221,-0.2017492,-0.052233998,0.20242739
186939080,186938220,-0.16858694,-0.04934431,0.20758721
186941580,186940721,-0.069503345,-0.044724062,0.22240095
186944088,186943222,-0.044563446,-0.041449767,0.22157593
186949084,186948224,-0.2571524,-0.02302941,0.18058103
186951593,186950730,-0.29829857,-0.013300467,0.1702315
186956582,186955728,-0.25614408,0.08701722,0.24552494
186959107,186958244,-0.3247867,0.1638105,0.26590616
186961590,186960733,-0.42615327,0.23376971,0.24648143
186966601,186965733,-0.39055926,0.23471726,0.09349256
186969100,186968234,-0.33393967,0.16862844,0.051312145
186974096,186973236,-0.31818697,0.06550308,0.07082887
186976596,186975741,-0.42119294,0.03999595,0.0878025
186979099,186978239,-0.5222018,0.029846398,0.10121662
186984100,186983241,-0.41823623,-0.008457656,0.08871824
186986612,186985742,-0.33961406,-0.03095052,0.0911843
186991631,186990748,-0.33525893,-0.060631197,0.16087793
186994111,186993246,-0.3952692,-0.040115573,0.22740468
186996609,186995747,-0.403449,-0.021801595,0.27118075
187001624,187000753,-0.25163725,-0.022862298,0.22147861
187004110,187003251,-0.20453115,0.005688922,0.15862368
187009119,187008253,-0.323192,0.028299974,0.021829821
187011639,187010770,-0.36640152,0.010346739,-0.043515988
187014114,187013255,-0.3404593,-0.011690676,-0.08022764
187019117,187018258,-0.21903929,0.02301262,-0.05244991
187021617,187020761,-0.1842225,0.020287374,-0.021922603
187026629,187025761,-0.25583833,0.0010089134,0.016904494
187029123,187028262,-0.2434409,-0.008742512,0.04318128
187031624,187030764,-0.17001511,-0.002198939,0.063332915
187036627,187035766,0.13183635,0.0759804,0.06515763
187039139,187038267,0.26228312,0.10976271,0.034249138
187044145,187043277,0.37261677,0.025551323,-0.015118215
187046625,187045771,0.49711046,-0.10699583,-0.06905238
187049132,187048272,0.6312156,-0.20660053,-0.13003159
187054134,187053274,-0.506687,0.1294462,-0.054931697
187056637,187055776,-1.9310023,0.45259944,0.16275144
187061653,187060780,-2.8774352,0.31787553,0.65069664
187064150,187063279,-1.414028,-0.1753189,0.7023257
187066653,187065780,0.27760053,-0.6221747,0.61928254
187071644,187070783,0.10206823,-0.50184494,0.14399864
187074138,187073284,-0.9379145,-0.16137366,-0.35459095
187079154,187078286,-0.64860404,0.10953666,-1.1820041
187081655,187080798,-0.058237217,0.079390526,-1.0214524
187084143,187083289,0.1631601,0.008500866,-0.5454273
187089146,187088291,0.3875281,-0.061351873,0.31932703
187091661,187090794,0.36156473,0.042113677,0.5840634
187096688,187095816,-0.9655376,0.5430927,0.9710588
187099178,187098313,-1.2160114,0.73029387,0.91519815
187101670,187100804,-0.5435139,0.72440374,0.5794817
187106657,187105799,1.5799198,0.41161168,-0.34514776
187109170,187108300,1.8944441,0.27454612,-0.62008125
187114171,187113303,1.6358261,-0.014137593,-0.80180186
187116659,187115804,1.3589526,-0.12015231,-0.77496827
187119160,187118305,0.7184601,-0.07922285,-0.61917174
187124168,187123308,-1.148536,0.144193,-0.046577416
187126677,187125809,-1.3424433,0.02196483,0.16693537
187131710,187130834,0.05444,-0.520422,0.42665148
187134173,187133312,0.7288692,-0.5696613,0.5270133
187136672,187135814,1.1054581,-0.49053863,0.5634407
187141675,187140816,1.4893667,-0.3476079,0.31795907
187144171,187143317,1.674877,-0.32564434,0.15722892
187149179,187148313,1.44396,-0.11595817,0.12755592
187151678,187150821,0.92431235,-0.012316863,0.19418605
187154176,187153322,0.3328231,-0.043040775,0.261168
187159179,187158324,-0.35110605,-0.12711442,0.17922921
187161686,187160828,-0.3950293,0.023803817,0.024671799
187166707,187165828,-0.16123918,0.2523806,-0.23099008
187169188,187168329,0.25690094,0.17578773,-0.31055066
187171699,187170831,0.8626397,0.051377628,-0.34187874
187176693,187175833,1.481123,0.07237665,-0.2813728
187179188,187178334,1.1285415,0.13666262,-0.1393527
187184203,187183336,-0.0034027277,0.10147894,0.3897331
187186692,187185838,-0.32579333,0.054972216,0.57164913
187189195,187188339,-0.5122768,0.026714256,0.5898343
187194199,187193341,-0.6888025,-0.0038269102,0.14390713
187196711,187195850,-0.562229,-0.084550425,-0.1190326
187201724,187200860,-0.39951134,-0.23041871,-0.34583363
187204217,187203346,-0.6713635,-0.20080355,-0.33032686
187206715,187205847,-0.879949,-0.1959048,-0.32957813
187211707,187210851,-0.43486077,-0.28976685,-0.39956367
187214218,187213351,-0.62756675,-0.22942208,-0.34768695
187219228,187218353,-2.0540493,0.076899126,-0.13591672
187221737,187220880,-1.6163265,0.010503752,-0.23954867
187224227,187223355,-0.098675184,-0.16462427,-0.49899694
187229225,187228358,1.5176853,0.019983945,-0.8476517
187231734,187230865,0.65789926,0.33122087,-0.8718738
187236731,187235862,0.0010965904,0.58332944,-0.7636399
187239240,187238362,0.5610522,0.49876645,-0.5341584
187241738,187240875,0.84341395,0.41513255,-0.19493793
187246720,187245866,0.5850045,0.36490858,0.10173376
187249246,187248367,0.8853935,0.26549968,-0.046862848
187254241,187253370,1.3036777,-0.025225494,-0.21617773
187256732,187255871,1.065225,-0.094887264,-0.19318391
187259250,187258389,0.97054267,-0.16153497,-0.24990013
187264249,187263388,1.716651,-0.43413743,-0.6372081
187266748,187265883,1.760417,-0.53251606,-0.6704584
187271758,187270878,0.57451725,-0.485029,-0.36476138
187274247,187273390,0.06656472,-0.42732447,-0.2320392
187276752,187275884,-0.17505154,-0.41321483,-0.122002505
187281743,187280883,-0.5488991,-0.45600733,0.17318946
187284253,187283397,-0.45370042,-0.5283929,0.18540688
187289256,187288395,0.7790417,-0.5875062,-0.3465747
187291760,187290902,1.0679663,-0.4831256,-0.63689077
187294265,187293399,0.74948704,-0.32119495,-0.72769886
187299267,187298395,-0.58646435,-0.19284314,-0.4035451
187301762,187300895,-0.98451704,-0.26256698,-0.28781408
187306762,187305895,-1.333308,-0.19725855,-0.33202696
187309273,187308416,-1.4832752,0.01971787,-0.44588843
187311764,187310907,-1.5109468,0.23796113,-0.59679526
187316766,187315900,-0.85565734,0.3681656,-0.9485584
187319277,187318420,-0.38821918,0.3834573,-1.0789744
187321778,187320918,-0.061777547,0.44856158,-1.1271253
187326776,187325907,0.16307293,0.48888922,-0.9545993
187329266,187328408,0.28134266,0.45065027,-0.7852096
187334269,187333411,0.40437207,0.45695964,-0.34517628
187336775,187335909,0.18665631,0.51545763,-0.123901315
187341788,187340911,-0.071329646,0.44453916,0.17487901
187344269,187343415,0.16620146,0.2990335,0.20476878
187346773,187345914,0.52251506,0.18334168,0.16138855
187351778,187350924,0.87925434,0.10839105,0.0028329454
187354274,187353420,0.8724774,0.071931675,-0.020518264
187356773,187355919,0.80498016,-0.000113364156,0.048817057
187361773,187360914,0.13665073,-0.16913696,0.450013
187364283,187363429,-0.42661145,-0.237943,0.6289389
187369291,187368427,-0.7904794,-0.5004079,0.66029066
187371832,187370969,-0.5094367,-0.6186011,0.5986525
187374284,187373430,-0.22122584,-0.6564593,0.5290475
187379295,187378432,-0.20334175,-0.552599,0.2746958
187381801,187380944,-0.32015213,-0.5169119,0.13443866
187386808,187385941,-0.29034638,-0.48161706,0.039735325
187389291,187388437,-0.21236594,-0.4798548,0.10805347
187391817,187390956,-0.22142522,-0.4569316,0.18067372
187396821,187395957,-0.61596936,-0.3677918,0.2234482
187399312,187398442,-0.77146494,-0.31536877,0.14571951
187404336,187403479,-0.96948516,-0.094979875,-0.2029992
187406814,187405950,-1.0907431,0.09142075,-0.41795754
187409301,187408446,-1.1388587,0.2977013,-0.6127835
187414303,187413449,-0.7696986,0.5221542,-0.81941104
187416817,187415960,-0.54893434,0.53465253,-0.77000874
187421827,187420970,-0.50320625,0.55143213,-0.42482078
187424307,187423453,-0.5528395,0.5782029,-0.2626847
187426846,187425983,-0.57172054,0.60046947,-0.14040564
187431863,187430993,-0.5054939,0.57155263,0.022418244
187434338,187433476,-0.35748535,0.5649538,0.053627476
187439314,187438460,0.064255126,0.5121147,0.029016515
187441861,187441004,0.31183693,0.4555601,0.047944564
187444329,187443463,0.38980803,0.38834497,0.08908966
187449320,187448465,0.20148446,0.2304452,0.17499582
187459340,187458475,-0.17507143,-0.20176479,0.08662192
187461839,187460987,-0.2536998,-0.24955517,-0.031703994
187466840,187465988,-0.26297176,-0.39997047,-0.2264638
187469324,187468471,-0.22290073,-0.45009685,-0.2120776
187474328,187473475,-0.19980401,-0.47166944,-0.117733076
187476843,187475981,-0.12591761,-0.4618833,-0.080619454
187479325,187478476,-0.042071957,-0.45334706,-0.031425346
187484335,187483480,-0.08883832,-0.45563304,0.13375998
187486835,187485979,-0.29164883,-0.43749204,0.20020814
187491842,187490981,-0.83743423,-0.29648116,0.20258385
187494332,187493483,-0.9506306,-0.20032868,0.1808657
187496846,187495984,-0.89312375,-0.12310216,0.16130999
187501853,187500990,-0.52227914,-0.04816139,0.07339991
187504354,187503487,-0.394236,-0.010843214,-0.037766047
187509349,187508493,-0.3320961,0.016105916,-0.24351116
187511847,187510991,-0.36095572,0.04828873,-0.26577413
187514348,187513492,-0.3988882,0.12512296,-0.22735758
187519348,187518495,-0.4329032,0.36701456,-0.024158295
187521863,187520996,-0.3466763,0.4810041,0.09446174
187526864,187525998,0.048211385,0.6317296,0.18710977
187529355,187528499,0.24359402,0.63929546,0.2478552
187531875,187531000,0.37154266,0.62609816,0.3399517
187536865,187536003,0.66114247,0.504891,0.43741712
187539354,187538504,0.9231123,0.41705206,0.42754325
187544389,187543529,1.08193,0.31423014,0.44705477
187546857,187546007,0.88645905,0.3146158,0.461574
187549361,187548509,0.7014718,0.29838914,0.46609163
187554369,187553511,0.71636236,0.1730321,0.38686645
187556867,187556014,0.7275547,0.096818194,0.38790038
187561868,187561015,0.6440445,-0.07679919,0.45267925
187564396,187563529,0.80677646,-0.18043989,0.4942892
187566875,187566017,0.9914093,-0.2990699,0.522247
187571872,187571019,0.76928186,-0.43502134,0.5111124
187574392,187573528,0.50473934,-0.45376346,0.4488893
187579379,187578523,0.34945506,-0.5853103,0.34263125
187581880,187581024,0.40118408,-0.6338018,0.35117993
187584392,187583525,0.34858802,-0.63390887,0.34247538
187589389,187588531,0.109795816,-0.5143377,0.25707173
187591888,187591029,0.023101138,-0.44260874,0.17178267
187596890,187596031,-0.09789048,-0.37178612,0.105715044
187599394,187598532,-0.19921184,-0.32762632,0.13199511
187601901,187601034,-0.30544746,-0.24476767,0.124929845
187606898,187606036,-0.20604001,-0.059893,0.06485019
187609395,187608537,-0.18202372,0.0339269,0.06611811
187614398,187613540,-0.31622303,0.25512168,0.07634997
187616899,187616041,-0.3268435,0.38211247,0.019897612
187619403,187618542,-0.3057111,0.4881519,-0.06870621
187624402,187623544,-0.20756951,0.58258265,-0.1585164
187626927,187626066,-0.25709873,0.61299026,-0.12152827
187631903,187631048,-0.24804242,0.66890806,-0.06760597
187634407,187633549,-0.12400931,0.67507744,-0.08702147
187636905,187636050,-0.06782472,0.6408336,-0.114522904
187641908,187641053,-0.067179136,0.3767422,-0.097417794
187644412,187643554,0.014793508,0.23094244,-0.06475946
187649430,187648556,0.16993855,0.085753344,0.09804511
187651918,187651058,0.1807238,0.07649043,0.20007646
187654437,187653559,0.17269535,0.04437886,0.27005926
187659441,187658572,0.16110389,-0.113978654,0.35334507
187661930,187661066,0.12867269,-0.20739791,0.4237751
187666920,187666065,0.057831615,-0.2992294,0.47378552
187669427,187668566,0.08588634,-0.3216113,0.46312648
187671922,187671067,0.0780421,-0.31953743,0.4391341
187676928,187676069,-0.13202329,-0.28473935,0.33364868
187679432,187678571,-0.23197648,-0.27169582,0.2593847
187684433,187683573,-0.14381564,-0.29220167,0.10322863
187686929,187686074,-0.009615205,-0.31730354,0.080812104
187689433,187688575,0.100482896,-0.3351773,0.08787735
187694454,187693582,0.05981515,-0.2123505,0.18414992
187696954,187696083,0.0042578047,-0.120017394,0.17539355
187701950,187701081,-0.06628812,0.0704835,0.121981405
187704449,187703583,-0.05673891,0.09052779,0.12513795
187706943,187706084,0.08313006,0.067006856,0.096452475
187711969,187711111,0.40317276,0.031073125,-0.10312399
187714449,187713587,0.36856097,0.07782386,-0.18884818
187719450,187718590,-0.09885636,0.2111967,-0.28202677
187721952,187721091,-0.34435505,0.26912817,-0.27154976
187724453,187723592,-0.5173204,0.28356704,-0.2601543
187729464,187728599,-0.5267589,0.22816029,-0.2580008
187731954,187731096,-0.4289984,0.17928872,-0.28444043
187736947,187736098,-0.23419957,0.04120455,-0.37541837
187739472,187738599,-0.26304728,0.018486694,-0.42257342
187741952,187741101,-0.38394785,0.043715287,-0.46158907
187746952,187746103,-0.5443093,0.007831585,-0.5296529
187749462,187748604,-0.48991355,-0.04587051,-0.47919983
187754464,187753606,-0.34206906,-0.12496622,-0.23662648
187756963,187756107,-0.32907784,-0.11980268,-0.14107719
187759476,187758609,-0.324477,-0.102188475,-0.09237863
187764467,187763611,-0.4112914,-0.071806855,0.02120293
187766962,187766112,-0.58134645,-0.053370737,0.11978849
187771969,187771115,-0.5163762,-0.015691565,0.15259917
187774467,187773616,-0.18651097,-0.035034627,0.10600475
187776967,187776117,0.114921354,-0.02435943,0.06924189
187781969,187781119,0.11520096,0.023355002,0.08894319
187784478,187783621,-0.017030252,0.013456154,0.13219932
187789479,187788627,0.085971884,-0.06025693,0.18125091
187791982,187791124,0.26010182,-0.052395977,0.2275735
187794479,187793626,0.32152855,-0.006142547,0.26676214
187799481,187798628,0.07868406,0.07105598,0.28373858
187801979,187801129,0.051868718,0.09028453,0.286236
187806984,187806131,0.18939896,0.08102874,0.37181824
187809485,187808636,0.16223241,0.0881279,0.44654903
187811988,187811134,0.19880156,0.09926443,0.498537
187816986,187816136,0.67171013,0.034926478,0.4544984
187819491,187818637,0.81729376,-0.04045328,0.43331486
187824495,187823640,0.6572958,-0.067645244,0.5060549
187826991,187826142,0.51943046,-0.030414188,0.5393779
187829503,187828642,0.4212729,0.028333712,0.5178394
187834494,187833645,0.40844068,0.12672989,0.44618472
187836995,187836146,0.4129844,0.14113937,0.48717365
187842009,187841148,0.61845064,0.05742693,0.633801
187844508,187843649,0.65805286,0.04396977,0.67550045
187847000,187846151,0.5752428,0.07367028,0.6832854
187852006,187851153,0.47291163,0.13474728,0.6215377
187854508,187853654,0.5633707,0.08051258,0.59174895
187859505,187858656,0.4497797,-0.032689683,0.64960396
187862007,187861157,0.12256448,-0.011873131,0.64603513
187864514,187863659,-0.24511859,0.051144302,0.58474094
187869511,187868661,-0.76292413,0.16478702,0.42986295
187872012,187871162,-0.8205553,0.17773542,0.4006309
187877018,187876163,-0.67297405,0.04340539,0.33329543
187879515,187878666,-0.52135736,-0.08244633,0.19882111
187882024,187881174,-0.33029804,-0.16567285,-0.0036390435
187887040,187886176,0.034251075,-0.18346809,-0.29871172
187889524,187888671,-0.00029700194,-0.1718726,-0.276346
187894530,187893677,-0.4685757,-0.10122266,-0.093934946
187897035,187896174,-0.8094509,-0.041069936,-0.09298514
187899529,187898676,-1.091281,0.021581033,-0.1844582
187904527,187903678,-1.0728463,0.14904836,-0.50271493
187907028,187906179,-0.73206395,0.13729113,-0.6101264
187912031,187911181,0.36146912,-0.007913065,-0.5735686
187914544,187913683,0.6920164,-0.061275024,-0.4963822
187917044,187916184,0.6637414,-0.06699487,-0.4908889
187922039,187921186,-0.112653404,0.14339584,-0.63187766
187924537,187923687,-0.3850954,0.27492186,-0.64778936
187929549,187928690,-0.45037368,0.35435662,-0.5569104
187932045,187931191,-0.3954715,0.26837948,-0.47329322
187934565,187933712,-0.1501158,0.121948086,-0.45061806
187939548,187938695,0.77844155,-0.06675703,-0.5701234
187942052,187941196,1.0353448,-0.0686345,-0.6667472
187947047,187946198,0.8890442,0.0067038666,-0.88945043
187949549,187948699,0.80822474,-0.041222878,-0.9561628
187952054,187951201,0.80774206,-0.16322541,-0.9783066
187957056,187956206,0.7331366,-0.39681488,-0.9011477
187959557,187958704,0.6413505,-0.44615003,-0.8676706
187964556,187963706,0.75135034,-0.50436354,-0.86544913
187967064,187966207,0.76286507,-0.5013507,-0.8429182
187969558,187968709,0.724185,-0.44839692,-0.78386337
187974561,187973711,0.7237125,-0.3702537,-0.55108726
187977066,187976212,0.74701697,-0.38915822,-0.4264167
187982068,187981218,0.4485515,-0.3618455,-0.13656054
187984574,187983721,0.14894496,-0.2796294,0.03990141
187987061,187986212,-0.0987744,-0.1897833,0.20368701
187992069,187991220,-0.16477752,-0.120745085,0.33574206
187994578,187993723,-0.08184072,-0.10607034,0.32246524
187999577,187998723,0.34180546,0.063610874,0.08157337
188002078,188001224,0.5602049,0.18225439,-0.15456583
188004593,188003726,0.66199297,0.30575794,-0.31823018
188009577,188008728,0.18314189,0.51924014,-0.09887538
188012078,188011229,-0.18171094,0.49195716,0.19784428
188017084,188016235,-0.30702975,0.31070796,0.74416304
188019620,188018768,-0.3588601,0.23401351,0.8595357
188022088,188021234,-0.5172415,0.22963749,0.8689337
188027086,188026236,-0.55331135,0.30202746,0.58309466
188029586,188028737,-0.29919016,0.28066185,0.39970702
188034601,188033740,0.18085867,0.06392959,0.08799291
188037094,188036241,0.23641308,-0.06927919,-0.04368803
188039624,188038772,0.120677836,-0.17900032,-0.12829557
188044599,188043746,-0.6568465,-0.24759658,-0.044688974
188047101,188046246,-1.1499228,-0.186194,0.052202627
188052120,188051248,-1.600563,-0.032958996,0.033265613
188054605,188053752,-1.4482832,-0.034964904,-0.08531152
188057103,188056250,-1.0086417,-0.11813749,-0.26452038
188062102,188061253,0.2511163,-0.2426988,-0.7918638
188064601,188063752,0.63379145,-0.22740817,-1.0009995
188069624,188068753,0.37695393,-0.09293588,-1.1051635
188072114,188071265,0.011616131,-0.01684357,-1.0016128
188074617,188073768,-0.2881517,0.03058469,-0.8481921
188079634,188078773,-0.44586372,-0.0049002157,-0.5305983
188082116,188081263,-0.39665142,-0.042538203,-0.43625113
188087125,188086265,-0.08947754,-0.031132476,-0.20489386
188089644,188088788,0.09116194,-0.0108959945,-0.14485802
188092124,188091275,0.25267726,0.022701057,-0.1172845
188097123,188096269,0.44947368,0.1501018,-0.04927492
188099646,188098788,0.5420352,0.17204218,0.086965375
188104658,188103788,0.49067074,0.09377407,0.548965
188107127,188106278,0.33634013,0.057623237,0.8305967
188109650,188108794,0.14011131,0.057918746,1.0832064
188114654,188113798,-0.21122664,0.10998876,1.333408
188117128,188116279,-0.19136995,0.08194577,1.354728
188122144,188121283,0.21240954,0.0841395,1.3666079
188124639,188123790,0.37252328,0.08914937,1.3633476
188127133,188126284,0.48110873,0.08436827,1.3628842
188132141,188131286,0.4922755,0.06204422,1.4384512
188134681,188133825,0.45606813,0.07496533,1.5285311
188139661,188138797,0.1809422,0.13448396,1.6034706
188142140,188141291,0.01620479,0.1644417,1.5157435
188144658,188143803,-0.045931254,0.20117013,1.346626
188149655,188148802,0.12060008,0.182634,0.95552
188152155,188151296,0.30467263,0.13673651,0.81402624
188157175,188156312,0.6605349,0.16575032,0.45747626
188159655,188158806,0.6184407,0.23626645,0.28713363
188162150,188161301,0.46165913,0.30245608,0.20291668
188167152,188166303,0.01998527,0.316385,0.19238724
188169664,188168804,-0.15188406,0.24412298,0.19559285
188174684,188173806,-0.2625057,0.015010879,0.06431918
188177165,188176308,-0.08051298,-0.089160904,-0.11968813
188179668,188178809,0.15246539,-0.19277146,-0.34323248
188184671,188183811,0.21135537,-0.26290154,-0.7718369
188187162,188186312,0.059946544,-0.23105365,-0.92840797
188192175,188191315,-0.124525785,-0.26506072,-1.0123003
188194672,188193816,-0.203125,-0.33086094,-0.9322093
188197167,188196317,-0.33057955,-0.39466783,-0.83740604
188202171,188201319,-0.6970018,-0.40293422,-0.6578348
188204690,188203824,-0.869271,-0.26800793,-0.5885725
188209718,188208826,-1.0393748,0.016915064,-0.5027186
188212178,188211324,-0.8778107,0.08111287,-0.41525862
188214682,188213825,-0.49845788,0.04615111,-0.30143496
188219685,188218828,0.30153885,-0.1282704,-0.17530115
188222178,188221329,0.44358665,-0.10309512,-0.15118474
188227189,188226331,0.101935424,0.12394682,-0.12445656
188229676,188228827,-0.15160911,0.22666083,-0.06226497
188232189,188231334,-0.3117903,0.29257405,0.03888879
188237207,188236336,0.035298955,0.28452635,0.25953496
188239724,188238862,0.49352983,0.2460422,0.2980577
188244690,188243841,1.1290175,0.1766799,0.11048849
188247194,188246341,1.1180825,0.27317446,0.025303392
188249697,188248842,0.9065726,0.40608177,0.007520296
188254697,188253844,0.52097875,0.45421615,-0.013915496
188257204,188256345,0.41815802,0.31750396,-0.057504684
188262217,188261353,0.32020566,-0.06903469,-0.12543704
188264708,188263849,0.29040504,-0.24517499,-0.12585196
188267211,188266350,0.23510738,-0.34988055,-0.11693559
188272211,188271353,-0.18805918,-0.33504906,-0.2765833
188274721,188273854,-0.5865447,-0.2730497,-0.4175572
188279715,188278856,-1.233721,-0.24539371,-0.62797636
188282221,188281362,-1.2484496,-0.35137516,-0.67651963
188284721,188283859,-1.1455752,-0.4961164,-0.6559213
188289716,188288861,-1.2325642,-0.55801153,-0.41881725
188292233,188291363,-1.4447793,-0.46387947,-0.29957214
188297240,188296365,-1.6182587,-0.3488765,-0.22658141
188299725,188298866,-1.603456,-0.29425094,-0.26324713
188302255,188301370,-1.6125154,-0.20330316,-0.28450355
188307252,188306397,-1.4033537,0.002199586,-0.23478475
188309729,188308870,-1.0959655,0.09694881,-0.1890642
188314728,188313873,-0.62875587,0.33587834,0.08638432
188317249,188316385,-0.64183575,0.47545812,0.27686462
188319734,188318875,-0.68901455,0.6053127,0.43750042
188324732,188323878,-0.5268672,0.7556788,0.5813879
188327268,188326416,-0.37098944,0.7669298,0.6133408
188332243,188331390,-0.19399717,0.76062256,0.71643645
188334738,188333883,-0.110445544,0.72598535,0.77007025
188337242,188336392,-0.039045215,0.6410951,0.79262084
188342265,188341398,0.15089002,0.498653,0.6442901
188344744,188343887,0.39341915,0.4092351,0.50954723
188349751,188348890,0.8628035,0.20042679,0.2063479
188352242,188351393,0.98751616,0.060653433,0.09436801
188354746,188353892,1.0728546,-0.09210575,-0.014587526
188359758,188358894,1.226039,-0.35922393,-0.3257294
188362245,188361396,1.3618413,-0.4694995,-0.47581148
188367257,188366407,1.305361,-0.5689189,-0.6488278
188369771,188368909,1.0667942,-0.58667654,-0.69536996
188372273,188371401,0.83830965,-0.6327837,-0.7143876
188377253,188376403,0.7299205,-0.7707686,-0.74642235
188379766,188378911,0.76170504,-0.76306206,-0.7755649
188382275,188381405,0.73725843,-0.73048055,-0.80803925
188387257,188386408,0.58286107,-0.71511406,-0.7352381
188389763,188388909,0.6008353,-0.71195096,-0.6973287
188394766,188393911,0.5976229,-0.61447966,-0.7303442
188397262,188396412,0.52673864,-0.5160594,-0.698259
188399769,188398914,0.44622818,-0.3948077,-0.6558904
188404771,188403916,0.33997893,-0.13886559,-0.52590275
188407276,188406421,0.3230078,0.0065139863,-0.4082107
188412290,188411420,0.27528057,0.2770304,-0.07527258
188414791,188413930,0.25839785,0.35324097,0.09753446
188417271,188416422,0.24711396,0.38191774,0.2854244
188422296,188421443,0.21267474,0.40369993,0.63361543
188424787,188423925,0.19814216,0.43447027,0.7415224
188429777,188428928,0.16875486,0.5362606,0.7683167
188432307,188431448,0.057028998,0.5561149,0.73429155
188434783,188433930,0.0018111562,0.57590884,0.66611385
188439791,188438932,-0.066094436,0.54717857,0.45012426
188442293,188441434,-0.23291622,0.44763604,0.39820516
188447286,188446436,-0.4694475,0.26718098,0.4245246
188449787,188448937,-0.4085664,0.16499957,0.45476684
188452300,188451451,-0.2807309,0.0760061,0.46113724
188457300,188456441,-0.31215745,0.050819047,0.3459972
188459797,188458942,-0.41291666,0.014388966,0.24357857
188464823,188463962,-0.3055907,-0.22547774,0.1311133
188467296,188466446,-0.14908488,-0.32490394,0.10512747
188469797,188468947,-0.024187595,-0.40353292,0.08311369
188474799,188473949,0.08241493,-0.42393932,-0.12590025
188477304,188476454,0.02324653,-0.38368917,-0.27125412
188482304,188481455,-0.21315572,-0.30344224,-0.35846642
188484803,188483954,-0.22914803,-0.3321334,-0.32762402
188487305,188486455,-0.14048544,-0.37372684,-0.27081642
188492313,188491458,-0.1912383,-0.21880396,-0.20370248
188494815,188493959,-0.42533502,-0.013986013,-0.31751347
188499818,188498961,-0.75223505,0.16297595,-0.6060922
188502319,188501463,-0.48145083,0.00057107676,-0.58503723
188504815,188503964,-0.04872983,-0.1774642,-0.43793124
188509815,188508966,0.25429565,-0.09367203,-0.11895024
188512317,188511468,-0.025995584,0.09455361,-0.12158858
188517324,188516474,-0.42919672,0.3093942,-0.25292903
188519820,188518970,-0.3531493,0.32240853,-0.15608285
188522323,188521474,-0.23493563,0.30278713,0.020005664
188527331,188526474,-0.0763553,0.16487572,0.29875028
188529853,188528983,-0.025472613,0.09010109,0.29119158
188534831,188533978,-0.014440855,0.1556735,0.21378706
188537332,188536479,-0.039783772,0.2317087,0.23644531
188539830,188538980,-0.0828832,0.27778643,0.30714744
188544841,188543983,-0.1642918,0.22789273,0.3733891
188547340,188546484,-0.11099597,0.17561896,0.40103993
188552335,188551486,0.093819186,0.058723412,0.42703912
188554839,188553987,0.16920076,0.019197354,0.40883225
188557338,188556488,0.1783882,0.002844854,0.36074108
188562340,188561491,0.082373865,0.009732652,0.20735249
188564845,188563992,0.20966457,0.0047073714,0.13339937
188569845,188568992,0.61889464,-0.040338017,0.12753402
188572363,188571500,0.7439227,-0.10126167,0.18437906
188574846,188573997,0.75831705,-0.15508497,0.21350105
188579849,188578999,0.57249427,-0.16306113,0.12069615
188582357,188581507,0.53890574,-0.12980805,0.017720947
188587352,188586503,0.53208953,-0.059620038,-0.1411799
188589853,188589004,0.41506764,-0.056575954,-0.1721259
188592355,188591505,0.23224881,-0.050155513,-0.18878232
188597360,188596508,-0.02763017,-0.14088118,-0.21565247
188599866,188599012,-0.10003063,-0.21359783,-0.15810363
188604864,188604011,-0.55973184,-0.30965063,0.062468816
188607366,188606516,-0.8733782,-0.28626248,0.07487447
188609872,188609013,-1.0497663,-0.21013674,-0.015362675
188614865,188614016,-1.0289687,-0.109918095,-0.40144122
188617392,188616523,-0.88019204,-0.19306675,-0.5718967
188622381,188621525,-0.5488492,-0.32808068,-0.6260227
188624874,188624020,-0.57523286,-0.22481613,-0.6099808
188627390,188626522,-0.7939146,-0.013474434,-0.62761456
188632395,188631526,-1.1425114,0.20090614,-0.6792107
188634913,188634057,-0.9738898,0.12150691,-0.6114919
188639877,188639028,-0.68472296,0.048970036,-0.29263678
188642399,188641537,-0.9637845,0.20203072,-0.2574362
188644879,188644030,-1.3540477,0.38261354,-0.35812092
188649886,188649036,-1.6298809,0.5240823,-0.64190865
188652413,188651547,-1.6534979,0.53122467,-0.60372055
188657403,188656536,-1.670712,0.46546414,-0.29271507
188659887,188659037,-1.3964534,0.33698234,-0.21447465
188662422,188661546,-0.9005536,0.20775855,-0.26015225
188667421,188666541,-0.3185253,0.18256563,-0.38769206
188669897,188669042,-0.31518823,0.25868717,-0.40173587
188674902,188674045,-0.07598565,0.11428628,-0.38371956
188677414,188676546,0.09239422,0.015407745,-0.30936033
188679898,188679047,0.091415145,0.014176221,-0.19808497
188684898,188684049,0.15757672,0.047666185,0.056242615
188687441,188686576,0.563469,-0.05363955,0.23239589
188692415,188691555,1.206564,-0.3379074,0.61408806
188694911,188694054,1.2305183,-0.4277695,0.66962653
188697421,188696555,1.2298732,-0.4860114,0.5687033
188702437,188701562,1.2988635,-0.56796324,0.18214552
188704935,188704059,1.2345253,-0.55753094,0.07064678
188709910,188709061,1.023163,-0.43375564,-0.14565624
188712431,188711566,0.91345453,-0.33951092,-0.28320777
188714918,188714063,0.819481,-0.28119212,-0.37579054
188719923,188719073,0.89504707,-0.32270575,-0.19267437
188722437,188721575,1.0399317,-0.3124882,-0.0024741318
188727436,188726571,1.1502917,-0.24771294,0.21813981
188729924,188729070,1.1928166,-0.23603266,0.19368753
188732450,188731580,1.2377046,-0.21836647,0.14447248
188737458,188736581,0.8389303,-0.019359825,0.07087679
188739929,188739076,0.33113933,0.07926564,0.03594761
188744927,188744078,-0.42005375,0.041937307,-0.067259744
188747433,188746573,-0.64792395,-0.061534982,-0.14806218
188749930,188749080,-1.0283247,-0.098200135,-0.23537795
188754932,188754082,-1.6951848,0.10270351,-0.41119674
188757454,188756583,-1.5473363,0.22720551,-0.5186631
188762455,188761588,-1.312156,0.33258578,-0.6731899
188764940,188764087,-1.5512313,0.26911312,-0.47444814
188767459,188766594,-1.6670958,0.14013799,-0.13543747
188772492,188771639,-0.8844869,-0.06157489,0.22946766
188774944,188774092,-0.51939315,0.06449467,0.14582066
188779944,188779094,-0.47761127,0.46901327,0.020875435
188782482,188781623,-0.29646772,0.47608885,0.1094102
188784946,188784097,0.16009706,0.3793969,0.30280256
188789949,188789099,0.7373812,0.31746528,0.6050424
188792494,188791642,0.7118306,0.3223035,0.5728131
188797485,188796633,0.77173626,-0.015989669,0.5805347
188799963,188799104,0.6497634,-0.17394881,0.6190054
188802508,188801648,0.29724395,-0.121675074,0.5234936
188807496,188806637,0.015846435,0.25966495,-0.2578236
188809962,188809109,0.61845976,0.2831396,-0.626589
188814960,188814111,1.7567453,-0.025106154,-0.5225452
188817495,188816643,1.5374056,-0.15609343,-0.14606766
188819963,188819113,1.0043932,-0.30717516,0.21576594
188824971,188824118,0.55439776,-0.74791217,0.49537987
188827478,188826624,0.49431282,-0.74306613,0.43364376
188832490,188831627,-0.27221057,-0.15631333,0.18930218
188834973,188834124,-0.6089035,-0.02249007,0.023292271
188837485,188836629,-0.72520393,-0.13284695,-0.08065163
188842503,188841638,0.06545594,-0.58391035,-0.07762407
188844977,188844126,1.0943936,-0.67520756,-0.11405185
188849977,188849128,2.9832547,-0.47921407,-0.013947428
188852499,188851630,2.7044268,-0.3020098,0.36803713
188854979,188854130,1.6308353,-0.11898905,0.9003712
188859982,188859132,-0.40405512,0.31504554,1.7082629
188862496,188861634,-0.96410716,0.5652014,1.8683021
188867507,188866640,-1.5754862,0.9114806,1.960465
188869994,188869141,-1.4056151,0.99825686,1.8968307
188872511,188871639,-0.9850288,1.052061,1.7206057
188877508,188876641,-0.08343713,0.9910497,1.0912995
188879991,188879142,0.38135374,0.84842855,0.6941901
188885000,188884145,1.3478289,0.3738045,-0.11733104
188887508,188886646,1.5915716,0.22479331,-0.47000596
188890002,188889147,1.6203084,0.17315282,-0.7260985
188895002,188894149,1.5778683,0.045728013,-1.0841683
188897532,188896654,1.5192031,-0.028159527,-1.1990173
188902526,188901653,1.1306218,-0.13344343,-1.1276335
188905007,188904158,1.0806279,-0.24424687,-0.8155008
188907527,188906655,1.349266,-0.48137924,-0.42342997
188912513,188911658,2.0539434,-1.008409,0.14324975
188915034,188914182,1.8151306,-1.0330328,0.2468547
188920010,188919161,0.3562456,-0.65932745,0.2555645
188922524,188921662,-0.3011852,-0.4628521,0.22360764
188925017,188924163,-0.80723584,-0.34191054,0.18572986
188930024,188929166,-1.4274044,-0.27370158,0.23880632
188932534,188931674,-1.5308177,-0.27813825,0.39277157
188937540,188936669,-1.4830031,-0.15427968,0.59977883
188940024,188939170,-1.6066301,0.03885161,0.53226924
188942540,188941681,-1.8189667,0.30266187,0.42484283
188947529,188946674,-2.0427263,0.7602739,0.3736345
188950025,188949176,-1.7865481,0.82068473,0.52236676
188955031,188954178,-0.7798194,0.6578366,0.83349377
188957533,188956679,-0.40148678,0.6208187,0.8595565
188960030,188959181,-0.28517568,0.6405021,0.73816514
188965043,188964182,-0.47864163,0.7112119,0.21848139
188967542,188966684,-0.4769975,0.7201249,-0.051481057
188972541,188971686,-0.31843084,0.5784776,-0.59406257
188975054,188974187,-0.4082647,0.44570994,-0.8077907
188977543,188976688,-0.55823535,0.3007577,-0.9438596
188982548,188981691,-0.41571733,-0.019449485,-0.8751133
188985041,188984192,-0.20083801,-0.13747805,-0.74453443
188990049,188989194,-0.22303703,-0.10966283,-0.41376713
188992551,188991696,-0.4105853,-0.08019051,-0.24099122
188995072,188994216,-0.4664018,-0.122554496,-0.063336425
189000057,188999203,-0.18500157,-0.28560615,0.31462982
189002572,189001701,-0.067347184,-0.25728896,0.48455706
189007557,189006703,0.1623971,-0.25975657,0.6076761
189010053,189009204,0.31376338,-0.3183454,0.601346
189012559,189011705,0.36074805,-0.38176063,0.5732682
189017574,189016713,0.23263127,-0.46415618,0.42304304
189020062,189019209,0.22597875,-0.4162313,0.22242115
189025064,189024215,0.46463364,-0.114531964,-0.36055344
189027581,189026712,0.5624599,0.028262993,-0.5812106
189030067,189029213,0.542657,0.033398982,-0.6229727
189035066,189034216,0.48200673,-0.3622384,0.04757092
189037572,189036717,0.5986466,-0.46854645,0.43381956
189042582,189041728,0.12208115,0.12326208,0.15728924
189045074,189044220,-0.6643377,0.6095148,-0.44115803
189047583,189046725,-1.2651882,0.8275869,-0.9817067
189052581,189051726,-0.13726346,0.22940315,-1.099556
189055080,189054225,0.96779364,-0.20658138,-0.75570923
189060081,189059228,1.8360896,-0.48141468,-0.29252523
189062591,189061736,1.6168077,-0.32388514,-0.36768728
189065083,189064234,1.1051776,-0.016009085,-0.5080536
189070086,189069232,-0.9878149,0.71022785,-0.391574
189072588,189071734,-2.0819588,0.7721474,-0.14310028
189077591,189076736,-1.9768311,-0.08429808,0.4207368
189080113,189079261,-0.9495315,-0.5743728,0.61151725
189082610,189081739,0.09733383,-0.772947,0.57161874
189087599,189086741,0.882669,-0.27907926,-0.44651905
189090091,189089242,0.66529566,0.10873799,-1.1161479
189095111,189094244,-0.0660464,0.38070038,-1.4901594
189097608,189096745,-0.32067615,0.21187072,-1.036414
189100100,189099247,-0.41750416,-0.08735197,-0.34875962
189105099,189104250,-0.2727681,-0.48855165,0.7751681
189107605,189106750,-0.38689074,-0.32610568,0.9786737
189112623,189111753,-1.0469974,0.32782808,0.60529274
189115106,189114257,-1.0218209,0.4289845,0.2410133
189117611,189116755,-0.4757871,0.26991466,-0.052262146
189122607,189121757,1.534767,-0.39191782,-0.35238168
189125114,189124259,2.2367816,-0.553662,-0.5265474
189130131,189129261,2.0327964,-0.24936104,-1.1969862
189132617,189131761,1.3799189,0.0034258263,-1.4261899
189135114,189134264,0.576894,0.18633215,-1.3845568
189140121,189139266,-0.66787,0.16014744,-0.5556106
189142617,189141767,-0.736275,0.026517987,-0.07471907
189147629,189146769,0.1815694,-0.09397285,0.58773357
189150123,189149270,0.6947658,-0.06984314,0.69688994
189152621,189151772,0.94016886,0.013914054,0.6646726
189157630,189156774,0.46048442,0.15569958,0.52166784
189160134,189159275,0.03383106,0.051623575,0.48234484
189165179,189164315,-0.35151395,-0.513069,0.2346431
189167628,189166779,-0.3262511,-0.6618221,-0.004835452
189170129,189169280,-0.3595391,-0.60124075,-0.3015653
189175132,189174282,-0.77416724,-0.15397674,-1.0172887
189177633,189176784,-0.970711,-0.041987572,-1.2798656
189182646,189181786,-0.93420833,-0.13951534,-1.1724823
189185137,189184287,-0.63257587,-0.26615718,-0.87404484
189187645,189186788,-0.16410857,-0.33786243,-0.57499945
189192649,189191791,0.4190983,-0.12457026,-0.30741143
189195145,189194292,0.18492973,0.12219294,-0.24205832
189200162,189199295,-0.69789505,0.4051389,0.06363112
189202652,189201799,-0.768667,0.30703202,0.31878084
189205146,189204297,-0.52892715,0.124658495,0.48694232
189210149,189209299,0.22826199,-0.0548655,0.3022256
189212654,189211806,0.36077675,0.055727873,0.01295687
189217683,189216812,0.006498861,0.31641516,-0.30410877
189220157,189219308,-0.2246236,0.3313484,-0.21673328
189222662,189221805,-0.3909411,0.3300769,-0.084631234
189227669,189226807,-0.45415598,0.26075584,-0.050928734
189230159,189229309,-0.25042638,0.13083631,-0.14940737
189235172,189234311,0.6897543,-0.20297845,-0.10465314
189237672,189236812,1.0457699,-0.31469348,0.040989235
189240167,189239314,1.0756134,-0.37044588,0.13795745
189245171,189244316,0.61990845,-0.3761103,-0.13396749
189247666,189246817,0.50590247,-0.32222968,-0.49532288
189252683,189251820,0.34525844,-0.056966104,-1.0375923
189255175,189254321,0.18742643,0.011125634,-1.0705119
189257681,189256825,0.05197833,-0.07324077,-0.96612513
189262684,189261824,0.27657858,-0.5486402,-0.39059442
189265182,189264326,0.4282974,-0.616403,-0.086713366
189270189,189269329,-0.22232985,-0.14112328,0.095310755
189272679,189271829,-0.8967675,0.17331429,-0.06126056
189275180,189274330,-1.2160805,0.33918896,-0.21919619
189280186,189279333,-0.21373153,0.13022874,-0.08584266
189282694,189281834,0.43461564,-0.04592083,0.20650922
189287693,189286836,0.80507034,-0.15469363,0.745953
189290191,189289337,0.8536068,-0.08460463,0.7829959
189292690,189291839,0.8228527,0.098105974,0.7031836
189297710,189296841,-0.11045369,0.6295637,0.6304292
189300209,189299342,-0.74300224,0.7278221,0.7821223
189305217,189304345,-0.78111607,0.410187,1.2989424
189307706,189306845,-0.30300033,0.20866306,1.5440841
189310208,189309347,0.18928467,0.109235205,1.6710173
189315211,189314349,0.58382076,0.1153575,1.5054885
189317700,189316850,0.40874937,0.15617038,1.2984107
189322714,189321853,-0.34582835,0.3500554,1.0223997
189325212,189324354,-0.6512492,0.4239373,0.9992738
189327714,189326857,-0.774428,0.39746734,0.9931961
189332711,189331858,-0.20781665,0.09360811,0.9346042
189335216,189334359,0.20833659,-0.07922251,0.916308
189340223,189339361,0.31629556,-0.17501503,0.9122621
189342722,189341863,-0.016842036,-0.11670476,0.86865413
189345223,189344364,-0.35637212,-0.047972377,0.79679936
189350227,189349366,-0.5196908,0.020807285,0.60714513
189352727,189351867,-0.29220235,0.006698471,0.59678924
189357723,189356869,0.68471646,-0.18532734,0.5667832
189360232,189359371,1.1362369,-0.2439255,0.47793612
189362733,189361875,1.1976774,-0.19834161,0.34467712
189367724,189366874,0.17063314,0.07547446,-0.03568923
189370233,189369384,-0.478421,0.1867549,-0.33886397
189375236,189374378,-0.74986047,0.2432491,-0.9271754
189377729,189376879,-0.32436073,0.20996337,-1.06469
189380238,189379389,0.33347622,0.14092422,-1.0260099
189385260,189384404,1.3682356,0.15314066,-0.61455446
189387764,189386911,1.3395286,0.25867537,-0.34183064
189392739,189391886,0.5068456,0.476363,0.36501777
189395249,189394396,-0.026341068,0.44123644,0.79470867
189397741,189396888,-0.51858777,0.29754108,1.1299528
189402744,189401891,-0.66067773,0.1940186,1.0265268
189405253,189404404,-0.19473128,0.29391703,0.40357462
189410256,189409403,0.38924026,0.065093,-0.9826746
189412749,189411896,0.27131808,-0.48646492,-1.1106894
189415258,189414394,0.26217395,-1.1670604,-0.88223255
189420255,189419400,0.09821554,-1.3246503,-1.1651576
189422754,189421900,-0.88871026,-0.5474781,-1.9435881
189427766,189426903,-2.48468,0.49794233,-3.089346
189430276,189429420,-1.6046677,0.107080385,-2.7097135
189432755,189431905,-0.14134529,-0.6502053,-1.6005219
189437759,189436907,0.53966445,-1.5292783,0.8312842
189440305,189439453,0.094490014,-1.1631012,0.8804513
189445271,189444422,-0.886743,0.5158019,-0.98538697
189447762,189446912,-2.4259453,1.2820297,-1.5365794
189450285,189449433,-4.033948,1.5670972,-1.3111333
189455276,189454416,-3.6714747,0.48860043,-0.27095446
189457770,189456917,-2.292184,-0.14118338,-0.38940132
189462769,189461919,-0.7770887,0.0012601939,-1.5430299
189465281,189464421,0.15988478,0.28378025,-2.013795
189467777,189466922,1.6160835,0.37423384,-2.0457168
189472781,189471932,1.8338774,0.61245394,-0.4488059
189475302,189474426,0.049052175,0.8656601,0.7628651
189477777,189476927,-1.1194434,0.8722611,1.701462
189482779,189481929,1.3859947,0.014809358,2.4373507
189485290,189484441,2.711082,-0.269411,2.657886
189490294,189489440,1.748314,0.010280854,2.7857404
189492792,189491943,1.651939,0.024809584,2.3496792
189497790,189496936,3.979181,-0.40506637,1.2378546
189500300,189499445,4.428474,-0.44550407,1.0347637
189502814,189501944,4.029041,-0.30610844,1.0269828
189507790,189506941,2.6280997,-0.11628483,1.1398581
189510303,189509450,1.7562445,-0.12648119,1.2674112
189512796,189511943,0.7623657,-0.099681884,1.4659147
189517799,189516945,-0.14565752,0.041768324,1.7567133
189520314,189519458,0.38053197,0.030174606,1.7603769
189525334,189524478,1.2183819,0.022547493,1.5883169
189527800,189526950,0.94726014,0.21376069,1.4280214
189530312,189529452,0.4659923,0.3945754,1.208027
189535316,189534454,-0.9025762,0.35538855,0.7470212
189537805,189536955,-1.9768326,0.2310833,0.62575495
189542810,189541958,-4.0690556,0.03480841,0.37799454
189545318,189544459,-4.402975,-0.12891099,0.040851217
189547809,189546960,-4.1162415,-0.3290337,-0.44641286
189552823,189551962,-3.0135086,-0.4027187,-1.5037878
189555334,189554464,-2.80184,-0.25399727,-1.908722
189560322,189559466,-2.8444777,-0.24067114,-2.1707447
189562822,189561972,-2.581758,-0.38203767,-2.0829918
189565326,189564468,-2.04672,-0.4845825,-1.9455824
189570328,189569471,-1.1217686,-0.40499514,-1.5893193
189572823,189571972,-1.0865295,-0.2667889,-1.3852273
189577825,189576975,-0.97193253,0.07867168,-1.1180853
189580336,189579476,-0.41105473,0.25683007,-1.0591334
189582835,189581977,0.3373432,0.37745106,-1.0635103
189587832,189586979,1.323073,0.44943887,-1.0629332
189590330,189589480,1.4668152,0.44039798,-0.9973974
189595336,189594483,1.3266711,0.4351391,-0.88240093
189597833,189596984,1.0130943,0.40429556,-0.8626105
189600342,189599489,0.5729326,0.36225715,-0.8715236
189605346,189604487,0.3404806,0.31431288,-0.9847755
189607840,189606988,0.6675078,0.2370164,-1.0614213
189612840,189611991,1.4182302,-0.12524006,-1.1433672
189615347,189614492,1.7010746,-0.2768293,-1.0773973
189617852,189616993,1.8999702,-0.33521074,-0.92704576
189622848,189621996,1.5273017,-0.39301148,-0.50181305
189625352,189624497,0.9308176,-0.5282662,-0.30006486
189630405,189629540,0.029696176,-0.749565,-0.07242267
189632850,189632000,0.084735595,-0.8023315,-0.050716434
189635357,189634502,0.24466957,-0.88646215,-0.12158091
189640359,189639504,0.06799365,-1.0650148,-0.43930593
189642862,189642005,-0.21307448,-1.0840187,-0.5789727
189647859,189647010,-0.76172286,-0.9886273,-0.80053216
189650389,189649511,-1.0334221,-0.91872764,-0.9604026
189652867,189652010,-1.2554367,-0.80918527,-1.135066
189657866,189657012,-1.2542087,-0.2623921,-1.2000995
189660368,189659514,-1.2191197,0.017519316,-0.93544984
189665385,189664516,-1.3417305,0.26490584,-0.21060832
189667870,189667017,-1.1589537,0.32335365,-0.029145122
189670387,189669518,-0.8524253,0.48500103,0.003332393
189675397,189674520,-0.7547507,0.9283362,0.15694799
189677879,189677022,-0.91315126,1.0261874,0.4047677
189682881,189682024,-0.5505732,0.8856867,0.7967948
189685395,189684526,-0.10967569,0.77006257,0.7894444
189687887,189687027,0.28954536,0.6797986,0.6744399
189692878,189692029,0.83737886,0.552086,0.36844063
189695435,189694561,1.0180247,0.505174,0.23794991
189700395,189699535,1.1157656,0.31271896,-0.15409024
189702888,189702034,1.0952525,0.18284625,-0.2673599
189705391,189704535,1.1778222,-0.011878165,-0.19130504
189710400,189709537,1.5188969,-0.43086618,0.48803627
189712899,189712039,1.2713143,-0.50320417,0.8803262
189717894,189717045,-0.31905654,-0.32609403,1.2943333
189720403,189719542,-0.9413048,-0.23801635,1.270075
189722898,189722043,-1.0566467,-0.24178958,1.2182837
189727902,189727046,-0.5588504,-0.43660444,1.1969217
189730407,189729547,-0.28869167,-0.5452455,1.0957398
189735416,189734549,0.43868208,-0.76574945,0.5835987
189737900,189737050,0.6919095,-0.85170555,0.31003514
189740428,189739558,0.68205744,-0.8333365,0.16146751
189745412,189744554,0.204318,-0.5100173,0.14619885
189747914,189747061,0.15515675,-0.3224389,0.24052292
189752911,189752058,0.28383434,-0.11154325,0.577433
189755416,189754559,0.40655586,-0.055187512,0.7440606
189757909,189757060,0.68209475,0.02137657,0.84282947
189762918,189762062,1.4424081,0.34953332,0.7794517
189765424,189764563,1.5391473,0.60167575,0.6704571
189770424,189769566,1.1469176,1.0918086,0.5857414
189772920,189772071,1.0306797,1.2275289,0.63258356
189775436,189774568,1.0808107,1.2656738,0.6521692
189780447,189779578,1.0570484,1.1971742,0.61224484
189782933,189782076,0.7069059,1.1563535,0.5423608
189787931,189787074,-0.5931585,0.96048754,0.2531195
189790433,189789575,-1.1501763,0.87930995,0.0875359
189792926,189792077,-1.370723,0.95369023,-0.023498263
189797932,189797079,-1.4833732,0.95480865,-0.15807286
189800447,189799580,-1.7223648,0.626755,-0.24465124
189805455,189804586,-1.8303999,-0.09978762,-0.30554745
189807943,189807084,-1.3062736,-0.21407238,-0.2120698
189810446,189809585,-0.8131349,-0.31102592,-0.085144565
189815445,189814587,-1.0880942,-0.67414296,-0.044167716
189817941,189817092,-1.2438267,-0.7791918,-0.15543024
189822948,189822091,0.016621854,-0.8876944,-0.30788055
189825453,189824592,0.7191177,-1.0575697,-0.24590112
189827955,189827093,0.8039239,-1.2263043,-0.09545032
189832995,189832142,-0.11696554,-1.1066942,0.30563873
189835455,189834597,-0.31842834,-0.9490487,0.4710214
189840460,189839599,0.08827658,-0.84589916,0.6163345
189842950,189842101,0.3621563,-0.7998527,0.6554398
189845475,189844601,0.63431233,-0.65028644,0.6846775
189850472,189849604,1.1675469,-0.4222487,0.64657
189852958,189852106,1.210174,-0.36827397,0.6776324
189857961,189857107,1.0432197,-0.10308206,0.60884416
189860469,189859609,0.8491376,0.11031304,0.30559933
189862959,189862110,0.3903779,0.32345754,-0.09472207
189867966,189867112,-1.017917,0.6487145,-0.5801195
189870472,189869620,-1.2330186,0.7488549,-0.65301484
189875470,189874616,-0.7173605,0.7699392,-0.6958474
189877971,189877121,-0.6643206,0.8120332,-0.75653636
189880481,189879622,-0.7953658,0.9188325,-0.84796554
189885498,189884642,-0.44589493,0.9756766,-1.1648874
189887972,189887122,0.09912712,0.8699423,-1.3706459
189892979,189892124,0.59955764,0.7605444,-1.7454928
189895475,189894625,0.46708685,0.795331,-1.813701
189897989,189897129,0.3980898,0.7533657,-1.7440051
189902989,189902129,1.1204518,0.15120158,-1.3270451
189905480,189904630,1.4580436,-0.080326654,-1.0726838
189910486,189909632,0.8558294,-0.015238531,-0.59480196
189912992,189912134,0.16074128,-0.0058176816,-0.3739135
189915484,189914635,-0.28457358,-0.12261815,-0.22815947
189920491,189919637,-0.05507608,-0.39530313,-0.004240065
189922992,189922140,0.14284442,-0.40983695,0.17726423
189927991,189927141,0.56822747,-0.62123394,0.5673333
189930496,189929642,1.1856776,-0.8428413,0.70453936
189932993,189932143,1.6285472,-0.9339795,0.8092014
189938006,189937146,0.5616887,-0.53136957,1.1060622
189940500,189939647,-0.39964798,-0.3408084,1.3470948
189945504,189944649,-1.0016439,-0.3548425,1.8972262
189948000,189947150,-0.80425566,-0.43638256,2.0550573
189950509,189949651,-0.5685935,-0.4481369,1.9958174
189955511,189954654,0.29900834,-0.34166548,1.1788887
189958005,189957155,1.0578959,-0.2963859,0.5992426
189963009,189962158,2.058237,0.03910264,-0.26952797
189965514,189964659,1.9680796,0.24364714,-0.37463272
189968010,189967160,1.7426928,0.27120206,-0.18465702
189973013,189972163,1.5747733,-0.11524432,0.8023483
189975523,189974663,1.3151482,-0.18061033,1.2161961
189980519,189979666,-0.38210076,0.46158388,1.2172021
189983027,189982174,-1.0350922,0.7169819,0.801999
189985524,189984668,-0.9227672,0.6438148,0.30693388
189990520,189989671,0.63286483,-0.017376978,-0.12294586
189993021,189992172,1.0372676,-0.101327755,-0.13240822
189998030,189997174,0.5997033,0.25323915,-0.613076
190000528,189999675,0.27205798,0.42745394,-0.95506805
190003037,190002185,-0.09977467,0.5543973,-1.0294968
190008032,190007179,-0.9056357,0.62961,-0.26211506
190010533,190009680,-0.9273139,0.5246202,0.2418851
190015532,190014682,-0.110354304,0.14886083,0.85245425
190018033,190017184,0.06919936,0.1287078,0.9222351
190020535,190019685,-0.041431703,0.23740636,0.8352165
190025537,190024687,-0.110028476,0.44206122,0.45074406
190028039,190027189,0.010500729,0.43867502,0.2496131
190033041,190032191,-0.2663913,0.0712009,0.056361612
190035564,190034692,-0.26326212,-0.28273165,0.037091944
190038050,190037193,0.24211757,-0.61076057,-0.016464395
190043049,190042196,1.3510264,-0.7083936,-0.38815418
190045550,190044697,1.0912297,-0.38735032,-0.6771228
190050557,190049699,-0.18637969,0.17089641,-0.90625757
190053057,190052204,-0.39823377,0.19145618,-0.756026
190055561,190054711,-0.30389214,0.057420596,-0.46895093
190060553,190059704,-0.0071312804,-0.28368178,0.11735603
190063062,190062205,0.2514925,-0.385877,0.28660616
190068061,190067207,1.2345191,-0.5206313,0.1495608
190070560,190069710,1.5439589,-0.4559499,-0.11105218
190073060,190072210,1.4268513,-0.2826581,-0.39724725
190078066,190077212,0.31963894,0.11054886,-0.8069221
190080563,190079713,0.22232471,0.17230129,-0.83933306
190085565,190084716,1.4780128,0.03441635,-0.516128
190088074,190087225,1.2491423,0.039722677,-0.23229662
190090568,190089718,-0.20583315,0.14405417,0.022951694
190095574,190094721,-3.233079,0.38756016,0.2920359
190098078,190097225,-2.9247065,0.4105859,0.2817524
190103105,190102227,-0.7712756,0.43553904,0.23058741
190105575,190104725,-0.3708976,0.39815173,0.19889894
190108105,190107243,-0.30482507,0.2970713,0.14055835
190113089,190112236,0.38598162,-0.1895995,0.2523437
190115588,190114730,0.60608464,-0.4197068,0.4961547
190120603,190119732,-0.2234701,-0.4291355,0.70271564
190123092,190122243,-0.5609687,-0.2821453,0.51624316
190125584,190124735,-0.317011,-0.16636361,0.21389201
190130590,190129737,1.4740086,-0.20928185,-0.22985554
190133119,190132259,2.1761625,-0.29952136,-0.26714745
190138122,190137258,2.2466702,-0.309227,-0.08539421
190140622,190139766,1.9488077,-0.24062248,0.08946597
190143119,190142263,1.6038833,-0.1527221,0.30394897
190148125,190147264,1.0021652,0.06191274,0.5732678
190150597,190149747,0.9561658,0.1731858,0.46845815
190155609,190154749,1.7754858,0.19975945,-0.07410597
190158121,190157268,2.3135002,0.24339786,-0.33886817
190160604,190159752,2.5553865,0.32565492,-0.54437196
190165603,190164754,1.8471918,0.50860125,-0.8532205
190168136,190167278,1.1432213,0.5753736,-0.9061802
190173160,190172289,-0.1910145,0.5685244,-0.7160235
190175608,190174759,-0.74568605,0.43861014,-0.48553196
190178154,190177298,-1.1923687,0.27668655,-0.27888536
190183155,190182303,-1.3778926,-0.019368788,-0.27113172
190185613,190184763,-1.1862984,-0.09958645,-0.50165635
190190627,190189766,-0.61380666,-0.17496812,-1.0795009
190193123,190192261,-0.22240303,-0.2787998,-1.4009482
190195621,190194768,0.120162874,-0.49521202,-1.659593
190200630,190199771,-0.03648475,-0.9381162,-1.802879
190203140,190202279,-0.5488806,-0.9630738,-1.6535605
190208147,190207281,-1.0878795,-0.57098377,-1.0928987
190210625,190209775,-0.884248,-0.35274595,-0.6290568
190213137,190212277,-0.8513901,-0.24565491,0.05795253
190218135,190217279,-2.151958,-0.29896453,1.4230461
190220639,190219780,-2.8471203,-0.24094959,1.4619606
190225683,190224820,-2.4978526,0.14587568,0.2339554
190228139,190227284,-1.5714434,0.35086387,-0.35273913
190230634,190229785,-0.6789031,0.48070303,-0.58817285
190235656,190234787,-0.4861239,0.5269023,-0.09720796
190238146,190237288,-1.1075914,0.40372372,0.26053265
190243165,190242291,-1.026021,0.03486624,0.45607278
190245646,190244792,-0.51048595,0.05852858,0.30351385
190248150,190247293,-0.7883699,0.34188917,0.21351345
190253158,190252296,-3.7036924,1.0236801,0.4980067
190255646,190254797,-3.703844,0.8225466,0.6341471
190260666,190259799,1.409009,-0.08732631,0.06677736
190263157,190262300,3.2193227,-0.06116272,-0.46741518
190265659,190264802,2.8967164,0.30308735,-0.8300913
190270657,190269804,0.5386407,0.4067663,-0.59872854
190273164,190272306,0.65698725,0.046052475,-0.23224765
190278188,190277315,0.03641156,0.023589475,0.38326153
190280658,190279809,-1.3323402,0.3294906,0.354526
190283159,190282310,-2.0133026,0.5143149,-0.00027958653
190288162,190287312,-0.81954324,0.31716913,-0.97513765
190290667,190289813,-0.78079075,0.1787776,-1.1989952
190295683,190294816,-0.49177855,-0.2815536,-1.6128136
190298172,190297317,0.686639,-0.668481,-1.994198
190300679,190299818,1.5292926,-0.96882284,-2.2478616
190305679,190304821,0.14036764,-0.80194336,-2.1320872
190308181,190307325,-0.548145,-0.56021357,-1.8893205
190313191,190312324,-0.39181864,-0.46297702,-1.0002232
190315675,190314826,-0.84179753,-0.4891125,-0.30710673
190318188,190317327,-1.5619754,-0.4318836,0.34750673
190323184,190322329,-0.59524614,-0.39591724,0.82520217
190325690,190324837,0.6618848,-0.4255851,0.62978953
190330693,190329836,0.80517566,-0.10183211,0.26654536
190333195,190332334,0.2843125,0.07494368,0.22310463
190335698,190334845,0.24026598,0.056489564,0.16464958
190340687,190339837,0.39391717,-0.27319825,0.06831761
190343208,190342341,-0.28231582,-0.29889002,0.09058141
190348195,190347341,-1.258187,-0.10454485,0.11507747
190350692,190349842,-1.4928939,0.0067416844,0.15156585
190353213,190352347,-1.992142,-0.004670093,0.27965143
190358209,190357346,-0.75455236,-0.8097009,-0.3664513
190360696,190359847,1.7123969,-1.0069776,-1.6339391
190365706,190364849,4.655063,0.038183227,-3.8481221
190368227,190367350,4.2263575,0.41682988,-3.680745
190370705,190369852,4.1790857,0.19221309,-2.7820375
190375707,190374858,4.8780923,-0.7191755,-0.44818828
190378218,190377355,2.9859645,-0.6088546,0.39820048
190383221,190382358,-1.8796096,0.4772834,0.58201534
190385708,190384859,-2.0165987,0.88346756,0.20715602
190388233,190387360,-1.7136441,1.0803868,-0.032293715
190393233,190392363,-3.5578136,1.1258396,-0.33939138
190395723,190394870,-3.1454678,0.72723544,-0.82065177
190400719,190399866,2.5692756,-0.89679587,-1.8262863
190403237,190402367,3.8540752,-1.318263,-1.8227757
190405720,190404868,2.6567492,-1.147096,-1.4944503
190410720,190409871,-1.6153818,-0.12957966,-0.54304856
190413235,190412378,-2.7161722,0.045283973,-0.050025143
190418244,190417381,-4.0587773,0.20410565,1.0803057
190420725,190419875,-3.8442204,0.30854833,1.612616
190423240,190422385,-2.3490963,0.18294479,1.9310422
190428252,190427390,2.038594,-0.6524474,1.7264676
190430741,190429880,2.8387644,-0.7052308,1.2825164
190435736,190434883,1.4788381,0.01589926,0.34520316
190438247,190437392,0.8270061,0.15105739,0.25031093
190440746,190439885,0.6925295,-0.04411459,0.5750299
190445737,190444887,-0.24574184,-0.39166927,1.7150136
190448273,190447416,-1.6174203,-0.20431608,1.9817773
190453248,190452393,-3.1122744,0.064743176,1.4712132
190455742,190454892,-2.5101788,-0.03833985,1.0609955
190458259,190457398,-1.5081416,-0.074251264,0.7524845
190463268,190462407,0.3923965,0.20982637,0.08359346
190465750,190464897,1.3283739,0.2840877,-0.2015846
190468256,190467398,2.0065544,0.22537665,-0.17988746
190473252,190472403,1.061363,0.18494694,0.9410731
190475757,190474902,-0.1321998,0.3422837,1.604041
190480759,190479904,-1.203433,0.62734926,1.714462
190483256,190482406,-0.997697,0.6879482,1.2845805
190488257,190487408,-0.051575523,0.71549785,0.6541133
190490758,190489909,0.7651942,0.5774306,0.49862397
190493260,190492410,1.6420676,0.36643082,0.41741472
190498269,190497413,1.6931375,0.26590946,0.5169261
190500772,190499915,0.7954901,0.38250548,0.75538963
190503264,190502415,-0.07680136,0.38283437,1.0616086
190508272,190507417,-1.0341626,-0.034639,1.658018
190510768,190509918,-1.3661072,-0.114088856,1.8200551
190515770,190514921,-1.389631,-0.027777541,1.567649
190518279,190517422,-0.8220616,-0.07433201,1.2267636
190520773,190519923,-0.09789393,-0.123598106,0.9575078
190525779,190524925,0.43183652,0.07499986,0.70397586
190528285,190527426,0.16490516,0.17872141,0.69496375
190533288,190532437,-0.6003862,0.0572768,1.0608785
190535784,190534930,-0.9425189,-0.018437186,1.423927
190538300,190537440,-1.269624,-0.020550227,1.7704319
190543285,190542434,-1.5140209,0.078701474,1.8925513
190545784,190544935,-1.2454368,0.10261783,1.6364725
190550791,190549938,-0.013261473,0.17756173,0.7982762
190553299,190552446,0.44261363,0.31127125,0.37506947
190555789,190554940,0.5181433,0.43592104,0.050492126
190560802,190559943,0.06166968,0.4404356,-0.026748732
190563297,190562443,-0.17374732,0.38470665,0.122421704
190568302,190567446,-0.8523733,0.4776083,0.41543564
190570800,190569947,-1.3224717,0.52078205,0.49511006
190573300,190572448,-1.5487982,0.49729028,0.52463967
190578300,190577451,-0.6730555,0.3145034,0.312693
190580803,190579952,-0.048084598,0.2500544,0.08160182
190585811,190584961,0.75950557,0.09979679,-0.42583635
190588315,190587455,1.114665,-0.06347993,-0.54368377
190590807,190589957,1.3945628,-0.24095224,-0.5203756
190595816,190594963,0.9236358,-0.29929435,-0.2559382
190598317,190597460,0.320778,-0.1710755,-0.14047788
190603319,190602463,-0.44329318,-0.07918733,-0.041713707
190605813,190604964,-0.41777155,-0.1824059,-0.044677377
190608320,190607471,-0.13170548,-0.2856095,-0.089868665
190613324,190612467,0.6596211,-0.3751526,-0.35108605
190615818,190614968,0.9406646,-0.39469922,-0.43113932
190620820,190619971,0.9868031,-0.26050207,-0.33969662
190623321,190622472,0.6824105,-0.07655073,-0.14660989
190625825,190624976,0.2564715,0.102612615,0.09338466
190630829,190629976,-0.22951476,0.16654244,0.49429378
190633335,190632484,0.05686322,0.052222423,0.51825225
190638325,190637475,1.4980651,-0.09047732,0.08575062
190640830,190639980,2.0930119,-0.056349058,-0.2543478
190643331,190642482,2.311017,0.022814566,-0.55816954
190648333,190647484,1.8018316,0.18410802,-0.85011005
190650852,190649985,1.4792978,0.26601118,-0.8431483
190655842,190654987,1.2925485,0.40815935,-0.58167034
190658345,190657489,1.3014776,0.40598008,-0.37933737
190660843,190659990,1.0931629,0.355946,-0.17177418
190665850,190664992,0.0997386,0.22913815,0.08187232
190668350,190667497,-0.05039762,0.21675952,0.0454396
190673349,190672496,0.42123497,0.25827324,-0.3627132
190675851,190674997,0.3511112,0.23577757,-0.59437907
190678351,190677498,-0.09711902,0.1818391,-0.6998471
190683355,190682502,-1.0354604,-0.114235714,-0.5513407
190685855,190685002,-1.2364333,-0.31513536,-0.31850365
190690856,190690006,-1.9976954,-0.46217227,0.087536864
190693359,190692506,-2.6049685,-0.38978598,0.13509706
190695863,190695007,-2.9461796,-0.35280755,0.09074547
190700882,190700023,-1.882282,-0.6408849,-0.09888221
190703407,190702525,-0.8487508,-0.8396542,-0.12516895
190708362,190707513,0.36962375,-0.8988476,-0.06494333
190710866,190710014,0.34522584,-0.7433893,0.005758897
190713364,190712515,-0.18437003,-0.5322799,0.16999508
190718371,190717517,-2.137962,-0.14189164,0.7197299
190720868,190720018,-2.4578962,-0.11763226,0.93500304
190725874,190725021,-0.91140455,-0.24090691,1.1038871
190728384,190727522,-0.39284456,-0.17817718,1.0627548
190730882,190730023,-0.47875884,-0.018319372,0.86507076
190735879,190735026,-0.5125084,0.36636603,0.026437758
190738385,190737527,-0.080446206,0.45691755,-0.36110207
190743392,190742534,0.13262536,0.5188355,-0.46438804
190745880,190745030,-0.05442217,0.50307304,-0.3064955
190748402,190747532,-0.13383053,0.44214246,-0.13417508
190753404,190752534,-0.5513253,0.37665817,0.1790385
190755937,190755071,-0.9779845,0.38485262,0.315933
190760891,190760038,-1.4066235,0.25056478,0.4507614
190763410,190762545,-1.3607985,0.02311467,0.4428504
190765893,190765040,-1.1396551,-0.282989,0.43030563
190770898,190770044,-0.26299036,-0.7999111,0.3494819
190773404,190772543,0.20494287,-0.8798946,0.2525449
