timestamp,timestamp_sample,device_id,x,y,z,temperature,error_count,samples
186836625,186836609,2228234,0.0,0.013439037,0.018325958,35.0,0,1
186837572,186837556,2228234,-0.014660767,0.023212882,0.014660767,35.0,0,1
186941665,186941649,2228234,0.036651917,0.028099803,0.026878074,35.0,0,1
187039221,187039205,2228234,0.0036651918,0.020769421,0.037873648,35.0,0,1
187137864,187137848,2228234,0.01954769,0.01954769,0.037873648,35.0,0,1
187237917,187237901,2228234,0.0048869224,0.017104229,0.018325958,35.0,0,1
187339353,187339336,2228234,0.032986727,0.034208458,-0.020769421,35.0,0,1
187440992,187440969,2228234,-0.0073303836,0.029321535,-0.015882498,35.0,0,1
187538216,187538200,2228234,-0.012217306,0.026878074,-0.0048869224,35.0,0,1
187641989,187641972,2228234,0.009773845,0.041538842,0.01954769,35.0,0,1
187738467,187738448,2228234,-0.017104229,0.023212882,0.012217306,35.0,0,1
187839607,187839591,2228234,0.015882498,0.030543266,0.04031711,35.0,0,1
187937937,187937918,2228234,0.0048869224,0.029321535,0.018325958,35.0,0,1
188038766,188038750,2228234,0.023212882,0.029321535,0.02199115,35.0,0,1
188139739,188139723,2228234,0.02199115,0.020769421,0.052534416,35.0,0,1
188238236,188238220,2228234,0.023212882,0.01954769,0.041538842,35.0,0,1
188342343,188342327,2228234,-0.024434611,0.032986727,0.03909538,35.0,0,1
188439879,188439862,2228234,0.01954769,0.026878074,0.024434611,35.0,0,1
188538540,188538524,2228234,0.0012217306,0.024434611,0.024434611,35.0,0,1
188638605,188638588,2228234,-0.032986727,0.0085521145,0.0085521145,35.0,0,1
188740015,188739998,2228234,-0.010995575,0.017104229,0.0036651918,35.0,0,1
188840062,188840046,2228234,0.023212882,0.0012217306,-0.0012217306,35.0,0,1
188938901,188938885,2228234,0.015882498,0.025656343,0.046425764,35.0,0,1
189040194,189040167,2228234,0.0024434612,0.026878074,0.032986727,35.0,0,1
189137700,189137684,2228234,0.0073303836,0.025656343,0.017104229,35.0,0,1
189240278,189240262,2228234,0.006108653,0.010995575,0.0,35.0,0,1
189337791,189337775,2228234,-0.0085521145,0.024434611,0.051312685,35.0,0,1
189439447,189439431,2228234,-0.0024434612,0.028099803,-0.018325958,35.0,0,1
189537915,189537899,2228234,-0.0024434612,0.026878074,0.075747296,35.0,0,1
189638889,189638873,2228234,0.0012217306,0.006108653,-0.023212882,35.0,0,1
189740540,189740524,2228234,-0.015882498,0.013439037,0.015882498,35.0,0,1
189835553,189835526,2228234,-0.0073303836,0.0048869224,0.04276057,35.0,0,1
189940591,189940570,2228234,0.0012217306,0.012217306,0.028099803,35.0,0,1
190038131,190038115,2228234,0.067195185,0.01954769,0.031764995,35.0,0,1
190140700,190140684,2228234,0.083077684,0.013439037,0.05497788,35.0,0,1
190238230,190238211,2228234,0.03909538,0.015882498,0.0048869224,35.0,0,1
190339589,190339570,2228234,-0.0048869224,0.015882498,-0.032986727,35.0,0,1
190440857,190440841,2228234,0.034208458,0.0012217306,-0.051312685,35.0,0,1
190535866,190535850,2228234,-0.0085521145,0.020769421,0.05864307,35.0,0,1
190639886,190639870,2228234,0.037873648,0.025656343,0.05497788,35.0,0,1
190738466,190738450,2228234,-0.015882498,0.02199115,0.053756148,35.0,0,1
190838656,190838640,2228234,0.03909538,0.023212882,0.048869222,35.0,0,1
190937326,190937310,2228234,-0.0036651918,0.025656343,0.03543019,35.0,0,1
191038606,191038590,2228234,0.017104229,0.028099803,0.041538842,35.0,0,1
191141155,191141139,2228234,-0.0073303836,0.010995575,0.024434611,35.0,0,1
191236200,191236184,2228234,-0.010995575,0.026878074,0.036651917,35.0,0,1
191339871,191339854,2228234,-0.006108653,0.018325958,0.037873648,35.0,0,1
191438794,191438778,2228234,0.030543266,0.017104229,0.04031711,35.0,0,1
191538900,191538881,2228234,0.01954769,0.026878074,0.01954769,35.0,0,1
191638890,191638874,2228234,0.012217306,0.02199115,0.04031711,35.0,0,1
191738947,191738931,2228234,0.032986727,0.020769421,0.030543266,35.0,0,1
191841572,191841556,2228234,0.009773845,0.017104229,0.041538842,35.0,0,1
191936543,191936527,2228234,0.0073303836,0.029321535,0.009773845,35.0,0,1
192039860,192039840,2228234,-0.034208458,0.036651917,-0.006108653,35.0,0,1
192137097,192137081,2228234,-0.009773845,0.026878074,0.045204032,35.0,0,1
192237911,192237895,2228234,-0.01954769,0.020769421,-0.0012217306,35.0,0,1
192336722,192336706,2228234,0.0048869224,-0.0036651918,0.006108653,35.0,0,1
192439273,192439256,2228234,0.0,0.023212882,-0.0012217306,35.0,0,1
192539644,192539627,2228234,0.03543019,0.034208458,0.025656343,35.0,0,1
192636868,192636851,2228234,0.045204032,0.028099803,0.04031711,35.0,0,1
192740556,192740540,2228234,0.06108653,-0.037873648,-0.19181171,35.0,0,1
192837798,192837782,2228234,-0.029321535,0.04276057,-0.006108653,35.0,0,1
192937010,192936994,2228234,-0.04276057,0.018325958,0.012217306,35.0,0,1
193039564,193039548,2228234,0.057421338,0.036651917,0.09529499,35.0,0,1
193139618,193139602,2228234,0.023212882,0.045204032,0.075747296,35.0,0,1
193239660,193239644,2228234,0.06597345,0.015882498,0.09407326,35.0,0,1
193338296,193338280,2228234,0.06597345,0.046425764,0.09407326,35.0,0,1
193439806,193439782,2228234,0.032986727,0.009773845,0.013439037,35.0,0,1
193537781,193537764,2228234,0.032986727,0.0085521145,0.013439037,35.0,0,1
193637356,193637340,2228234,-0.026878074,0.032986727,-0.0598648,35.0,0,1
193740844,193740828,2228234,-0.05864307,0.024434611,-0.0012217306,35.0,0,1
193839941,193839924,2228234,0.053756148,0.07330383,0.1038471,35.0,0,1
193940329,193940313,2228234,0.03543019,0.0073303836,0.113620944,35.0,0,1
194038999,194038982,2228234,0.032986727,0.009773845,0.1038471,35.0,0,1
194140112,194140096,2228234,0.0073303836,0.024434611,0.06230826,35.0,0,1
194237687,194237668,2228234,-0.025656343,0.023212882,-0.009773845,35.0,0,1
194336467,194336451,2228234,0.024434611,0.01954769,0.026878074,35.0,0,1
194441544,194441525,2228234,-0.023212882,0.015882498,0.01954769,35.0,0,1
194538781,194538765,2228234,0.0,0.0,0.013439037,35.0,0,1
194640346,194640330,2228234,-0.0036651918,0.018325958,0.026878074,35.0,0,1
194738981,194738965,2228234,-0.012217306,0.024434611,0.036651917,35.0,0,1
194840468,194840451,2228234,0.097738445,0.02199115,0.0073303836,35.0,0,1
194937045,194937025,2228234,0.04031711,0.018325958,0.036651917,35.0,0,1
195035601,195035585,2228234,0.009773845,-0.012217306,0.03543019,35.0,0,1
195140637,195140620,2228234,0.020769421,-0.031764995,0.0048869224,35.0,0,1
195240610,195240594,2228234,0.018325958,0.0085521145,0.048869222,35.0,0,1
195339588,195339569,2228234,0.017104229,0.017104229,0.046425764,35.0,0,1
195438197,195438181,2228234,0.0012217306,0.018325958,0.0085521145,35.0,0,1
195540774,195540758,2228234,0.029321535,0.02199115,0.018325958,35.0,0,1
195638331,195638315,2228234,0.0012217306,0.031764995,0.02199115,35.0,0,1
195737121,195737105,2228234,0.025656343,0.024434611,0.0024434612,36.0,0,1
195840895,195840879,2228234,-0.006108653,0.017104229,0.0036651918,36.0,0,1
195938753,195938735,2228234,-0.0048869224,0.031764995,0.036651917,36.0,0,1
196038529,196038513,2228234,0.046425764,0.014660767,0.04031711,36.0,0,1
196138542,196138526,2228234,0.006108653,0.017104229,0.036651917,36.0,0,1
196239052,196239036,2228234,-0.0036651918,0.006108653,0.012217306,36.0,0,1
196337726,196337710,2228234,0.018325958,0.009773845,0.031764995,36.0,0,1
196436202,196436186,2228234,0.036651917,0.018325958,0.04031711,36.0,0,1
196541268,196541252,2228234,-0.006108653,0.024434611,0.020769421,36.0,0,1
196638779,196638763,2228234,-0.023212882,0.031764995,0.032986727,36.0,0,1
196738863,196738847,2228234,0.03543019,0.0085521145,0.03543019,35.0,0,1
196838875,196838858,2228234,0.01954769,0.0024434612,0.025656343,35.0,0,1
196939754,196939737,2228234,-0.006108653,0.0024434612,0.023212882,35.0,0,1
197038996,197038980,2228234,0.031764995,0.018325958,0.014660767,35.0,0,1
197136519,197136503,2228234,-0.031764995,0.024434611,-0.020769421,35.0,0,1
197240051,197240035,2228234,-0.014660767,0.03909538,0.0036651918,35.0,0,1
197339140,197339124,2228234,0.02199115,0.036651917,0.025656343,35.0,0,1
197438109,197438093,2228234,0.0048869224,0.032986727,0.006108653,35.0,0,1
197537491,197537475,2228234,0.075747296,-0.013439037,0.024434611,35.0,0,1
197639274,197639258,2228234,-0.0085521145,0.013439037,0.02199115,35.0,0,1
197736805,197736789,2228234,0.025656343,0.0036651918,0.029321535,35.0,0,1
197836873,197836857,2228234,0.014660767,0.013439037,0.037873648,36.0,0,1
197940043,197940020,2228234,0.015882498,0.012217306,0.024434611,36.0,0,1
198039468,198039448,2228234,0.025656343,0.01954769,0.026878074,36.0,0,1
198139571,198139555,2228234,0.013439037,0.017104229,0.028099803,36.0,0,1
198238195,198238179,2228234,0.0048869224,0.029321535,0.051312685,36.0,0,1
198339587,198339571,2228234,-0.012217306,0.02199115,0.067195185,36.0,0,1
198437139,198437123,2228234,0.0073303836,0.014660767,0.013439037,36.0,0,1
198538493,198538474,2228234,-0.018325958,0.01954769,0.015882498,36.0,0,1
198640736,198640720,2228234,-0.018325958,0.017104229,0.04276057,36.0,0,1
198738695,198738675,2228234,-0.0085521145,0.02199115,0.03543019,36.0,0,1
198839852,198839836,2228234,0.036651917,0.009773845,0.026878074,36.0,0,1
198938176,198938160,2228234,0.03543019,0.014660767,0.037873648,35.0,0,1
199038997,199038980,2228234,0.0598648,0.0012217306,0.018325958,35.0,0,1
199135003,199134987,2228234,0.030543266,0.0073303836,0.04031711,35.0,0,1
199238478,199238462,2228234,0.023212882,0.0085521145,0.031764995,35.0,0,1
199340728,199340712,2228234,0.031764995,0.017104229,0.032986727,35.0,0,1
199440133,199440114,2228234,-0.029321535,0.045204032,0.037873648,35.0,0,1
199538776,199538760,2228234,0.0012217306,0.026878074,0.036651917,35.0,0,1
199638876,199638860,2228234,-0.017104229,0.037873648,0.031764995,35.0,0,1
199740257,199740240,2228234,0.023212882,-0.028099803,0.0439823,35.0,0,1
199834071,199834055,2228234,0.041538842,-0.0036651918,0.04276057,35.0,0,1
199939179,199939163,2228234,-0.02199115,0.045204032,0.029321535,35.0,0,1
200041476,200041459,2228234,0.030543266,0.03543019,0.037873648,35.0,0,1
200137965,200137949,2228234,0.020769421,0.024434611,0.037873648,35.0,0,1
200240538,200240519,2228234,0.0085521145,0.013439037,0.0439823,35.0,0,1
200338086,200338070,2228234,0.012217306,0.01954769,0.020769421,35.0,0,1
200439684,200439668,2228234,0.02199115,0.0,0.030543266,35.0,0,1
200535680,200535663,2228234,0.015882498,0.0073303836,0.03543019,35.0,0,1
200639161,200639145,2228234,0.014660767,0.026878074,0.023212882,35.0,0,1
200740738,200740722,2228234,0.068416916,-0.0048869224,0.0073303836,35.0,0,1
200840786,200840770,2228234,0.03543019,-0.0073303836,0.024434611,35.0,0,1
200940863,200940841,2228234,0.0036651918,0.015882498,0.041538842,35.0,0,1
201038451,201038431,2228234,-0.09529499,0.050090954,0.0085521145,35.0,0,1
201140924,201140908,2228234,0.03909538,0.028099803,0.041538842,35.0,0,1
201234756,201234740,2228234,0.036651917,0.015882498,0.018325958,35.0,0,1
201339867,201339848,2228234,-0.009773845,0.0085521145,0.03543019,35.0,0,1
201438608,201438592,2228234,0.026878074,0.02199115,0.024434611,35.0,0,1
201535058,201535040,2228234,0.0024434612,0.009773845,0.015882498,35.0,0,1
201638676,201638660,2228234,-0.017104229,0.052534416,0.010995575,35.0,0,1
201738744,201738727,2228234,0.068416916,0.0073303836,-0.018325958,35.0,0,1
201838935,201838918,2228234,0.029321535,0.036651917,0.041538842,35.0,0,1
201936396,201936362,2228234,0.029321535,0.0439823,0.057421338,35.0,0,1
202039846,202039830,2228234,0.050090954,0.0048869224,0.050090954,35.0,0,1
202138932,202138916,2228234,-0.031764995,0.015882498,0.01954769,35.0,0,1
202237920,202237902,2228234,0.046425764,0.0048869224,-0.0085521145,35.0,0,1
202340146,202340130,2228234,-0.053756148,0.03543019,-0.028099803,35.0,0,1
202439111,202439093,2228234,0.036651917,0.032986727,0.11239921,35.0,0,1
202539638,202539615,2228234,0.0085521145,-0.0024434612,0.030543266,35.0,0,1
202636682,202636666,2228234,-0.06475172,0.017104229,-0.06352999,35.0,0,1
202739208,202739192,2228234,-0.050090954,0.05497788,0.014660767,35.0,0,1
202839273,202839257,2228234,-0.015882498,0.024434611,0.04031711,35.0,0,1
202936820,202936804,2228234,0.0073303836,0.023212882,0.0024434612,35.0,0,1
203040131,203040114,2228234,0.068416916,0.05497788,-0.020769421,35.0,0,1
203139437,203139421,2228234,0.026878074,0.05864307,0.0085521145,35.0,0,1
203239469,203239453,2228234,-0.06475172,0.024434611,0.15760325,35.0,0,1
203338320,203338297,2228234,0.08674287,0.029321535,0.090408064,35.0,0,1
203439574,203439558,2228234,-0.023212882,0.020769421,0.018325958,35.0,0,1
203539919,203539902,2228234,0.03543019,0.015882498,-0.01954769,35.0,0,1
203637132,203637111,2228234,0.009773845,0.020769421,-0.01954769,35.0,0,1
203740831,203740815,2228234,0.0073303836,0.024434611,0.034208458,35.0,0,1
203838116,203838100,2228234,0.032986727,0.02199115,0.053756148,35.0,0,1
203937272,203937256,2228234,-0.0024434612,0.030543266,0.032986727,35.0,0,1
204038274,204038258,2228234,0.028099803,0.018325958,0.0085521145,35.0,0,1
204139870,204139854,2228234,-0.0085521145,0.01954769,0.018325958,35.0,0,1
204240619,204240602,2228234,0.015882498,0.017104229,0.032986727,35.0,0,1
204338570,204338554,2228234,0.0036651918,0.032986727,0.028099803,35.0,0,1
204440037,204440021,2228234,0.029321535,0.020769421,0.018325958,35.0,0,1
204540086,204540070,2228234,-0.006108653,0.020769421,0.030543266,35.0,0,1
204635130,204635114,2228234,0.020769421,0.017104229,0.01954769,35.0,0,1
204737658,204737642,2228234,-0.0036651918,0.014660767,0.03543019,35.0,0,1
204840235,204840219,2228234,0.012217306,0.01954769,0.018325958,35.0,0,1
204940620,204940604,2228234,0.012217306,0.01954769,0.0085521145,35.0,0,1
205040319,205040303,2228234,0.0048869224,0.023212882,0.029321535,35.0,0,1
205140431,205140415,2228234,0.009773845,0.009773845,0.028099803,35.0,0,1
205239484,205239468,2228234,0.0036651918,0.02199115,0.023212882,35.0,0,1
205336711,205336695,2228234,0.014660767,0.013439037,0.028099803,35.0,0,1
205438020,205438004,2228234,0.024434611,0.02199115,0.030543266,35.0,0,1
205540553,205540536,2228234,0.0,0.030543266,0.025656343,35.0,0,1
205640624,205640608,2228234,0.014660767,0.024434611,0.026878074,35.0,0,1
205739256,205739240,2228234,0.0085521145,0.02199115,0.020769421,35.0,0,1
205840684,205840668,2228234,0.0085521145,0.018325958,0.034208458,35.0,0,1
205937317,205937300,2228234,0.012217306,0.024434611,0.02199115,35.0,0,1
206035800,206035784,2228234,0.0073303836,0.010995575,0.024434611,35.0,0,1
206138344,206138328,2228234,0.017104229,0.015882498,0.018325958,35.0,0,1
206240910,206240894,2228234,0.0036651918,0.020769421,0.025656343,35.0,0,1
206339857,206339841,2228234,0.014660767,0.030543266,0.030543266,35.0,0,1
206439987,206439971,2228234,0.017104229,0.023212882,0.03543019,35.0,0,1
206541056,206541040,2228234,0.017104229,0.031764995,0.036651917,35.0,0,1
206638586,206638569,2228234,0.015882498,0.025656343,0.024434611,35.0,0,1
206737400,206737379,2228234,-0.026878074,0.052534416,0.037873648,35.0,0,1
206838703,206838683,2228234,0.0,0.026878074,0.025656343,35.0,0,1
206941238,206941222,2228234,0.017104229,0.015882498,0.018325958,35.0,0,1
207038767,207038751,2228234,-0.009773845,0.031764995,0.0,35.0,0,1
207138841,207138825,2228234,-0.013439037,0.024434611,0.029321535,35.0,0,1
207241358,207241342,2228234,0.014660767,0.03909538,0.032986727,35.0,0,1
207338001,207337985,2228234,0.0085521145,0.052534416,0.024434611,35.0,0,1
207436483,207436467,2228234,0.031764995,0.015882498,0.02199115,35.0,0,1
207537489,207537472,2228234,0.0012217306,0.024434611,0.04031711,35.0,0,1
207636869,207636850,2228234,0.034208458,0.010995575,0.030543266,35.0,0,1
207740543,207740524,2228234,0.0036651918,0.031764995,0.030543266,35.0,0,1
207839157,207839141,2228234,0.034208458,0.018325958,0.03909538,35.0,0,1
207941739,207941723,2228234,-0.0085521145,0.009773845,0.029321535,35.0,0,1
208039258,208039242,2228234,0.017104229,0.03909538,0.0085521145,35.0,0,1
208138085,208138068,2228234,0.0073303836,0.0012217306,0.0073303836,35.0,0,1
208237466,208237449,2228234,0.01954769,0.032986727,-0.0073303836,35.0,0,1
208339408,208339391,2228234,0.012217306,0.030543266,0.020769421,35.0,0,1
208439457,208439441,2228234,0.023212882,0.047647495,0.06108653,35.0,0,1
208537766,208537750,2228234,-0.0012217306,0.041538842,0.01954769,35.0,0,1
208642038,208642022,2228234,0.036651917,0.013439037,0.036651917,35.0,0,1
208737124,208737108,2228234,-0.009773845,0.045204032,0.037873648,35.0,0,1
208837148,208837132,2228234,0.04031711,0.014660767,-0.0073303836,35.0,0,1
208938166,208938149,2228234,-0.0073303836,0.013439037,-0.0024434612,35.0,0,1
209039745,209039729,2228234,0.04031711,0.020769421,0.014660767,35.0,0,1
209138369,209138353,2228234,0.09407326,0.0073303836,0.017104229,35.0,0,1
209238465,209238449,2228234,0.006108653,0.015882498,0.018325958,35.0,0,1
209342449,209342426,2228234,0.0048869224,0.050090954,0.030543266,35.0,0,1
209437444,209437427,2228234,-0.0024434612,0.05497788,0.06108653,35.0,0,1
209538765,209538749,2228234,-0.014660767,0.024434611,0.0598648,35.0,0,1
209637545,209637529,2228234,0.03909538,0.0073303836,0.0048869224,35.0,0,1
209738966,209738950,2228234,-0.0073303836,0.014660767,0.010995575,35.0,0,1
209840123,209840107,2228234,-0.006108653,0.026878074,0.034208458,35.0,0,1
209938464,209938447,2228234,0.0598648,0.037873648,0.06475172,35.0,0,1
210039282,210039260,2228234,0.012217306,0.025656343,0.0439823,35.0,0,1
210136517,210136501,2228234,0.052534416,-0.006108653,0.020769421,35.0,0,1
210238754,210238735,2228234,-0.068416916,0.013439037,0.024434611,35.0,0,1
210337865,210337849,2228234,0.07086038,0.0048869224,0.09407326,35.0,0,1
210440425,210440408,2228234,-0.017104229,0.0085521145,-0.02199115,35.0,0,1
210539054,210539038,2228234,0.048869222,0.034208458,0.046425764,35.0,0,1
210639151,210639135,2228234,0.030543266,0.048869222,0.08674287,36.0,0,1
210738536,210738520,2228234,-0.017104229,0.017104229,-0.030543266,36.0,0,1
210834349,210834329,2228234,-0.08185595,0.0085521145,0.046425764,36.0,0,1
210939467,210939448,2228234,0.009773845,0.030543266,0.020769421,36.0,0,1
211038212,211038196,2228234,0.026878074,0.009773845,0.0024434612,36.0,0,1
211135752,211135736,2228234,0.0048869224,0.014660767,-0.012217306,36.0,0,1
211240803,211240787,2228234,0.014660767,0.046425764,0.05864307,36.0,0,1
211339136,211339120,2228234,0.009773845,0.009773845,0.04276057,36.0,0,1
211439242,211439226,2228234,0.02199115,0.018325958,0.047647495,36.0,0,1
211535957,211535941,2228234,0.014660767,0.020769421,0.04031711,36.0,0,1
211639466,211639450,2228234,-0.0073303836,0.0085521145,0.018325958,36.0,0,1
211738562,211738546,2228234,0.015882498,0.023212882,0.029321535,36.0,0,1
211841097,211841080,2228234,0.0036651918,0.0439823,0.01954769,36.0,0,1
211941144,211941123,2228234,0.006108653,0.028099803,0.020769421,36.0,0,1
212038687,212038671,2228234,-0.0012217306,0.025656343,0.037873648,36.0,0,1
212141307,212141288,2228234,0.029321535,0.012217306,0.047647495,36.0,0,1
212235034,212235018,2228234,0.015882498,0.006108653,-0.015882498,36.0,0,1
212340139,212340120,2228234,0.12095133,0.012217306,-0.015882498,36.0,0,1
212438886,212438870,2228234,0.051312685,0.10140364,-0.0024434612,36.0,0,1
212538935,212538919,2228234,-0.09651672,-0.107512295,0.052534416,36.0,0,1
212637576,212637560,2228234,0.034208458,0.02199115,0.08063422,36.0,0,1
212739043,212739027,2228234,0.0012217306,0.052534416,0.051312685,35.0,0,1
212840641,212840620,2228234,0.026878074,0.018325958,0.047647495,35.0,0,1
212934134,212934118,2228234,-0.045204032,0.031764995,0.015882498,35.0,0,1
213040124,213040105,2228234,0.053756148,0.018325958,0.0036651918,35.0,0,1
213137367,213137344,2228234,-0.010995575,0.01954769,0.05497788,35.0,0,1
213238192,213238176,2228234,0.01954769,0.012217306,0.053756148,35.0,0,1
213338279,213338262,2228234,0.013439037,0.020769421,-0.0073303836,35.0,0,1
213437698,213437681,2228234,0.020769421,0.020769421,-0.015882498,35.0,0,1
213539496,213539479,2228234,0.009773845,0.029321535,0.018325958,35.0,0,1
213635722,213635706,2228234,0.010995575,0.017104229,0.041538842,35.0,0,1
213739554,213739538,2228234,-0.0024434612,0.028099803,-0.0024434612,35.0,0,1
213837092,213837076,2228234,0.020769421,0.028099803,-0.057421338,35.0,0,1
213936019,213935999,2228234,0.0073303836,0.025656343,-0.026878074,35.0,0,1
214041124,214041108,2228234,0.02199115,0.009773845,0.020769421,35.0,0,1
214139723,214139707,2228234,0.015882498,0.023212882,-0.0073303836,35.0,0,1
214239894,214239875,2228234,0.0048869224,0.009773845,-0.023212882,35.0,0,1
214335702,214335686,2228234,0.032986727,0.020769421,0.02199115,35.0,0,1
214439859,214439843,2228234,-0.010995575,0.046425764,0.03543019,35.0,0,1
214538048,214538031,2228234,0.020769421,0.0,0.0,35.0,0,1
214637472,214637456,2228234,-0.010995575,0.020769421,-0.0085521145,35.0,0,1
214741110,214741090,2228234,0.018325958,0.052534416,0.023212882,35.0,0,1
214840064,214840048,2228234,0.006108653,0.012217306,0.031764995,35.0,0,1
214937612,214937596,2228234,0.03909538,0.0085521145,0.04031711,35.0,0,1
215037648,215037631,2228234,-0.017104229,0.026878074,-0.0048869224,35.0,0,1
215140203,215140187,2228234,-0.0036651918,0.050090954,0.013439037,35.0,0,1
215236605,215236589,2228234,0.013439037,0.029321535,-0.031764995,35.0,0,1
215337794,215337778,2228234,0.02199115,0.020769421,0.034208458,35.0,0,1
215441094,215441078,2228234,0.0012217306,0.0073303836,-0.06597345,35.0,0,1
215538333,215538314,2228234,-0.006108653,0.032986727,0.0048869224,35.0,0,1
215639192,215639176,2228234,0.032986727,0.03543019,0.0720821,35.0,0,1
215736391,215736369,2228234,0.017104229,0.0439823,0.030543266,35.0,0,1
215840549,215840533,2228234,0.017104229,0.029321535,0.05497788,35.0,0,1
215938136,215938120,2228234,-0.0012217306,0.048869222,0.10262537,35.0,0,1
216038153,216038126,2228234,0.025656343,0.02199115,0.0598648,35.0,0,1
216140723,216140707,2228234,0.025656343,0.03909538,-0.048869222,35.0,0,1
216239749,216239733,2228234,-0.006108653,0.009773845,0.037873648,35.0,0,1
216340826,216340809,2228234,-0.006108653,0.01954769,0.009773845,35.0,0,1
216438336,216438320,2228234,0.028099803,0.05497788,-0.024434611,35.0,0,1
216540897,216540881,2228234,-0.1197296,0.03909538,0.056199607,35.0,0,1
216637286,216637270,2228234,0.06230826,0.07086038,0.1197296,35.0,0,1
216739531,216739515,2228234,-0.012217306,0.014660767,0.0036651918,35.0,0,1
216841068,216841052,2228234,0.0024434612,-0.013439037,0.051312685,35.0,0,1
216937586,216937570,2228234,0.024434611,0.0048869224,0.03909538,35.0,0,1
217039834,217039817,2228234,0.0,0.009773845,0.048869222,35.0,0,1
217138681,217138665,2228234,-0.02199115,0.030543266,0.04031711,35.0,0,1
217241232,217241216,2228234,0.034208458,0.013439037,0.010995575,35.0,0,1
217336299,217336283,2228234,0.025656343,0.015882498,0.030543266,35.0,0,1
217438831,217438815,2228234,-0.075747296,0.06230826,0.07696903,35.0,0,1
217541420,217541404,2228234,0.083077684,0.010995575,0.08063422,35.0,0,1
217638958,217638942,2228234,-0.020769421,0.046425764,0.028099803,35.0,0,1
217738973,217738951,2228234,0.030543266,0.031764995,0.067195185,35.0,0,1
217839023,217839007,2228234,0.010995575,0.023212882,0.014660767,35.0,0,1
217940019,217940003,2228234,0.020769421,0.014660767,0.013439037,35.0,0,1
218036632,218036616,2228234,0.02199115,0.017104229,0.025656343,36.0,0,1
218139176,218139160,2228234,0.0073303836,0.03909538,0.02199115,36.0,0,1
218240316,218240300,2228234,0.032986727,0.024434611,0.04031711,36.0,0,1
218338271,218338255,2228234,-0.032986727,0.050090954,0.06108653,36.0,0,1
218440519,218440502,2228234,0.045204032,0.014660767,0.05864307,36.0,0,1
218539366,218539350,2228234,-0.0024434612,0.04031711,-0.0012217306,36.0,0,1
218640010,218639988,2228234,-0.0073303836,0.028099803,-0.012217306,36.0,0,1
218735811,218735795,2228234,0.032986727,0.02199115,-0.006108653,36.0,0,1
218839525,218839509,2228234,0.013439037,0.024434611,0.034208458,36.0,0,1
218942099,218942083,2228234,0.0048869224,0.006108653,0.028099803,36.0,0,1
219039639,219039623,2228234,-0.009773845,0.01954769,0.031764995,36.0,0,1
219139661,219139644,2228234,0.0012217306,0.053756148,0.10506883,35.0,0,1
219238467,219238451,2228234,0.014660767,0.01954769,0.050090954,35.0,0,1
219337844,219337828,2228234,0.051312685,0.010995575,0.048869222,35.0,0,1
219434803,219434787,2228234,0.024434611,0.0073303836,0.018325958,35.0,0,1
219539858,219539841,2228234,-0.052534416,0.07819076,-0.046425764,35.0,0,1
219641001,219640985,2228234,0.041538842,0.014660767,0.11728614,35.0,0,1
219737463,219737446,2228234,-0.047647495,0.08063422,0.08552114,35.0,0,1
219841219,219841200,2228234,0.009773845,-0.013439037,-0.0085521145,35.0,0,1
219938482,219938463,2228234,-0.06963865,0.048869222,0.06475172,35.0,0,1
220040099,220040083,2228234,0.1392773,0.04031711,0.068416916,35.0,0,1
220135150,220135134,2228234,-0.053756148,0.029321535,0.031764995,35.0,0,1
220240201,220240185,2228234,0.014660767,0.0085521145,-0.010995575,35.0,0,1
220342781,220342764,2228234,0.036651917,0.020769421,0.0085521145,35.0,0,1
220437820,220437804,2228234,-0.0012217306,0.0439823,0.07330383,35.0,0,1
220540338,220540322,2228234,0.031764995,0.030543266,0.03543019,35.0,0,1
220638466,220638450,2228234,0.017104229,0.04031711,0.031764995,35.0,0,1
220740477,220740461,2228234,0.02199115,0.036651917,0.037873648,35.0,0,1
220835499,220835483,2228234,0.032986727,0.006108653,0.057421338,35.0,0,1
220938729,220938710,2228234,0.017104229,0.030543266,-0.0085521145,35.0,0,1
221040650,221040631,2228234,-0.041538842,0.036651917,0.024434611,35.0,0,1
221135673,221135657,2228234,-0.0439823,0.04031711,0.012217306,35.0,0,1
221240704,221240688,2228234,-0.067195185,0.046425764,-0.048869222,36.0,0,1
221338270,221338254,2228234,0.08185595,0.017104229,0.01954769,36.0,0,1
221440790,221440774,2228234,0.05497788,0.023212882,0.08185595,36.0,0,1
221537186,221537166,2228234,-0.030543266,0.052534416,0.097738445,36.0,0,1
221639466,221639450,2228234,0.037873648,0.023212882,-0.0012217306,36.0,0,1
221736669,221736650,2228234,0.010995575,0.0073303836,0.0012217306,36.0,0,1
221838493,221838477,2228234,0.0085521145,0.026878074,0.057421338,36.0,0,1
221941026,221941010,2228234,0.013439037,0.01954769,0.03909538,36.0,0,1
222038582,222038566,2228234,0.0073303836,0.020769421,0.020769421,36.0,0,1
222141153,222141137,2228234,0.012217306,0.025656343,0.031764995,36.0,0,1
222237165,222237149,2228234,0.02199115,0.012217306,0.041538842,36.0,0,1
222339420,222339401,2228234,0.057421338,0.012217306,0.024434611,35.0,0,1
222438775,222438753,2228234,-0.0024434612,0.025656343,0.013439037,35.0,0,1
222536347,222536331,2228234,0.029321535,0.012217306,0.07819076,35.0,0,1
222639714,222639698,2228234,0.014660767,0.017104229,0.036651917,35.0,0,1
222738961,222738941,2228234,0.07086038,0.018325958,-0.056199607,35.0,0,1
222841497,222841481,2228234,-0.02199115,0.052534416,0.09529499,35.0,0,1
222936548,222936531,2228234,-0.006108653,0.026878074,0.037873648,35.0,0,1
223037251,223037234,2228234,0.06963865,0.012217306,-0.037873648,35.0,0,1
223138078,223138059,2228234,0.0073303836,0.014660767,0.013439037,35.0,0,1
223238166,223238149,2228234,0.013439037,0.0024434612,0.0024434612,35.0,0,1
223340415,223340399,2228234,0.02199115,0.012217306,0.052534416,35.0,0,1
223439276,223439260,2228234,0.006108653,0.02199115,0.052534416,36.0,0,1
223539326,223539310,2228234,0.010995575,0.029321535,0.020769421,36.0,0,1
223637850,223637834,2228234,0.030543266,0.030543266,0.018325958,36.0,0,1
223739432,223739416,2228234,-0.037873648,0.034208458,0.04031711,36.0,0,1
223840914,223840898,2228234,0.037873648,0.01954769,0.0073303836,36.0,0,1
223938150,223938134,2228234,-0.0048869224,0.006108653,0.0036651918,36.0,0,1
224040404,224040387,2228234,0.0085521145,0.0012217306,-0.048869222,36.0,0,1
224139636,224139620,2228234,-0.0024434612,0.052534416,-0.03543019,36.0,0,1
224237159,224237143,2228234,0.03909538,0.010995575,0.0012217306,36.0,0,1
224339730,224339710,2228234,-0.030543266,-0.015882498,0.0085521145,36.0,0,1
224439791,224439775,2228234,-0.009773845,0.0073303836,-0.06963865,36.0,0,1
224542324,224542307,2228234,0.009773845,0.0073303836,-0.045204032,36.0,0,1
224638850,224638834,2228234,0.006108653,0.030543266,-0.051312685,36.0,0,1
224741096,224741080,2228234,-0.0024434612,0.010995575,-0.06475172,36.0,0,1
224839965,224839949,2228234,-0.013439037,0.024434611,-0.014660767,36.0,0,1
224936294,224936275,2228234,0.0048869224,0.009773845,-0.09285153,36.0,0,1
225037563,225037547,2228234,0.1441642,0.03909538,-0.084299415,36.0,0,1
225140104,225140088,2228234,0.083077684,0.1441642,0.15149459,36.0,0,1
225240888,225240865,2228234,-0.03909538,0.1795944,0.25656343,36.0,0,1
225338838,225338822,2228234,-0.03909538,-0.19914208,0.19303344,36.0,0,1
225440248,225440232,2228234,0.031764995,0.10873403,0.074525565,36.0,0,1
225540341,225540325,2228234,0.0439823,0.020769421,-0.030543266,36.0,0,1
225637845,225637829,2228234,0.08063422,-0.0073303836,-0.056199607,36.0,0,1
225737910,225737894,2228234,-0.026878074,0.0439823,0.01954769,36.0,0,1
225840495,225840479,2228234,0.015882498,0.017104229,0.083077684,36.0,0,1
225940537,225940520,2228234,0.006108653,0.020769421,0.06108653,36.0,0,1
226039542,226039520,2228234,-0.0036651918,0.02199115,0.018325958,36.0,0,1
226140626,226140610,2228234,0.010995575,0.018325958,-0.0024434612,36.0,0,1
226238149,226238133,2228234,0.010995575,0.024434611,0.01954769,36.0,0,1
226336976,226336960,2228234,0.025656343,0.030543266,0.053756148,36.0,0,1
226438254,226438238,2228234,0.0036651918,0.020769421,0.036651917,36.0,0,1
226540797,226540781,2228234,0.0085521145,0.013439037,0.0073303836,35.0,0,1
226638369,226638353,2228234,-0.010995575,0.014660767,0.02199115,35.0,0,1
226739525,226739504,2228234,0.0024434612,0.048869222,0.032986727,35.0,0,1
226840939,226840923,2228234,0.0036651918,-0.02199115,0.0012217306,35.0,0,1
226937581,226937565,2228234,0.0036651918,0.04276057,0.08063422,35.0,0,1
227038546,227038530,2228234,0.02199115,0.015882498,0.0598648,35.0,0,1
227138598,227138582,2228234,0.013439037,0.014660767,0.006108653,35.0,0,1
227241179,227241154,2228234,0.006108653,0.0073303836,-0.0036651918,35.0,0,1
227340124,227340105,2228234,0.03543019,0.014660767,0.006108653,35.0,0,1
227438784,227438764,2228234,0.006108653,0.018325958,0.048869222,35.0,0,1
227541347,227541328,2228234,0.020769421,0.02199115,0.07330383,35.0,0,1
227638838,227638822,2228234,-0.0036651918,0.017104229,0.056199607,36.0,0,1
227737661,227737645,2228234,0.0048869224,0.029321535,0.1038471,36.0,0,1
227837046,227837030,2228234,-0.0012217306,0.05497788,0.10873403,36.0,0,1
227937146,227937130,2228234,0.015882498,0.01954769,-0.0048869224,36.0,0,1
228037961,228037945,2228234,0.028099803,0.01954769,0.01954769,36.0,0,1
228139124,228139108,2228234,0.0036651918,0.03909538,0.041538842,36.0,0,1
228239594,228239577,2228234,0.018325958,0.017104229,-0.0012217306,36.0,0,1
228338266,228338250,2228234,0.0024434612,0.023212882,-0.041538842,36.0,0,1
228437649,228437633,2228234,0.013439037,0.024434611,0.068416916,36.0,0,1
228537749,228537733,2228234,0.0036651918,0.053756148,0.09285153,36.0,0,1
228639345,228639329,2228234,0.0048869224,0.07086038,0.056199607,36.0,0,1
228739391,228739368,2228234,-0.0085521145,-0.0024434612,-0.0439823,36.0,0,1
228839482,228839466,2228234,0.018325958,0.0012217306,-0.067195185,36.0,0,1
228942029,228942013,2228234,-0.014660767,0.050090954,0.041538842,36.0,0,1
229038249,229038229,2228234,0.048869222,0.030543266,0.13805556,36.0,0,1
229138346,229138330,2228234,-0.017104229,0.025656343,0.08552114,36.0,0,1
229237731,229237714,2228234,0.06230826,0.013439037,0.026878074,36.0,0,1
229338546,229338530,2228234,0.0073303836,0.013439037,0.08674287,36.0,0,1
229439771,229439755,2228234,-0.0085521145,0.032986727,0.1478294,36.0,0,1
229538031,229538014,2228234,0.02199115,0.018325958,0.098960176,36.0,0,1
229640279,229640262,2228234,-0.0085521145,0.018325958,0.0024434612,36.0,0,1
229738952,229738930,2228234,-0.0036651918,0.017104229,-0.0024434612,36.0,0,1
229838331,229838315,2228234,-0.015882498,0.024434611,0.0036651918,36.0,0,1
229937514,229937498,2228234,-0.0439823,0.02199115,-0.0024434612,36.0,0,1
230040035,230040019,2228234,0.0012217306,0.017104229,0.01954769,36.0,0,1
230140079,230140063,2228234,0.0012217306,0.017104229,-0.009773845,36.0,0,1
230238731,230238715,2228234,0.0073303836,0.0085521145,-0.014660767,36.0,0,1
230340179,230340163,2228234,-0.009773845,0.056199607,-0.0012217306,36.0,0,1
230437732,230437716,2228234,0.017104229,0.03909538,0.012217306,36.0,0,1
230540301,230540285,2228234,-0.0036651918,0.0024434612,-0.014660767,36.0,0,1
230637825,230637809,2228234,0.028099803,0.04031711,0.037873648,36.0,0,1
230739231,230739215,2228234,0.029321535,0.03543019,0.107512295,36.0,0,1
230840466,230840450,2228234,0.03909538,0.01954769,0.045204032,36.0,0,1
230938716,230938699,2228234,0.06230826,-0.0085521145,0.01954769,36.0,0,1
231039534,231039518,2228234,0.0,-0.006108653,0.046425764,36.0,0,1
231136774,231136758,2228234,0.01954769,0.014660767,0.020769421,36.0,0,1
231239028,231239011,2228234,0.10262537,0.015882498,0.057421338,36.0,0,1
231338211,231338195,2228234,0.0036651918,0.017104229,0.0048869224,36.0,0,1
231438280,231438261,2228234,0.048869222,0.029321535,0.057421338,36.0,0,1
231539319,231539300,2228234,0.0439823,0.025656343,0.07330383,36.0,0,1
231639466,231639450,2228234,-0.013439037,0.024434611,-0.07696903,36.0,0,1
231740874,231740858,2228234,-0.0085521145,0.018325958,-0.106290564,36.0,0,1
231838439,231838416,2228234,0.0085521145,0.012217306,-0.0036651918,36.0,0,1
231939718,231939702,2228234,0.0085521145,0.012217306,0.050090954,36.0,0,1
232038529,232038513,2228234,0.014660767,0.036651917,0.036651917,36.0,0,1
232138597,232138581,2228234,0.036651917,-0.0048869224,0.010995575,36.0,0,1
232241146,232241130,2228234,0.0085521145,0.025656343,0.08185595,36.0,0,1
232338677,232338661,2228234,0.010995575,0.057421338,0.06963865,36.0,0,1
232440216,232440200,2228234,0.020769421,0.006108653,0.037873648,36.0,0,1
232538774,232538754,2228234,0.028099803,0.02199115,0.036651917,36.0,0,1
232639705,232639689,2228234,-0.006108653,0.030543266,0.020769421,36.0,0,1
232738897,232738881,2228234,-0.024434611,0.025656343,0.046425764,36.0,0,1
232837759,232837743,2228234,0.0012217306,0.034208458,0.006108653,36.0,0,1
232941487,232941471,2228234,0.037873648,0.02199115,-0.006108653,36.0,0,1
233039047,233039031,2228234,0.0073303836,0.02199115,0.015882498,36.0,0,1
233141578,233141562,2228234,0.041538842,0.014660767,0.020769421,36.0,0,1
233238160,233238139,2228234,0.074525565,0.015882498,0.017104229,36.0,0,1
233340409,233340390,2228234,-0.024434611,0.026878074,0.023212882,36.0,0,1
233436929,233436913,2228234,-0.0048869224,0.04276057,0.013439037,36.0,0,1
233535602,233535582,2228234,-0.017104229,0.014660767,-0.0024434612,36.0,0,1
233637843,233637827,2228234,-0.057421338,0.03543019,0.01954769,36.0,0,1
233739368,233739352,2228234,-0.032986727,0.053756148,0.01954769,36.0,0,1
233839461,233839445,2228234,-0.013439037,0.028099803,0.037873648,36.0,0,1
233938150,233938132,2228234,0.029321535,0.017104229,0.056199607,36.0,0,1
234039535,234039519,2228234,-0.0036651918,0.018325958,0.018325958,36.0,0,1
234139591,234139575,2228234,0.020769421,0.017104229,0.029321535,36.0,0,1
234237124,234237108,2228234,0.0036651918,0.023212882,0.034208458,36.0,0,1
234340686,234340670,2228234,0.030543266,0.026878074,0.013439037,36.0,0,1
234439745,234439729,2228234,-0.0439823,0.037873648,0.0036651918,36.0,0,1
234539798,234539779,2228234,0.0073303836,0.020769421,0.04031711,36.0,0,1
234637349,234637333,2228234,0.01954769,0.024434611,0.029321535,36.0,0,1
234739940,234739923,2228234,-0.0024434612,0.028099803,0.037873648,36.0,0,1
234837618,234837601,2228234,0.046425764,0.01954769,0.031764995,36.0,0,1
234937511,234937495,2228234,0.024434611,0.025656343,-0.0598648,36.0,0,1
235041387,235041370,2228234,0.017104229,0.02199115,-0.010995575,36.0,0,1
235135801,235135785,2228234,0.010995575,0.029321535,0.01954769,36.0,0,1
235237647,235237631,2228234,0.023212882,0.037873648,0.050090954,36.0,0,1
235338826,235338810,2228234,0.07941249,0.017104229,0.11239921,36.0,0,1
235440211,235440195,2228234,-0.047647495,0.036651917,0.12950344,36.0,0,1
235535313,235535297,2228234,0.0720821,0.023212882,0.091629796,36.0,0,1
235636311,235636294,2228234,-0.034208458,0.041538842,0.0073303836,36.0,0,1
235741374,235741358,2228234,0.029321535,0.02199115,-0.009773845,36.0,0,1
235840455,235840439,2228234,0.0024434612,0.037873648,0.030543266,36.0,0,1
235939475,235939459,2228234,0.020769421,0.025656343,0.06230826,36.0,0,1
236038053,236038037,2228234,0.023212882,0.018325958,0.036651917,36.0,0,1
236140597,236140580,2228234,0.0048869224,0.029321535,0.006108653,36.0,0,1
236235625,236235609,2228234,0.01954769,0.014660767,0.029321535,36.0,0,1
236338200,236338184,2228234,-0.0024434612,0.031764995,0.050090954,36.0,0,1
236440716,236440700,2228234,0.01954769,0.02199115,0.025656343,36.0,0,1
236538598,236538582,2228234,0.010995575,0.018325958,0.013439037,36.0,0,1
236638348,236638332,2228234,0.028099803,0.026878074,0.024434611,36.0,0,1
236738399,236738380,2228234,0.020769421,0.01954769,0.03909538,36.0,0,1
236838896,236838880,2228234,0.020769421,0.015882498,0.017104229,36.0,0,1
236935995,236935979,2228234,-0.006108653,0.034208458,0.01954769,36.0,0,1
237038522,237038506,2228234,0.029321535,0.015882498,0.034208458,36.0,0,1
237141067,237141051,2228234,0.0073303836,0.026878074,0.03543019,36.0,0,1
237238626,237238610,2228234,0.014660767,0.017104229,0.023212882,36.0,0,1
237338667,237338650,2228234,0.0012217306,0.024434611,0.018325958,36.0,0,1
237438751,237438729,2228234,0.026878074,0.02199115,0.037873648,36.0,0,1
237541308,237541292,2228234,0.018325958,0.03543019,0.031764995,36.0,0,1
237636341,237636325,2228234,0.01954769,0.024434611,0.026878074,36.0,0,1
237738906,237738880,2228234,0.0085521145,0.029321535,0.034208458,36.0,0,1
237841440,237841413,2228234,0.0073303836,0.032986727,0.032986727,36.0,0,1
237937920,237937904,2228234,0.014660767,0.024434611,0.029321535,36.0,0,1
238039040,238039024,2228234,0.02199115,0.020769421,0.020769421,36.0,0,1
238137339,238137323,2228234,0.02199115,0.014660767,0.031764995,36.0,0,1
238239583,238239567,2228234,0.017104229,0.028099803,0.031764995,36.0,0,1
238338256,238338240,2228234,0.0085521145,0.029321535,0.028099803,36.0,0,1
238437636,238437619,2228234,0.01954769,0.02199115,0.02199115,36.0,0,1
238537739,238537723,2228234,0.017104229,0.036651917,0.024434611,36.0,0,1
238639331,238639315,2228234,0.015882498,0.025656343,0.031764995,36.0,0,1
238739371,238739355,2228234,-0.0012217306,0.017104229,0.03543019,36.0,0,1
238838036,238838020,2228234,0.012217306,0.017104229,0.023212882,36.0,0,1
238939499,238939476,2228234,0.012217306,0.02199115,0.031764995,36.0,0,1
239038236,239038219,2228234,0.018325958,0.013439037,0.032986727,36.0,0,1
239139596,239139580,2228234,0.0073303836,0.024434611,0.018325958,36.0,0,1
239240586,239240570,2228234,0.013439037,0.018325958,0.029321535,36.0,0,1
239337170,239337151,2228234,0.0085521145,0.029321535,0.031764995,36.0,0,1
239440784,239440765,2228234,0.023212882,0.017104229,0.030543266,36.0,0,1
239538021,239538005,2228234,0.017104229,0.024434611,0.01954769,36.0,0,1
239638836,239638820,2228234,0.017104229,0.025656343,0.025656343,36.0,0,1
239738942,239738920,2228234,0.006108653,0.030543266,0.046425764,36.0,0,1
239839919,239839903,2228234,0.010995575,0.026878074,0.03909538,36.0,0,1
239940573,239940550,2228234,0.013439037,0.023212882,0.01954769,36.0,0,1
240037551,240037535,2228234,0.0073303836,0.031764995,0.01954769,36.0,0,1
240140071,240140054,2228234,0.009773845,0.018325958,0.034208458,36.0,0,1
240238724,240238708,2228234,0.017104229,0.023212882,0.028099803,36.0,0,1
240340165,240340149,2228234,0.0048869224,0.024434611,0.020769421,36.0,0,1
240437760,240437744,2228234,0.0073303836,0.020769421,0.023212882,36.0,0,1
240539024,240539007,2228234,0.012217306,0.023212882,0.032986727,36.0,0,1
240641269,240641253,2228234,0.013439037,0.029321535,0.032986727,36.0,0,1
240735385,240735361,2228234,0.010995575,0.026878074,0.020769421,36.0,0,1
240837932,240837910,2228234,0.018325958,0.025656343,0.023212882,36.0,0,1
240937975,240937952,2228234,0.006108653,0.018325958,0.037873648,36.0,0,1
241039520,241039504,2228234,0.014660767,0.018325958,0.030543266,36.0,0,1
241138144,241138128,2228234,0.018325958,0.015882498,0.018325958,36.0,0,1
241239008,241238992,2228234,0.020769421,0.030543266,0.028099803,36.0,0,1
241340674,241340657,2228234,0.006108653,0.020769421,0.03543019,36.0,0,1
241437064,241437048,2228234,0.014660767,0.023212882,0.031764995,36.0,0,1
241540773,241540757,2228234,0.0073303836,0.025656343,0.028099803,36.0,0,1
241638343,241638327,2228234,0.028099803,0.024434611,0.026878074,36.0,0,1
241740885,241740869,2228234,0.024434611,0.02199115,0.030543266,36.0,0,1
241838487,241838468,2228234,0.012217306,0.026878074,0.028099803,36.0,0,1
241939712,241939693,2228234,0.023212882,0.024434611,0.02199115,36.0,0,1
242038546,242038530,2228234,0.014660767,0.025656343,0.037873648,36.0,0,1
242134904,242134888,2228234,0.0024434612,0.015882498,0.028099803,36.0,0,1
242238632,242238610,2228234,0.020769421,0.034208458,0.029321535,36.0,0,1
242338678,242338662,2228234,0.012217306,0.024434611,0.034208458,36.0,0,1
242438735,242438719,2228234,0.01954769,0.015882498,0.028099803,36.0,0,1
242537467,242537449,2228234,0.036651917,0.0036651918,0.01954769,36.0,0,1
242639694,242639678,2228234,0.036651917,0.013439037,0.0,36.0,0,1
242738874,242738858,2228234,0.0036651918,0.02199115,0.04031711,36.0,0,1
242836437,242836421,2228234,-0.0012217306,0.018325958,0.026878074,36.0,0,1
242939991,242939975,2228234,0.032986727,0.009773845,0.009773845,36.0,0,1
243039022,243039006,2228234,0.0085521145,0.014660767,0.029321535,36.0,0,1
243138058,243138030,2228234,0.024434611,0.018325958,0.028099803,36.0,0,1
243239166,243239150,2228234,-0.06597345,0.037873648,-0.031764995,36.0,0,1
243339184,243339168,2228234,-0.012217306,0.031764995,0.07941249,36.0,0,1
243439231,243439215,2228234,-0.03909538,0.024434611,0.014660767,36.0,0,1
243536776,243536760,2228234,0.028099803,0.026878074,0.006108653,36.0,0,1
243639982,243639966,2228234,0.010995575,0.031764995,0.06230826,36.0,0,1
243739393,243739366,2228234,-0.0085521145,0.053756148,0.07941249,36.0,0,1
243836932,243836916,2228234,0.0439823,0.012217306,0.041538842,36.0,0,1
243937008,243936992,2228234,0.01954769,0.01954769,-0.0048869224,36.0,0,1
244039540,244039524,2228234,0.023212882,0.018325958,0.017104229,36.0,0,1
244139761,244139745,2228234,0.015882498,0.020769421,0.056199607,36.0,0,1
244237137,244237121,2228234,0.028099803,0.01954769,0.051312685,36.0,0,1
244340679,244340663,2228234,0.0048869224,0.026878074,0.0024434612,36.0,0,1
244439731,244439715,2228234,0.017104229,0.023212882,0.0085521145,36.0,0,1
244537300,244537284,2228234,0.024434611,0.017104229,0.045204032,36.0,0,1
244639876,244639860,2228234,0.018325958,0.01954769,0.037873648,36.0,0,1
244739883,244739867,2228234,0.013439037,0.020769421,0.020769421,36.0,0,1
244842471,244842455,2228234,0.0085521145,0.0073303836,0.01954769,36.0,0,1
244938465,244938449,2228234,0.014660767,0.017104229,0.037873648,36.0,0,1
245040057,245040041,2228234,0.0036651918,0.015882498,0.034208458,36.0,0,1
245140086,245140070,2228234,0.010995575,0.02199115,0.02199115,36.0,0,1
245237631,245237615,2228234,0.01954769,0.015882498,0.031764995,36.0,0,1
245337719,245337698,2228234,0.018325958,0.028099803,0.047647495,36.0,0,1
245440233,245440217,2228234,0.018325958,0.028099803,0.032986727,36.0,0,1
245540303,245540284,2228234,0.012217306,0.020769421,0.017104229,36.0,0,1
245639116,245639100,2228234,0.0036651918,0.017104229,0.032986727,36.0,0,1
245740409,245740393,2228234,0.026878074,0.017104229,0.03909538,36.0,0,1
245839316,245839299,2228234,0.01954769,0.01954769,0.026878074,36.0,0,1
245937993,245937977,2228234,0.014660767,0.020769421,0.023212882,36.0,0,1
246038038,246038022,2228234,0.013439037,0.01954769,0.03543019,36.0,0,1
246140592,246140576,2228234,0.013439037,0.020769421,0.034208458,36.0,0,1
246239722,246239706,2228234,0.02199115,0.020769421,0.025656343,36.0,0,1
246339100,246339084,2228234,0.012217306,0.015882498,0.03543019,36.0,0,1
246440750,246440734,2228234,0.0085521145,0.01954769,0.020769421,36.0,0,1
246537188,246537172,2228234,0.0073303836,0.018325958,0.023212882,36.0,0,1
246638338,246638322,2228234,0.017104229,0.020769421,0.025656343,36.0,0,1
246736688,246736672,2228234,0.015882498,0.018325958,0.030543266,36.0,0,1
246840940,246840924,2228234,0.013439037,0.014660767,0.03543019,36.0,0,1
246939704,246939688,2228234,0.0073303836,0.036651917,0.025656343,36.0,0,1
247036941,247036925,2228234,0.0012217306,0.030543266,0.020769421,36.0,0,1
247139188,247139172,2228234,0.017104229,0.014660767,0.024434611,36.0,0,1
247238652,247238635,2228234,0.006108653,0.026878074,0.024434611,36.0,0,1
247340109,247340093,2228234,0.018325958,0.017104229,0.026878074,36.0,0,1
247437341,247437324,2228234,0.015882498,0.015882498,0.02199115,36.0,0,1
247540303,247540284,2228234,-0.0012217306,0.020769421,0.023212882,36.0,0,1
247640419,247640397,2228234,0.028099803,0.015882498,0.04276057,36.0,0,1
247738898,247738882,2228234,0.0012217306,0.018325958,0.030543266,36.0,0,1
247841470,247841454,2228234,0.024434611,0.018325958,0.017104229,36.0,0,1
247936510,247936494,2228234,0.0012217306,0.018325958,0.03543019,36.0,0,1
248040087,248040070,2228234,0.01954769,0.017104229,0.036651917,36.0,0,1
248137330,248137310,2228234,0.0036651918,0.023212882,0.025656343,36.0,0,1
248238188,248238172,2228234,0.012217306,0.01954769,0.01954769,36.0,0,1
248338241,248338224,2228234,0.018325958,0.017104229,0.026878074,36.0,0,1
248439323,248439304,2228234,0.029321535,0.01954769,0.050090954,36.0,0,1
248541820,248541801,2228234,0.023212882,0.023212882,0.028099803,36.0,0,1
248636878,248636862,2228234,0.017104229,0.018325958,0.018325958,36.0,0,1
248740786,248740770,2228234,0.0048869224,0.02199115,0.030543266,36.0,0,1
248838029,248838013,2228234,0.01954769,0.018325958,0.034208458,36.0,0,1
248939558,248939542,2228234,0.006108653,0.015882498,0.018325958,37.0,0,1
249041091,249041075,2228234,0.012217306,0.023212882,0.03909538,37.0,0,1
249138326,249138310,2228234,0.01954769,0.02199115,0.041538842,37.0,0,1
249242173,249242157,2228234,0.0036651918,0.029321535,0.025656343,37.0,0,1
249337224,249337208,2228234,0.02199115,0.023212882,0.017104229,37.0,0,1
249439760,249439744,2228234,0.0073303836,0.028099803,0.029321535,37.0,0,1
249538014,249537998,2228234,0.024434611,0.04031711,0.037873648,37.0,0,1
249638829,249638812,2228234,0.0048869224,0.017104229,0.020769421,37.0,0,1
249741071,249741055,2228234,0.013439037,0.030543266,0.024434611,37.0,0,1
249839994,249839977,2228234,0.010995575,0.023212882,0.032986727,37.0,0,1
249940023,249940007,2228234,0.02199115,0.020769421,0.025656343,37.0,0,1
250036366,250036349,2228234,0.0012217306,0.020769421,0.028099803,36.0,0,1
250140116,250140100,2228234,0.012217306,0.034208458,0.030543266,36.0,0,1
250237666,250237649,2228234,0.0085521145,0.023212882,0.020769421,36.0,0,1
250337740,250337724,2228234,0.018325958,0.020769421,0.032986727,36.0,0,1
250442800,250442784,2228234,0.0073303836,0.024434611,0.029321535,36.0,0,1
250539011,250538994,2228234,0.014660767,0.02199115,0.025656343,36.0,0,1
250640415,250640399,2228234,0.018325958,0.02199115,0.023212882,36.0,0,1
250735426,250735410,2228234,0.01954769,0.02199115,0.025656343,36.0,0,1
250840483,250840467,2228234,0.014660767,0.024434611,0.023212882,36.0,0,1
250938033,250938017,2228234,0.0048869224,0.025656343,0.031764995,36.0,0,1
251039518,251039498,2228234,0.024434611,0.024434611,0.036651917,36.0,0,1
251140632,251140616,2228234,0.017104229,0.017104229,0.03543019,36.0,0,1
251238999,251238983,2228234,-0.106290564,0.026878074,0.053756148,36.0,0,1
251339816,251339800,2228234,0.10262537,0.014660767,0.0048869224,36.0,0,1
251435774,251435757,2228234,0.036651917,0.02199115,0.032986727,36.0,0,1
251540827,251540811,2228234,0.010995575,0.023212882,0.024434611,36.0,0,1
251638387,251638360,2228234,0.028099803,0.014660767,0.024434611,36.0,0,1
251738462,251738446,2228234,0.018325958,0.014660767,0.01954769,36.0,0,1
251840980,251840963,2228234,0.006108653,0.04031711,0.030543266,36.0,0,1
251938550,251938534,2228234,-0.017104229,0.029321535,0.028099803,36.0,0,1
252041105,252041088,2228234,0.04031711,0.026878074,0.020769421,36.0,0,1
252136131,252136115,2228234,0.034208458,0.018325958,0.030543266,36.0,0,1
252238729,252238713,2228234,0.056199607,0.037873648,0.041538842,36.0,0,1
252338741,252338725,2228234,-0.029321535,0.04276057,0.026878074,36.0,0,1
252436294,252436278,2228234,0.041538842,0.02199115,0.020769421,36.0,0,1
252541351,252541334,2228234,0.015882498,0.03909538,0.023212882,36.0,0,1
252638892,252638876,2228234,0.032986727,0.032986727,0.013439037,36.0,0,1
252740501,252740480,2228234,-0.0085521145,0.015882498,0.04031711,36.0,0,1
252836502,252836486,2228234,-0.17348574,0.045204032,0.048869222,36.0,0,1
252939984,252939968,2228234,0.024434611,0.032986727,0.036651917,36.0,0,1
253039083,253039067,2228234,0.029321535,0.034208458,0.018325958,36.0,0,1
253136639,253136623,2228234,-0.09651672,0.04031711,0.03543019,36.0,0,1
253237464,253237448,2228234,0.01954769,0.01954769,0.030543266,37.0,0,1
253339240,253339224,2228234,0.006108653,0.010995575,0.04031711,37.0,0,1
253441820,253441804,2228234,-0.03543019,0.026878074,0.036651917,37.0,0,1
253536835,253536819,2228234,-0.013439037,0.02199115,0.025656343,37.0,0,1
253639969,253639953,2228234,0.012217306,0.01954769,0.030543266,37.0,0,1
253737229,253737213,2228234,0.06230826,0.024434611,0.02199115,37.0,0,1
253836998,253836982,2228234,0.025656343,0.006108653,0.041538842,37.0,0,1
253940270,253940253,2228234,0.0024434612,0.020769421,0.041538842,37.0,0,1
254039600,254039583,2228234,0.023212882,0.0439823,0.04276057,37.0,0,1
254139678,254139662,2228234,0.014660767,0.02199115,0.031764995,37.0,0,1
254238467,254238451,2228234,-0.018325958,0.026878074,0.032986727,36.0,0,1
254339792,254339776,2228234,0.017104229,0.01954769,0.02199115,36.0,0,1
254438665,254438649,2228234,0.017104229,0.031764995,0.037873648,36.0,0,1
254537364,254537348,2228234,0.0085521145,0.010995575,0.028099803,36.0,0,1
254640968,254640950,2228234,0.010995575,0.015882498,0.025656343,36.0,0,1
254738962,254738946,2228234,-0.006108653,0.037873648,0.024434611,36.0,0,1
254839021,254839005,2228234,0.03543019,0.020769421,0.029321535,36.0,0,1
254938438,254938422,2228234,0.057421338,0.015882498,0.031764995,36.0,0,1
255040174,255040155,2228234,-0.014660767,0.037873648,0.020769421,36.0,0,1
255135162,255135146,2228234,0.0024434612,0.026878074,0.020769421,36.0,0,1
255237706,255237690,2228234,0.006108653,0.030543266,0.030543266,36.0,0,1
255340958,255340941,2228234,0.018325958,0.013439037,0.03909538,37.0,0,1
255438194,255438178,2228234,0.029321535,0.023212882,0.032986727,37.0,0,1
255537870,255537854,2228234,0.012217306,0.012217306,0.02199115,37.0,0,1
255639109,255639092,2228234,0.0,0.028099803,0.018325958,37.0,0,1
255740513,255740497,2228234,0.029321535,0.028099803,0.02199115,37.0,0,1
255835522,255835506,2228234,0.023212882,0.01954769,0.028099803,37.0,0,1
255938068,255938052,2228234,0.030543266,0.02199115,0.017104229,37.0,0,1
256040667,256040651,2228234,0.015882498,0.024434611,0.03909538,37.0,0,1
256138894,256138874,2228234,0.01954769,0.01954769,0.030543266,37.0,0,1
256239706,256239690,2228234,0.014660767,0.029321535,0.009773845,37.0,0,1
256338262,256338246,2228234,0.0085521145,0.024434611,0.026878074,37.0,0,1
256439937,256439921,2228234,0.0012217306,0.013439037,0.041538842,36.0,0,1
256533384,256533359,2228234,0.024434611,0.012217306,0.034208458,36.0,0,1
256639396,256639378,2228234,0.01954769,0.028099803,0.03543019,36.0,0,1
256741001,256740985,2228234,0.041538842,0.025656343,0.025656343,36.0,0,1
256841040,256841024,2228234,0.014660767,0.02199115,0.024434611,36.0,0,1
256938568,256938552,2228234,-0.0024434612,0.020769421,0.036651917,36.0,0,1
257036944,257036925,2228234,0.017104229,0.025656343,0.02199115,36.0,0,1
257141240,257141221,2228234,0.02199115,0.01954769,0.01954769,36.0,0,1
257234985,257234969,2228234,-0.012217306,0.030543266,0.034208458,36.0,0,1
257338786,257338770,2228234,0.032986727,0.02199115,0.020769421,36.0,0,1
257441367,257441351,2228234,0.009773845,0.017104229,0.028099803,37.0,0,1
257538883,257538867,2228234,0.032986727,0.015882498,0.026878074,37.0,0,1
257638931,257638909,2228234,0.032986727,0.02199115,0.036651917,37.0,0,1
257738976,257738960,2228234,-0.0036651918,0.024434611,0.024434611,37.0,0,1
257840598,257840578,2228234,0.012217306,0.01954769,0.032986727,37.0,0,1
257936587,257936571,2228234,0.0073303836,0.026878074,0.04276057,37.0,0,1
258039135,258039119,2228234,0.024434611,0.023212882,0.037873648,37.0,0,1
258141686,258141670,2228234,0.02199115,0.031764995,0.029321535,37.0,0,1
258238131,258238115,2228234,0.029321535,0.034208458,0.01954769,37.0,0,1
258340379,258340362,2228234,0.0036651918,0.023212882,0.025656343,37.0,0,1
258439334,258439318,2228234,0.017104229,0.020769421,0.02199115,37.0,0,1
258539861,258539844,2228234,0.0048869224,0.02199115,0.028099803,36.0,0,1
258635671,258635655,2228234,0.020769421,0.02199115,0.02199115,36.0,0,1
258739505,258739488,2228234,0.018325958,0.02199115,0.01954769,36.0,0,1
258842106,258842084,2228234,0.015882498,0.025656343,0.031764995,36.0,0,1
258935971,258935954,2228234,0.025656343,0.041538842,0.04031711,36.0,0,1
259041079,259041060,2228234,0.012217306,0.03543019,0.024434611,36.0,0,1
259138316,259138300,2228234,0.010995575,0.029321535,0.010995575,36.0,0,1
259239747,259239731,2228234,0.014660767,0.024434611,0.020769421,36.0,0,1
259338537,259338518,2228234,0.010995575,0.032986727,0.053756148,36.0,0,1
259439856,259439840,2228234,0.013439037,0.025656343,0.034208458,36.0,0,1
259540864,259540848,2228234,0.006108653,0.018325958,-0.0012217306,36.0,0,1
259637463,259637447,2228234,0.018325958,0.024434611,0.037873648,37.0,0,1
259740011,259739995,2228234,0.014660767,0.017104229,0.051312685,37.0,0,1
259838301,259838285,2228234,0.030543266,0.01954769,0.03909538,37.0,0,1
259939116,259939100,2228234,0.010995575,0.018325958,0.023212882,37.0,0,1
260037658,260037642,2228234,0.012217306,0.018325958,0.017104229,37.0,0,1
260140217,260140201,2228234,0.0024434612,0.041538842,0.03909538,37.0,0,1
260242789,260242772,2228234,0.029321535,0.01954769,0.041538842,37.0,0,1
260337805,260337789,2228234,0.009773845,0.01954769,0.032986727,37.0,0,1
260440372,260440350,2228234,0.034208458,0.020769421,0.01954769,37.0,0,1
260539004,260538988,2228234,0.013439037,0.01954769,0.030543266,37.0,0,1
260640476,260640460,2228234,0.034208458,0.018325958,0.047647495,37.0,0,1
260738038,260738022,2228234,0.0024434612,0.01954769,0.025656343,37.0,0,1
260839304,260839285,2228234,0.01954769,0.01954769,0.0085521145,37.0,0,1
260940618,260940602,2228234,-0.0036651918,0.028099803,0.034208458,37.0,0,1
261035667,261035651,2228234,0.037873648,0.03543019,0.041538842,37.0,0,1
261140722,261140700,2228234,-0.015882498,0.03543019,0.020769421,37.0,0,1
261238302,261238286,2228234,0.029321535,0.024434611,0.013439037,37.0,0,1
261339801,261339785,2228234,-0.006108653,0.017104229,0.03543019,37.0,0,1
261438368,261438352,2228234,0.048869222,0.024434611,0.047647495,37.0,0,1
261539286,261539270,2228234,0.04276057,0.017104229,0.0439823,37.0,0,1
261638493,261638477,2228234,-0.012217306,0.009773845,-0.012217306,37.0,0,1
261736027,261736011,2228234,0.07819076,-0.009773845,0.0012217306,36.0,0,1
261838639,261838620,2228234,0.050090954,-0.010995575,0.0085521145,36.0,0,1
261938653,261938633,2228234,-0.12217306,0.07086038,0.018325958,36.0,0,1
262038688,262038671,2228234,-0.13439037,0.12950344,-0.06597345,36.0,0,1
262137741,262137725,2228234,0.0720821,-0.19547689,-0.16004671,36.0,0,1
262239986,262239970,2228234,0.06597345,0.15149459,-0.10140364,36.0,0,1
262338855,262338839,2228234,-0.090408064,-0.06352999,0.0024434612,36.0,0,1
262435185,262435169,2228234,0.15393806,0.0,0.20158555,36.0,0,1
262540286,262540270,2228234,-0.013439037,0.0085521145,0.33719766,36.0,0,1
262638997,262638981,2228234,0.39828417,-0.056199607,0.4386013,36.0,0,1
262739041,262739024,2228234,0.041538842,-0.0073303836,0.58765244,36.0,0,1
262839097,262839081,2228234,0.267559,0.10140364,0.4752532,37.0,0,1
262939167,262939151,2228234,0.25778517,0.22602016,0.25411996,37.0,0,1
263039195,263039179,2228234,0.1478294,0.09407326,-0.045204032,37.0,0,1
263136740,263136724,2228234,-0.12217306,0.006108653,-0.5705482,37.0,0,1
263240271,263240255,2228234,0.2590069,-0.074525565,-0.9724976,37.0,0,1
263339352,263339336,2228234,0.707382,-0.21013767,-1.1569788,37.0,0,1
263438331,263438310,2228234,-0.14660767,0.14049903,-1.5125024,37.0,0,1
263539491,263539474,2228234,-0.5510005,-0.29077187,-1.2620478,37.0,0,1
263639553,263639537,2228234,-0.20891593,0.22602016,-1.8570305,37.0,0,1
263742055,263742039,2228234,-0.70860374,-0.28099805,-1.2437217,37.0,0,1
263835872,263835856,2228234,0.7464774,-0.43615782,-1.1068879,37.0,0,1
263940255,263940239,2228234,-0.36896265,0.2480113,0.22235496,37.0,0,1
264039727,264039710,2228234,0.07819076,0.4948009,1.0005974,37.0,0,1
264136169,264136150,2228234,-0.29688054,1.0592405,1.1227704,37.0,0,1
264239812,264239790,2228234,0.21868978,1.1264356,1.0739012,37.0,0,1
264339887,264339871,2228234,0.82100296,0.5962045,0.9492847,37.0,0,1
264440049,264440033,2228234,0.6194174,0.2797763,0.25656343,37.0,0,1
264537483,264537461,2228234,0.2516765,-0.1356121,-0.19181171,37.0,0,1
264640961,264640943,2228234,-0.6291913,-0.31398475,-0.22724189,37.0,0,1
264740066,264740050,2228234,-0.6291913,-0.48380533,0.025656343,37.0,0,1
264837664,264837647,2228234,-0.90774584,-0.44837514,0.07086038,37.0,0,1
264937682,264937666,2228234,-0.28221977,-0.36651918,0.18814652,36.0,0,1
265040248,265040232,2228234,-1.0250319,-0.030543266,0.36529744,36.0,0,1
265142890,265142870,2228234,-0.5510005,0.21868978,0.40439284,36.0,0,1
265240401,265240380,2228234,-0.41050148,0.3433063,0.4667011,36.0,0,1
265340398,265340379,2228234,0.29321533,0.41294494,0.4471534,36.0,0,1
265440443,265440423,2228234,-0.2235767,0.5412267,0.046425764,36.0,0,1
265540508,265540492,2228234,-0.33841938,0.43004918,-0.22968535,36.0,0,1
265638037,265638021,2228234,0.20402901,0.29321533,-0.53145283,36.0,0,1
265743081,265743065,2228234,-0.33231074,-0.06108653,-0.5180138,36.0,0,1
265845673,265845656,2228234,-0.33841938,-0.041538842,-0.15638152,36.0,0,1
265940686,265940670,2228234,-0.27488938,-0.10506883,-0.07330383,36.0,0,1
266040764,266040747,2228234,0.1392773,-0.11117748,0.0439823,37.0,0,1
266138310,266138290,2228234,0.5558874,-0.0012217306,0.10506883,37.0,0,1
266240838,266240822,2228234,0.9712758,-0.051312685,0.057421338,37.0,0,1
266338401,266338377,2228234,1.1997395,-0.17470747,-0.3714061,37.0,0,1
266439183,266439164,2228234,1.1765265,-0.24923304,-0.48380533,37.0,0,1
266540999,266540983,2228234,0.81733775,-0.18325959,-0.2883284,37.0,0,1
266638553,266638537,2228234,0.4227188,0.068416916,0.20647247,37.0,0,1
266741112,266741096,2228234,0.4386013,0.006108653,0.28099805,37.0,0,1
266837476,266837459,2228234,0.14905113,-0.0073303836,0.26878074,37.0,0,1
266941221,266941201,2228234,-0.0085521145,-0.009773845,0.091629796,37.0,0,1
267036921,267036905,2228234,0.26267207,0.045204032,0.051312685,37.0,0,1
267139166,267139150,2228234,0.13683383,0.20647247,0.25656343,37.0,0,1
267238890,267238874,2228234,0.14049903,0.25045478,0.40927976,37.0,0,1
267338922,267338905,2228234,0.012217306,0.16493364,0.43371436,37.0,0,1
267444472,267444456,2228234,0.20036381,0.22113325,0.28221977,37.0,0,1
267535317,267535298,2228234,-0.28588498,0.2638938,0.11606441,37.0,0,1
267639097,267639080,2228234,-0.90896755,0.19669862,0.22968535,37.0,0,1
267737621,267737605,2228234,0.083077684,0.075747296,0.42882743,37.0,0,1
267837009,267836993,2228234,-0.046425764,-0.013439037,0.46792284,37.0,0,1
267939249,267939233,2228234,-0.1319469,-0.07941249,0.2956588,37.0,0,1
268039272,268039256,2228234,-0.38362342,-0.0439823,0.1441642,37.0,0,1
268145171,268145155,2228234,-0.43371436,0.05497788,0.15638152,37.0,0,1
268236876,268236860,2228234,-0.33353245,0.04031711,0.19058998,37.0,0,1
268339458,268339442,2228234,-0.34208456,-0.1392773,0.14660767,37.0,0,1
268437606,268437589,2228234,0.3225369,-0.07941249,0.036651917,37.0,0,1
268537706,268537690,2228234,-0.34086284,0.056199607,-0.24434613,37.0,0,1
268639621,268639604,2228234,-0.4948009,0.106290564,-0.21380286,37.0,0,1
268737916,268737900,2228234,-0.047647495,-0.18692479,-0.15882498,37.0,0,1
268845156,268845140,2228234,-0.0439823,-0.2480113,0.1795944,37.0,0,1
268938830,268938810,2228234,-0.20036381,-0.19669862,0.4874705,37.0,0,1
