timestamp,timestamp_sample,x,y,z,r,flaps,aux1,aux2,aux3,aux4,aux5,aux6,data_source
186815904,186815844,0.061124694,-0.15656565,0.0,0.03768844,0.0,0.0,0.0,0.0,0.0,0.0,0.0,1
186882095,186882032,0.061124694,-0.15404041,0.0,0.03517588,0.0,0.0,0.0,0.0,0.0,0.0,0.0,1
187012109,187012052,0.061124694,-0.15656565,0.0,0.03768844,0.0,0.0,0.0,0.0,0.0,0.0,0.0,1
187236139,187236079,0.061124694,-0.15656565,0.0,0.03768844,0.0,0.0,0.0,0.0,0.0,0.0,0.0,1
187432049,187431713,0.061124694,-0.15656565,0.0,0.03768844,0.0,0.0,0.0,0.0,0.0,0.0,0.0,1
187546233,187546174,0.061124694,-0.15656565,0.0,0.03768844,0.0,0.0,0.0,0.0,0.0,0.0,0.0,1
187832336,187832280,0.061124694,-0.15404041,0.0,0.03517588,0.0,0.0,0.0,0.0,0.0,0.0,0.0,1
188026516,188026461,0.058679707,-0.15404041,0.0,0.03517588,0.0,0.0,0.0,0.0,0.0,0.0,0.0,1
188236773,188236709,0.061124694,-0.15656565,0.0,0.03768844,0.0,0.0,0.0,0.0,0.0,0.0,0.0,1
188436548,188436495,0.058679707,-0.15404041,0.0,0.03768844,0.0,0.0,0.0,0.0,0.0,0.0,0.0,1
188637004,188636951,0.061124694,-0.15404041,0.0,0.03517588,0.0,0.0,0.0,0.0,0.0,0.0,0.0,1
188816873,188816810,0.061124694,-0.15656565,0.0,0.03768844,0.0,0.0,0.0,0.0,0.0,0.0,0.0,1
189046907,189046851,0.061124694,-0.15656565,0.0,0.03768844,0.0,0.0,0.0,0.0,0.0,0.0,0.0,1
189237066,189237003,0.058679707,-0.15404041,0.0,0.03768844,0.0,0.0,0.0,0.0,0.0,0.0,0.0,1
189433203,189433021,0.061124694,-0.15404041,0.0,0.03768844,0.0,0.0,0.0,0.0,0.0,0.0,0.0,1
189637258,189637202,0.061124694,-0.15656565,0.0,0.03517588,0.0,0.0,0.0,0.0,0.0,0.0,0.0,1
189807342,189807286,0.061124694,-0.15656565,0.0,0.03768844,0.0,0.0,0.0,0.0,0.0,0.0,0.0,1
189937459,189937403,0.061124694,-0.15656565,0.0,0.03768844,0.0,0.0,0.0,0.0,0.0,0.0,0.0,1
190247503,190247447,0.061124694,-0.15656565,0.0,0.03517588,0.0,0.0,0.0,0.0,0.0,0.0,0.0,1
190407701,190407638,0.061124694,-0.15656565,0.0,0.03768844,0.0,0.0,0.0,0.0,0.0,0.0,0.0,1
190637597,190637544,0.061124694,-0.15656565,0.0,0.03768844,0.0,0.0,0.0,0.0,0.0,0.0,0.0,1
190847694,190847641,0.061124694,-0.15404041,0.0,0.03517588,0.0,0.0,0.0,0.0,0.0,0.0,0.0,1
191037840,191037784,0.061124694,-0.15656565,0.0,0.03768844,0.0,0.0,0.0,0.0,0.0,0.0,0.0,1
191233989,191233930,0.061124694,-0.15656565,0.0,0.03768844,0.0,0.0,0.0,0.0,0.0,0.0,0.0,1
191428250,191428191,0.061124694,-0.15656565,0.0,0.03768844,0.0,0.0,0.0,0.0,0.0,0.0,0.0,1
191628294,191628234,0.061124694,-0.15656565,0.0,0.03768844,0.0,0.0,0.0,0.0,0.0,0.0,0.0,1
191808381,191808321,0.061124694,-0.15656565,0.0,0.03768844,0.0,0.0,0.0,0.0,0.0,0.0,0.0,1
192048293,192048240,0.061124694,-0.15656565,0.0,0.03768844,0.0,0.0,0.0,0.0,0.0,0.0,0.0,1
192248560,192248507,0.061124694,-0.15656565,0.0,0.03768844,0.0,0.0,0.0,0.0,0.0,0.0,0.0,1
192428576,192428517,0.061124694,-0.15404041,0.0,0.03517588,0.0,0.0,0.0,0.0,0.0,0.0,0.0,1
192638635,192638579,0.061124694,-0.15656565,0.0,0.03768844,0.0,0.0,0.0,0.0,0.0,0.0,0.0,1
192828946,192828893,0.058679707,-0.15404041,0.0,0.03517588,0.0,0.0,0.0,0.0,0.0,0.0,0.0,1
193049064,193049007,0.061124694,-0.15656565,0.0,0.03768844,0.0,0.0,0.0,0.0,0.0,0.0,0.0,1
193239010,193238954,0.061124694,-0.15656565,0.0,0.03768844,0.0,0.0,0.0,0.0,0.0,0.0,0.0,1
193429148,193429095,0.058679707,-0.15404041,0.0,0.03517588,0.0,0.0,0.0,0.0,0.0,0.0,0.0,1
193630056,193629910,0.061124694,-0.15656565,0.0,0.03768844,0.0,0.0,0.0,0.0,0.0,0.0,0.0,1
193825168,193825111,0.061124694,-0.15656565,0.0,0.03768844,0.0,0.0,0.0,0.0,0.0,0.0,0.0,1
194035234,194035174,0.061124694,-0.15404041,0.0,0.03517588,0.0,0.0,0.0,0.0,0.0,0.0,0.0,1
194225848,194225788,0.061124694,-0.15656565,0.0,0.03768844,0.0,0.0,0.0,0.0,0.0,0.0,0.0,1
194425527,194425464,0.061124694,-0.15656565,0.0,0.03768844,0.0,0.0,0.0,0.0,0.0,0.0,0.0,1
194629721,194629636,0.061124694,-0.15656565,0.0,0.03768844,0.0,0.0,0.0,0.0,0.0,0.0,0.0,1
194839779,194839713,0.058679707,-0.15404041,0.0,0.03517588,0.0,0.0,0.0,0.0,0.0,0.0,0.0,1
195015769,195015713,0.061124694,-0.15656565,0.0,0.03768844,0.0,0.0,0.0,0.0,0.0,0.0,0.0,1
195245847,195245791,0.061124694,-0.15656565,0.0,0.03768844,0.0,0.0,0.0,0.0,0.0,0.0,0.0,1
195425948,195425888,0.061124694,-0.15404041,0.0,0.03768844,0.0,0.0,0.0,0.0,0.0,0.0,0.0,1
195606132,195606076,0.061124694,-0.15656565,0.0,0.03517588,0.0,0.0,0.0,0.0,0.0,0.0,0.0,1
195836130,195836063,0.061124694,-0.15656565,0.0,0.03768844,0.0,0.0,0.0,0.0,0.0,0.0,0.0,1
196030409,196030345,0.061124694,-0.15656565,0.0,0.03768844,0.0,0.0,0.0,0.0,0.0,0.0,0.0,1
196230469,196230408,0.061124694,-0.15656565,0.0,0.03768844,0.0,0.0,0.0,0.0,0.0,0.0,0.0,1
196426871,196426815,0.058679707,-0.15404041,0.0,0.03517588,0.0,0.0,0.0,0.0,0.0,0.0,0.0,1
196626422,196626357,0.058679707,-0.15404041,0.0,0.03768844,0.0,0.0,0.0,0.0,0.0,0.0,0.0,1
196827088,196827032,0.061124694,-0.15404041,0.0,0.03517588,0.0,0.0,0.0,0.0,0.0,0.0,0.0,1
197046233,197046179,0.061124694,-0.15656565,0.0,0.03768844,0.0,0.0,0.0,0.0,0.0,0.0,0.0,1
197240973,197240919,0.061124694,-0.15656565,0.0,0.03768844,0.0,0.0,0.0,0.0,0.0,0.0,0.0,1
197441102,197441039,0.061124694,-0.15656565,0.0,0.03768844,0.0,0.0,0.0,0.0,0.0,0.0,0.0,1
197646959,197646906,0.061124694,-0.15656565,0.0,0.03768844,0.0,0.0,0.0,0.0,0.0,0.0,0.0,1
197826988,197826935,0.061124694,-0.15656565,0.0,0.03768844,0.0,0.0,0.0,0.0,0.0,0.0,0.0,1
198021256,198021200,0.061124694,-0.15656565,0.0,0.03768844,0.0,0.0,0.0,0.0,0.0,0.0,0.0,1
198201436,198201363,0.061124694,-0.15656565,0.0,0.03768844,0.0,0.0,0.0,0.0,0.0,0.0,0.0,1
198431425,198431360,0.061124694,-0.15656565,0.0,0.03768844,0.0,0.0,0.0,0.0,0.0,0.0,0.0,1
198627492,198627432,0.061124694,-0.15656565,0.0,0.03768844,0.0,0.0,0.0,0.0,0.0,0.0,0.0,1
198847573,198847514,0.061124694,-0.15656565,0.0,0.03768844,0.0,0.0,0.0,0.0,0.0,0.0,0.0,1
198931874,198931786,0.061124694,-0.15656565,0.0,0.03768844,0.0,0.0,0.0,0.0,0.0,0.0,0.0,1
199162013,199161960,0.061124694,-0.15656565,0.0,0.03768844,0.0,0.0,0.0,0.0,0.0,0.0,0.0,1
199447369,199447316,0.061124694,-0.15656565,0.0,0.03768844,0.0,0.0,0.0,0.0,0.0,0.0,0.0,1
199642078,199642025,0.058679707,-0.15404041,0.0,0.03768844,0.0,0.0,0.0,0.0,0.0,0.0,0.0,1
199842203,199842150,0.061124694,-0.15656565,0.0,0.03768844,0.0,0.0,0.0,0.0,0.0,0.0,0.0,1
200028687,200028584,0.061124694,-0.15656565,0.0,0.03768844,0.0,0.0,0.0,0.0,0.0,0.0,0.0,1
200242461,200242406,0.061124694,-0.15656565,0.0,0.03517588,0.0,0.0,0.0,0.0,0.0,0.0,0.0,1
200417837,200417783,0.061124694,-0.15656565,0.0,0.03768844,0.0,0.0,0.0,0.0,0.0,0.0,0.0,1
200628416,200628342,0.061124694,-0.15656565,0.0,0.03768844,0.0,0.0,0.0,0.0,0.0,0.0,0.0,1
200782821,200782764,0.061124694,-0.15656565,0.0,0.03768844,0.0,0.0,0.0,0.0,0.0,0.0,0.0,1
201028654,201028598,0.061124694,-0.15656565,0.0,0.03768844,0.0,0.0,0.0,0.0,0.0,0.0,0.0,1
201238629,201238575,0.061124694,-0.15656565,0.0,0.03768844,0.0,0.0,0.0,0.0,0.0,0.0,0.0,1
201432932,201432879,0.061124694,-0.15656565,0.0,0.03768844,0.0,0.0,0.0,0.0,0.0,0.0,0.0,1
201638986,201638927,0.058679707,-0.15404041,0.0,0.03517588,0.0,0.0,0.0,0.0,0.0,0.0,0.0,1
201823293,201823240,0.061124694,-0.15656565,0.0,0.03768844,0.0,0.0,0.0,0.0,0.0,0.0,0.0,1
202029657,202029605,0.058679707,-0.15404041,0.0,0.03517588,0.0,0.0,0.0,0.0,0.0,0.0,0.0,1
202233469,202233416,0.061124694,-0.15656565,0.0,0.03768844,0.0,0.0,0.0,0.0,0.0,0.0,0.0,1
202423467,202423410,0.061124694,-0.15656565,0.0,0.03768844,0.0,0.0,0.0,0.0,0.0,0.0,0.0,1
202639292,202639239,0.061124694,-0.15656565,0.0,0.03768844,0.0,0.0,0.0,0.0,0.0,0.0,0.0,1
202843492,202843429,0.058679707,-0.15404041,0.0,0.03517588,0.0,0.0,0.0,0.0,0.0,0.0,0.0,1
203013664,203013601,0.061124694,-0.15656565,0.0,0.03768844,0.0,0.0,0.0,0.0,0.0,0.0,0.0,1
203239732,203239675,0.061124694,-0.15656565,0.0,0.03768844,0.0,0.0,0.0,0.0,0.0,0.0,0.0,1
203443813,203443757,0.061124694,-0.15656565,0.0,0.03768844,0.0,0.0,0.0,0.0,0.0,0.0,0.0,1
203629782,203629719,0.058679707,-0.15404041,0.0,0.03517588,0.0,0.0,0.0,0.0,0.0,0.0,0.0,1
203830594,203830541,0.058679707,-0.15404041,0.0,0.03768844,0.0,0.0,0.0,0.0,0.0,0.0,0.0,1
204000086,204000024,0.061124694,-0.15656565,0.0,0.03768844,0.0,0.0,0.0,0.0,0.0,0.0,0.0,1
204230282,204230229,0.061124694,-0.15656565,0.0,0.03768844,0.0,0.0,0.0,0.0,0.0,0.0,0.0,1
204434356,204434293,0.061124694,-0.15656565,0.0,0.03768844,0.0,0.0,0.0,0.0,0.0,0.0,0.0,1
204630388,204630320,0.058679707,-0.15404041,0.0,0.03517588,0.0,0.0,0.0,0.0,0.0,0.0,0.0,1
204805532,204805392,0.061124694,-0.15656565,0.0,0.03768844,0.0,0.0,0.0,0.0,0.0,0.0,0.0,1
205030731,205030625,0.061124694,-0.15656565,0.0,0.03517588,0.0,0.0,0.0,0.0,0.0,0.0,0.0,1
205244789,205244736,0.061124694,-0.15404041,0.0,0.03517588,0.0,0.0,0.0,0.0,0.0,0.0,0.0,1
205414766,205414712,0.061124694,-0.15656565,0.0,0.03768844,0.0,0.0,0.0,0.0,0.0,0.0,0.0,1
205644949,205644893,0.061124694,-0.15656565,0.0,0.03768844,0.0,0.0,0.0,0.0,0.0,0.0,0.0,1
205831131,205831075,0.061124694,-0.15656565,0.0,0.03768844,0.0,0.0,0.0,0.0,0.0,0.0,0.0,1
206045079,206045026,0.061124694,-0.15404041,0.0,0.03517588,0.0,0.0,0.0,0.0,0.0,0.0,0.0,1
206220626,206220562,0.061124694,-0.15656565,0.0,0.03517588,0.0,0.0,0.0,0.0,0.0,0.0,0.0,1
206421125,206421072,0.061124694,-0.15656565,0.0,0.03768844,0.0,0.0,0.0,0.0,0.0,0.0,0.0,1
206631794,206631738,0.061124694,-0.15656565,0.0,0.03768844,0.0,0.0,0.0,0.0,0.0,0.0,0.0,1
206836409,206836341,0.061124694,-0.15404041,0.0,0.03768844,0.0,0.0,0.0,0.0,0.0,0.0,0.0,1
207041696,207041520,0.058679707,-0.15404041,0.0,0.03768844,0.0,0.0,0.0,0.0,0.0,0.0,0.0,1
207231863,207231803,0.061124694,-0.15656565,0.0,0.03768844,0.0,0.0,0.0,0.0,0.0,0.0,0.0,1
207425773,207425717,0.061124694,-0.15656565,0.0,0.03768844,0.0,0.0,0.0,0.0,0.0,0.0,0.0,1
207611271,207611215,0.058679707,-0.15656565,0.0,0.03517588,0.0,0.0,0.0,0.0,0.0,0.0,0.0,1
207821967,207821911,0.061124694,-0.15656565,0.0,0.03768844,0.0,0.0,0.0,0.0,0.0,0.0,0.0,1
208046109,208046053,0.061124694,-0.15656565,0.0,0.03768844,0.0,0.0,0.0,0.0,0.0,0.0,0.0,1
208246182,208246127,0.061124694,-0.15656565,0.0,0.03768844,0.0,0.0,0.0,0.0,0.0,0.0,0.0,1
208432884,208432718,0.061124694,-0.15404041,0.0,0.03517588,0.0,0.0,0.0,0.0,0.0,0.0,0.0,1
208626562,208626509,0.061124694,-0.15656565,0.0,0.03768844,0.0,0.0,0.0,0.0,0.0,0.0,0.0,1
208816501,208816447,0.061124694,-0.15656565,0.0,0.03768844,0.0,0.0,0.0,0.0,0.0,0.0,0.0,1
209042469,209042414,0.061124694,-0.15656565,0.0,0.03517588,0.0,0.0,0.0,0.0,0.0,0.0,0.0,1
209246779,209246723,0.061124694,-0.15656565,0.0,0.03768844,0.0,0.0,0.0,0.0,0.0,0.0,0.0,1
209446772,209446716,0.058679707,-0.15656565,0.0,0.03768844,0.0,0.0,0.0,0.0,0.0,0.0,0.0,1
209633339,209633283,0.061124694,-0.15656565,0.0,0.03768844,0.0,0.0,0.0,0.0,0.0,0.0,0.0,1
209816845,209816789,0.061124694,-0.15656565,0.0,0.03768844,0.0,0.0,0.0,0.0,0.0,0.0,0.0,1
210037124,210037063,0.058679707,-0.15656565,0.0,0.03768844,0.0,0.0,0.0,0.0,0.0,0.0,0.0,1
210247028,210246975,0.058679707,-0.15656565,0.0,0.03768844,0.0,0.0,0.0,0.0,0.0,0.0,0.0,1
210427233,210427174,0.058679707,-0.15656565,0.0,0.03768844,0.0,0.0,0.0,0.0,0.0,0.0,0.0,1
210633740,210633684,0.058679707,-0.15656565,0.0,0.03768844,0.0,0.0,0.0,0.0,0.0,0.0,0.0,1
210833333,210833276,0.058679707,-0.15656565,0.0,0.03517588,0.0,0.0,0.0,0.0,0.0,0.0,0.0,1
211037690,211037603,0.058679707,-0.15656565,0.0,0.03768844,0.0,0.0,0.0,0.0,0.0,0.0,0.0,1
211243589,211243536,0.061124694,-0.15656565,0.0,0.03768844,0.0,0.0,0.0,0.0,0.0,0.0,0.0,1
211443149,211443095,0.058679707,-0.15656565,0.0,0.03768844,0.0,0.0,0.0,0.0,0.0,0.0,0.0,1
211637856,211637747,0.061124694,-0.15656565,0.0,0.03768844,0.0,0.0,0.0,0.0,0.0,0.0,0.0,1
211843740,211843681,0.061124694,-0.15656565,0.0,0.03768844,0.0,0.0,0.0,0.0,0.0,0.0,0.0,1
212047976,212047914,0.061124694,-0.15656565,0.0,0.03768844,0.0,0.0,0.0,0.0,0.0,0.0,0.0,1
212228281,212228229,0.058679707,-0.15404041,0.0,0.03517588,0.0,0.0,0.0,0.0,0.0,0.0,0.0,1
212428187,212428131,0.061124694,-0.15656565,0.0,0.03517588,0.0,0.0,0.0,0.0,0.0,0.0,0.0,1
212634240,212634185,0.061124694,-0.15656565,0.0,0.03768844,0.0,0.0,0.0,0.0,0.0,0.0,0.0,1
212848593,212848536,0.061124694,-0.15656565,0.0,0.03768844,0.0,0.0,0.0,0.0,0.0,0.0,0.0,1
213034429,213034318,0.058679707,-0.15404041,0.0,0.03768844,0.0,0.0,0.0,0.0,0.0,0.0,0.0,1
213244029,213243977,0.061124694,-0.15656565,0.0,0.03768844,0.0,0.0,0.0,0.0,0.0,0.0,0.0,1
213428679,213428623,0.058679707,-0.15656565,0.0,0.03768844,0.0,0.0,0.0,0.0,0.0,0.0,0.0,1
213604647,213604594,0.058679707,-0.15656565,0.0,0.03768844,0.0,0.0,0.0,0.0,0.0,0.0,0.0,1
213824897,213824803,0.058679707,-0.15404041,0.0,0.03517588,0.0,0.0,0.0,0.0,0.0,0.0,0.0,1
214034927,214034872,0.061124694,-0.15656565,0.0,0.03768844,0.0,0.0,0.0,0.0,0.0,0.0,0.0,1
214248980,214248921,0.061124694,-0.15656565,0.0,0.03517588,0.0,0.0,0.0,0.0,0.0,0.0,0.0,1
214435149,214435035,0.061124694,-0.15656565,0.0,0.03768844,0.0,0.0,0.0,0.0,0.0,0.0,0.0,1
214639215,214639149,0.058679707,-0.15656565,0.0,0.03768844,0.0,0.0,0.0,0.0,0.0,0.0,0.0,1
214829288,214829232,0.061124694,-0.15656565,0.0,0.03768844,0.0,0.0,0.0,0.0,0.0,0.0,0.0,1
215029608,215029553,0.058679707,-0.15404041,0.0,0.03517588,0.0,0.0,0.0,0.0,0.0,0.0,0.0,1
215229540,215229487,0.058679707,-0.15656565,0.0,0.03517588,0.0,0.0,0.0,0.0,0.0,0.0,0.0,1
215436254,215436200,0.061124694,-0.15656565,0.0,0.03768844,0.0,0.0,0.0,0.0,0.0,0.0,0.0,1
215649707,215649647,0.061124694,-0.15656565,0.0,0.03768844,0.0,0.0,0.0,0.0,0.0,0.0,0.0,1
215845177,215845124,0.061124694,-0.15656565,0.0,0.03517588,0.0,0.0,0.0,0.0,0.0,0.0,0.0,1
216039950,216039894,0.061124694,-0.15656565,0.0,0.03768844,0.0,0.0,0.0,0.0,0.0,0.0,0.0,1
216230034,216229981,0.058679707,-0.15404041,0.0,0.03517588,0.0,0.0,0.0,0.0,0.0,0.0,0.0,1
216440162,216440096,0.058679707,-0.15404041,0.0,0.03517588,0.0,0.0,0.0,0.0,0.0,0.0,0.0,1
216636275,216636218,0.061124694,-0.15656565,0.0,0.03768844,0.0,0.0,0.0,0.0,0.0,0.0,0.0,1
216836950,216836893,0.058679707,-0.15656565,0.0,0.03768844,0.0,0.0,0.0,0.0,0.0,0.0,0.0,1
217030334,217030277,0.058679707,-0.15656565,0.0,0.03768844,0.0,0.0,0.0,0.0,0.0,0.0,0.0,1
217226037,217225977,0.058679707,-0.15656565,0.0,0.03768844,0.0,0.0,0.0,0.0,0.0,0.0,0.0,1
217436557,217436494,0.058679707,-0.15656565,0.0,0.03517588,0.0,0.0,0.0,0.0,0.0,0.0,0.0,1
217637188,217637086,0.061124694,-0.15656565,0.0,0.03768844,0.0,0.0,0.0,0.0,0.0,0.0,0.0,1
217837469,217837413,0.061124694,-0.15656565,0.0,0.03768844,0.0,0.0,0.0,0.0,0.0,0.0,0.0,1
218030979,218030923,0.061124694,-0.15656565,0.0,0.03517588,0.0,0.0,0.0,0.0,0.0,0.0,0.0,1
218237559,218237503,0.061124694,-0.15656565,0.0,0.03517588,0.0,0.0,0.0,0.0,0.0,0.0,0.0,1
218431054,218430991,0.061124694,-0.15656565,0.0,0.03768844,0.0,0.0,0.0,0.0,0.0,0.0,0.0,1
218626705,218626645,0.061124694,-0.15656565,0.0,0.03768844,0.0,0.0,0.0,0.0,0.0,0.0,0.0,1
218837190,218837137,0.061124694,-0.15656565,0.0,0.03768844,0.0,0.0,0.0,0.0,0.0,0.0,0.0,1
219037972,219037919,0.058679707,-0.15656565,0.0,0.03768844,0.0,0.0,0.0,0.0,0.0,0.0,0.0,1
219237447,219237391,0.061124694,-0.15656565,0.0,0.03768844,0.0,0.0,0.0,0.0,0.0,0.0,0.0,1
219431689,219431629,0.061124694,-0.15656565,0.0,0.03517588,0.0,0.0,0.0,0.0,0.0,0.0,0.0,1
219627599,219627547,0.058679707,-0.15404041,0.0,0.03768844,0.0,0.0,0.0,0.0,0.0,0.0,0.0,1
219831713,219831653,0.058679707,-0.15656565,0.0,0.03768844,0.0,0.0,0.0,0.0,0.0,0.0,0.0,1
220047219,220047166,0.061124694,-0.15656565,0.0,0.03768844,0.0,0.0,0.0,0.0,0.0,0.0,0.0,1
220247844,220247792,0.058679707,-0.15404041,0.0,0.03768844,0.0,0.0,0.0,0.0,0.0,0.0,0.0,1
220447555,220447502,0.061124694,-0.15656565,0.0,0.03768844,0.0,0.0,0.0,0.0,0.0,0.0,0.0,1
220622394,220622297,0.058679707,-0.15656565,0.0,0.03768844,0.0,0.0,0.0,0.0,0.0,0.0,0.0,1
220832410,220832347,0.058679707,-0.15404041,0.0,0.03768844,0.0,0.0,0.0,0.0,0.0,0.0,0.0,1
221002357,221002296,0.058679707,-0.15656565,0.0,0.03768844,0.0,0.0,0.0,0.0,0.0,0.0,0.0,1
221202425,221202359,0.061124694,-0.15656565,0.0,0.03517588,0.0,0.0,0.0,0.0,0.0,0.0,0.0,1
221438451,221438395,0.058679707,-0.15656565,0.0,0.03768844,0.0,0.0,0.0,0.0,0.0,0.0,0.0,1
221648470,221648154,0.061124694,-0.15656565,0.0,0.03517588,0.0,0.0,0.0,0.0,0.0,0.0,0.0,1
221842892,221842839,0.058679707,-0.15656565,0.0,0.03768844,0.0,0.0,0.0,0.0,0.0,0.0,0.0,1
222043167,222043111,0.061124694,-0.15656565,0.0,0.03768844,0.0,0.0,0.0,0.0,0.0,0.0,0.0,1
222243130,222243074,0.061124694,-0.15656565,0.0,0.03768844,0.0,0.0,0.0,0.0,0.0,0.0,0.0,1
222383128,222383069,0.058679707,-0.15656565,0.0,0.03517588,0.0,0.0,0.0,0.0,0.0,0.0,0.0,1
222643420,222643321,0.061124694,-0.15656565,0.0,0.03517588,0.0,0.0,0.0,0.0,0.0,0.0,0.0,1
222843580,222843521,0.061124694,-0.15656565,0.0,0.03768844,0.0,0.0,0.0,0.0,0.0,0.0,0.0,1
223033487,223033434,0.061124694,-0.15656565,0.0,0.03517588,0.0,0.0,0.0,0.0,0.0,0.0,0.0,1
223239409,223239342,0.061124694,-0.15656565,0.0,0.03768844,0.0,0.0,0.0,0.0,0.0,0.0,0.0,1
223433638,223433570,0.058679707,-0.15656565,0.0,0.03768844,0.0,0.0,0.0,0.0,0.0,0.0,0.0,1
223639783,223639699,0.058679707,-0.15656565,0.0,0.03768844,0.0,0.0,0.0,0.0,0.0,0.0,0.0,1
223829621,223829568,0.058679707,-0.15404041,0.0,0.03768844,0.0,0.0,0.0,0.0,0.0,0.0,0.0,1
224049320,224049263,0.061124694,-0.15656565,0.0,0.03768844,0.0,0.0,0.0,0.0,0.0,0.0,0.0,1
224244318,224244265,0.061124694,-0.15656565,0.0,0.03768844,0.0,0.0,0.0,0.0,0.0,0.0,0.0,1
224434067,224434011,0.058679707,-0.15404041,0.0,0.03768844,0.0,0.0,0.0,0.0,0.0,0.0,0.0,1
224634127,224634056,0.058679707,-0.15656565,0.0,0.03517588,0.0,0.0,0.0,0.0,0.0,0.0,0.0,1
224840347,224840263,0.058679707,-0.15656565,0.0,0.03768844,0.0,0.0,0.0,0.0,0.0,0.0,0.0,1
225024458,225024406,0.061124694,-0.15656565,0.0,0.03768844,0.0,0.0,0.0,0.0,0.0,0.0,0.0,1
225240410,225240344,0.058679707,-0.15404041,0.0,0.03768844,0.0,0.0,0.0,0.0,0.0,0.0,0.0,1
225424493,225424433,0.061124694,-0.15656565,0.0,0.03768844,0.0,0.0,0.0,0.0,0.0,0.0,0.0,1
225640512,225640459,0.058679707,-0.15656565,0.0,0.03517588,0.0,0.0,0.0,0.0,0.0,0.0,0.0,1
225830188,225830135,0.061124694,-0.15656565,0.0,0.03768844,0.0,0.0,0.0,0.0,0.0,0.0,0.0,1
226010707,226010650,0.058679707,-0.15404041,0.0,0.03768844,0.0,0.0,0.0,0.0,0.0,0.0,0.0,1
226241630,226241574,0.061124694,-0.15656565,0.0,0.03517588,0.0,0.0,0.0,0.0,0.0,0.0,0.0,1
226435076,226435011,0.058679707,-0.15656565,0.0,0.03768844,0.0,0.0,0.0,0.0,0.0,0.0,0.0,1
226635259,226635202,0.061124694,-0.15656565,0.0,0.03768844,0.0,0.0,0.0,0.0,0.0,0.0,0.0,1
226831240,226831183,0.058679707,-0.15656565,0.0,0.03517588,0.0,0.0,0.0,0.0,0.0,0.0,0.0,1
227015353,227015298,0.058679707,-0.15404041,0.0,0.03768844,0.0,0.0,0.0,0.0,0.0,0.0,0.0,1
227241334,227241281,0.058679707,-0.15656565,0.0,0.03768844,0.0,0.0,0.0,0.0,0.0,0.0,0.0,1
227425680,227425617,0.058679707,-0.15656565,0.0,0.03768844,0.0,0.0,0.0,0.0,0.0,0.0,0.0,1
227645731,227645668,0.061124694,-0.15656565,0.0,0.03768844,0.0,0.0,0.0,0.0,0.0,0.0,0.0,1
227835717,227835658,0.061124694,-0.15656565,0.0,0.03768844,0.0,0.0,0.0,0.0,0.0,0.0,0.0,1
228035846,228035790,0.058679707,-0.15404041,0.0,0.03517588,0.0,0.0,0.0,0.0,0.0,0.0,0.0,1
228242026,228241967,0.058679707,-0.15656565,0.0,0.03768844,0.0,0.0,0.0,0.0,0.0,0.0,0.0,1
228446141,228446088,0.061124694,-0.15656565,0.0,0.03768844,0.0,0.0,0.0,0.0,0.0,0.0,0.0,1
228646176,228646113,0.061124694,-0.15656565,0.0,0.03517588,0.0,0.0,0.0,0.0,0.0,0.0,0.0,1
228826348,228826260,0.061124694,-0.15656565,0.0,0.03768844,0.0,0.0,0.0,0.0,0.0,0.0,0.0,1
229032198,229032138,0.058679707,-0.15656565,0.0,0.03768844,0.0,0.0,0.0,0.0,0.0,0.0,0.0,1
229236459,229236397,0.058679707,-0.15656565,0.0,0.03768844,0.0,0.0,0.0,0.0,0.0,0.0,0.0,1
229426597,229426544,0.058679707,-0.15656565,0.0,0.03768844,0.0,0.0,0.0,0.0,0.0,0.0,0.0,1
229643225,229643173,0.058679707,-0.15656565,0.0,0.03768844,0.0,0.0,0.0,0.0,0.0,0.0,0.0,1
229842805,229842718,0.061124694,-0.15656565,0.0,0.03768844,0.0,0.0,0.0,0.0,0.0,0.0,0.0,1
230032691,230032639,0.058679707,-0.15404041,0.0,0.03517588,0.0,0.0,0.0,0.0,0.0,0.0,0.0,1
230236994,230236941,0.058679707,-0.15656565,0.0,0.03768844,0.0,0.0,0.0,0.0,0.0,0.0,0.0,1
230443005,230442903,0.058679707,-0.15656565,0.0,0.03768844,0.0,0.0,0.0,0.0,0.0,0.0,0.0,1
230643780,230643724,0.058679707,-0.15404041,0.0,0.03517588,0.0,0.0,0.0,0.0,0.0,0.0,0.0,1
230847181,230847112,0.058679707,-0.15404041,0.0,0.03517588,0.0,0.0,0.0,0.0,0.0,0.0,0.0,1
231037240,231037180,0.061124694,-0.15656565,0.0,0.03517588,0.0,0.0,0.0,0.0,0.0,0.0,0.0,1
231227477,231227372,0.061124694,-0.15656565,0.0,0.03768844,0.0,0.0,0.0,0.0,0.0,0.0,0.0,1
231427495,231427435,0.061124694,-0.15656565,0.0,0.03768844,0.0,0.0,0.0,0.0,0.0,0.0,0.0,1
231593085,231593031,0.061124694,-0.15656565,0.0,0.03768844,0.0,0.0,0.0,0.0,0.0,0.0,0.0,1
231843794,231843742,0.058679707,-0.15656565,0.0,0.03768844,0.0,0.0,0.0,0.0,0.0,0.0,0.0,1
232044458,232044398,0.061124694,-0.15656565,0.0,0.03768844,0.0,0.0,0.0,0.0,0.0,0.0,0.0,1
232238064,232238005,0.061124694,-0.15656565,0.0,0.03768844,0.0,0.0,0.0,0.0,0.0,0.0,0.0,1
232433916,232433859,0.058679707,-0.15656565,0.0,0.03517588,0.0,0.0,0.0,0.0,0.0,0.0,0.0,1
232644122,232644069,0.061124694,-0.15656565,0.0,0.03768844,0.0,0.0,0.0,0.0,0.0,0.0,0.0,1
232834204,232833706,0.058679707,-0.15656565,0.0,0.03768844,0.0,0.0,0.0,0.0,0.0,0.0,0.0,1
233028221,233028169,0.061124694,-0.15656565,0.0,0.03768844,0.0,0.0,0.0,0.0,0.0,0.0,0.0,1
233228431,233228362,0.058679707,-0.15656565,0.0,0.03768844,0.0,0.0,0.0,0.0,0.0,0.0,0.0,1
233438505,233438452,0.061124694,-0.15656565,0.0,0.03517588,0.0,0.0,0.0,0.0,0.0,0.0,0.0,1
233634066,233634013,0.058679707,-0.15656565,0.0,0.03768844,0.0,0.0,0.0,0.0,0.0,0.0,0.0,1
233834684,233834629,0.061124694,-0.15656565,0.0,0.03768844,0.0,0.0,0.0,0.0,0.0,0.0,0.0,1
234034797,234034744,0.058679707,-0.15656565,0.0,0.03768844,0.0,0.0,0.0,0.0,0.0,0.0,0.0,1
234245339,234245283,0.058679707,-0.15656565,0.0,0.03768844,0.0,0.0,0.0,0.0,0.0,0.0,0.0,1
234439032,234438945,0.058679707,-0.15656565,0.0,0.03768844,0.0,0.0,0.0,0.0,0.0,0.0,0.0,1
234645129,234644990,0.058679707,-0.15404041,0.0,0.03768844,0.0,0.0,0.0,0.0,0.0,0.0,0.0,1
234839226,234839170,0.061124694,-0.15656565,0.0,0.03768844,0.0,0.0,0.0,0.0,0.0,0.0,0.0,1
235045759,235045706,0.058679707,-0.15656565,0.0,0.03768844,0.0,0.0,0.0,0.0,0.0,0.0,0.0,1
235240267,235240214,0.058679707,-0.15404041,0.0,0.03517588,0.0,0.0,0.0,0.0,0.0,0.0,0.0,1
235434968,235434908,0.058679707,-0.15656565,0.0,0.03768844,0.0,0.0,0.0,0.0,0.0,0.0,0.0,1
235645611,235645508,0.061124694,-0.15656565,0.0,0.03768844,0.0,0.0,0.0,0.0,0.0,0.0,0.0,1
235829587,235829534,0.058679707,-0.15656565,0.0,0.03768844,0.0,0.0,0.0,0.0,0.0,0.0,0.0,1
236035736,236035683,0.058679707,-0.15656565,0.0,0.03768844,0.0,0.0,0.0,0.0,0.0,0.0,0.0,1
236235909,236235852,0.058679707,-0.15656565,0.0,0.03517588,0.0,0.0,0.0,0.0,0.0,0.0,0.0,1
236446071,236445970,0.058679707,-0.15656565,0.0,0.03768844,0.0,0.0,0.0,0.0,0.0,0.0,0.0,1
236640108,236640049,0.058679707,-0.15656565,0.0,0.03768844,0.0,0.0,0.0,0.0,0.0,0.0,0.0,1
236836186,236836130,0.058679707,-0.15656565,0.0,0.03517588,0.0,0.0,0.0,0.0,0.0,0.0,0.0,1
237030267,237030212,0.058679707,-0.15404041,0.0,0.03517588,0.0,0.0,0.0,0.0,0.0,0.0,0.0,1
237236249,237236196,0.058679707,-0.15656565,0.0,0.03768844,0.0,0.0,0.0,0.0,0.0,0.0,0.0,1
237430509,237430450,0.061124694,-0.15656565,0.0,0.03768844,0.0,0.0,0.0,0.0,0.0,0.0,0.0,1
237616503,237616444,0.058679707,-0.15404041,0.0,0.03517588,0.0,0.0,0.0,0.0,0.0,0.0,0.0,1
237840755,237840693,0.058679707,-0.15404041,0.0,0.03517588,0.0,0.0,0.0,0.0,0.0,0.0,0.0,1
238036807,238036743,0.061124694,-0.15656565,0.0,0.03517588,0.0,0.0,0.0,0.0,0.0,0.0,0.0,1
238236430,238236365,0.061124694,-0.15656565,0.0,0.03768844,0.0,0.0,0.0,0.0,0.0,0.0,0.0,1
238437006,238436953,0.058679707,-0.15656565,0.0,0.03768844,0.0,0.0,0.0,0.0,0.0,0.0,0.0,1
238636572,238636519,0.058679707,-0.15404041,0.0,0.03517588,0.0,0.0,0.0,0.0,0.0,0.0,0.0,1
238841296,238841243,0.058679707,-0.15656565,0.0,0.03768844,0.0,0.0,0.0,0.0,0.0,0.0,0.0,1
239031368,239031311,0.058679707,-0.15404041,0.0,0.03768844,0.0,0.0,0.0,0.0,0.0,0.0,0.0,1
239241474,239241410,0.058679707,-0.15656565,0.0,0.03517588,0.0,0.0,0.0,0.0,0.0,0.0,0.0,1
239448030,239447973,0.058679707,-0.15656565,0.0,0.03768844,0.0,0.0,0.0,0.0,0.0,0.0,0.0,1
239647616,239647564,0.058679707,-0.15656565,0.0,0.03768844,0.0,0.0,0.0,0.0,0.0,0.0,0.0,1
239837659,239837557,0.061124694,-0.15656565,0.0,0.03768844,0.0,0.0,0.0,0.0,0.0,0.0,0.0,1
240021770,240021714,0.061124694,-0.15656565,0.0,0.03768844,0.0,0.0,0.0,0.0,0.0,0.0,0.0,1
240242021,240241968,0.061124694,-0.15656565,0.0,0.03517588,0.0,0.0,0.0,0.0,0.0,0.0,0.0,1
240437936,240437833,0.058679707,-0.15656565,0.0,0.03768844,0.0,0.0,0.0,0.0,0.0,0.0,0.0,1
240638070,240638010,0.058679707,-0.15404041,0.0,0.03768844,0.0,0.0,0.0,0.0,0.0,0.0,0.0,1
240828060,240828007,0.061124694,-0.15656565,0.0,0.03768844,0.0,0.0,0.0,0.0,0.0,0.0,0.0,1
241027657,241027604,0.061124694,-0.15656565,0.0,0.03768844,0.0,0.0,0.0,0.0,0.0,0.0,0.0,1
241238430,241238359,0.058679707,-0.15656565,0.0,0.03768844,0.0,0.0,0.0,0.0,0.0,0.0,0.0,1
241422490,241422430,0.061124694,-0.15656565,0.0,0.03768844,0.0,0.0,0.0,0.0,0.0,0.0,0.0,1
241638490,241638437,0.058679707,-0.15404041,0.0,0.03517588,0.0,0.0,0.0,0.0,0.0,0.0,0.0,1
241838654,241838552,0.058679707,-0.15656565,0.0,0.03768844,0.0,0.0,0.0,0.0,0.0,0.0,0.0,1
242038813,242038760,0.058679707,-0.15404041,0.0,0.03517588,0.0,0.0,0.0,0.0,0.0,0.0,0.0,1
242238415,242238351,0.061124694,-0.15656565,0.0,0.03768844,0.0,0.0,0.0,0.0,0.0,0.0,0.0,1
242433267,242433183,0.061124694,-0.15656565,0.0,0.03517588,0.0,0.0,0.0,0.0,0.0,0.0,0.0,1
242629091,242629035,0.061124694,-0.15656565,0.0,0.03768844,0.0,0.0,0.0,0.0,0.0,0.0,0.0,1
242833300,242833243,0.058679707,-0.15656565,0.0,0.03768844,0.0,0.0,0.0,0.0,0.0,0.0,0.0,1
243028778,243028725,0.061124694,-0.15656565,0.0,0.03768844,0.0,0.0,0.0,0.0,0.0,0.0,0.0,1
243243518,243243458,0.058679707,-0.15404041,0.0,0.03517588,0.0,0.0,0.0,0.0,0.0,0.0,0.0,1
243439397,243439332,0.058679707,-0.15656565,0.0,0.03768844,0.0,0.0,0.0,0.0,0.0,0.0,0.0,1
243633743,243633659,0.061124694,-0.15656565,0.0,0.03768844,0.0,0.0,0.0,0.0,0.0,0.0,0.0,1
243843923,243843870,0.058679707,-0.15656565,0.0,0.03768844,0.0,0.0,0.0,0.0,0.0,0.0,0.0,1
244029346,244029290,0.061124694,-0.15656565,0.0,0.03768844,0.0,0.0,0.0,0.0,0.0,0.0,0.0,1
244229886,244229783,0.061124694,-0.15656565,0.0,0.03768844,0.0,0.0,0.0,0.0,0.0,0.0,0.0,1
244434029,244433976,0.058679707,-0.15656565,0.0,0.03768844,0.0,0.0,0.0,0.0,0.0,0.0,0.0,1
244624092,244624036,0.061124694,-0.15656565,0.0,0.03768844,0.0,0.0,0.0,0.0,0.0,0.0,0.0,1
244830167,244830101,0.061124694,-0.15656565,0.0,0.03768844,0.0,0.0,0.0,0.0,0.0,0.0,0.0,1
245014308,245014256,0.061124694,-0.15656565,0.0,0.03768844,0.0,0.0,0.0,0.0,0.0,0.0,0.0,1
245234394,245234326,0.058679707,-0.15656565,0.0,0.03768844,0.0,0.0,0.0,0.0,0.0,0.0,0.0,1
245435525,245435472,0.058679707,-0.15656565,0.0,0.03768844,0.0,0.0,0.0,0.0,0.0,0.0,0.0,1
245640680,245640573,0.058679707,-0.15656565,0.0,0.03768844,0.0,0.0,0.0,0.0,0.0,0.0,0.0,1
245830583,245830530,0.061124694,-0.15656565,0.0,0.03768844,0.0,0.0,0.0,0.0,0.0,0.0,0.0,1
246030356,246030300,0.058679707,-0.15404041,0.0,0.03517588,0.0,0.0,0.0,0.0,0.0,0.0,0.0,1
246231062,246231009,0.061124694,-0.15656565,0.0,0.03768844,0.0,0.0,0.0,0.0,0.0,0.0,0.0,1
246425101,246425035,0.058679707,-0.15656565,0.0,0.03768844,0.0,0.0,0.0,0.0,0.0,0.0,0.0,1
246645286,246645223,0.061124694,-0.15656565,0.0,0.03517588,0.0,0.0,0.0,0.0,0.0,0.0,0.0,1
246845179,246845123,0.058679707,-0.15404041,0.0,0.03517588,0.0,0.0,0.0,0.0,0.0,0.0,0.0,1
247035256,247035203,0.058679707,-0.15404041,0.0,0.03768844,0.0,0.0,0.0,0.0,0.0,0.0,0.0,1
247235433,247235362,0.058679707,-0.15656565,0.0,0.03517588,0.0,0.0,0.0,0.0,0.0,0.0,0.0,1
247445528,247445471,0.058679707,-0.15656565,0.0,0.03768844,0.0,0.0,0.0,0.0,0.0,0.0,0.0,1
247645671,247645611,0.061124694,-0.15656565,0.0,0.03768844,0.0,0.0,0.0,0.0,0.0,0.0,0.0,1
247835852,247835795,0.058679707,-0.15656565,0.0,0.03768844,0.0,0.0,0.0,0.0,0.0,0.0,0.0,1
248026021,248025965,0.058679707,-0.15656565,0.0,0.03768844,0.0,0.0,0.0,0.0,0.0,0.0,0.0,1
248242064,248242011,0.058679707,-0.15404041,0.0,0.03517588,0.0,0.0,0.0,0.0,0.0,0.0,0.0,1
248435981,248435925,0.058679707,-0.15656565,0.0,0.03768844,0.0,0.0,0.0,0.0,0.0,0.0,0.0,1
248586173,248586086,0.061124694,-0.15656565,0.0,0.03768844,0.0,0.0,0.0,0.0,0.0,0.0,0.0,1
248836288,248836232,0.058679707,-0.15404041,0.0,0.03768844,0.0,0.0,0.0,0.0,0.0,0.0,0.0,1
249031817,249031764,0.058679707,-0.15656565,0.0,0.03768844,0.0,0.0,0.0,0.0,0.0,0.0,0.0,1
249232489,249232433,0.058679707,-0.15656565,0.0,0.03768844,0.0,0.0,0.0,0.0,0.0,0.0,0.0,1
249442430,249442367,0.058679707,-0.15656565,0.0,0.03768844,0.0,0.0,0.0,0.0,0.0,0.0,0.0,1
249636756,249636703,0.058679707,-0.15656565,0.0,0.03517588,0.0,0.0,0.0,0.0,0.0,0.0,0.0,1
249836648,249836594,0.061124694,-0.15656565,0.0,0.03768844,0.0,0.0,0.0,0.0,0.0,0.0,0.0,1
250042643,250042331,0.058679707,-0.15656565,0.0,0.03768844,0.0,0.0,0.0,0.0,0.0,0.0,0.0,1
250242869,250242816,0.061124694,-0.15656565,0.0,0.03768844,0.0,0.0,0.0,0.0,0.0,0.0,0.0,1
250437199,250437139,0.058679707,-0.15404041,0.0,0.03517588,0.0,0.0,0.0,0.0,0.0,0.0,0.0,1
250633146,250633093,0.058679707,-0.15656565,0.0,0.03768844,0.0,0.0,0.0,0.0,0.0,0.0,0.0,1
250837349,250837289,0.058679707,-0.15656565,0.0,0.03768844,0.0,0.0,0.0,0.0,0.0,0.0,0.0,1
251037480,251037421,0.061124694,-0.15656565,0.0,0.03768844,0.0,0.0,0.0,0.0,0.0,0.0,0.0,1
251247418,251247353,0.058679707,-0.15404041,0.12162162,0.03768844,0.0,0.0,0.0,0.0,0.0,0.0,0.0,1
251447493,251447440,0.058679707,-0.15656565,0.0,0.03517588,0.0,0.0,0.0,0.0,0.0,0.0,0.0,1
251627562,251627509,0.058679707,-0.15656565,0.0,0.03768844,0.0,0.0,0.0,0.0,0.0,0.0,0.0,1
251847920,251847864,0.09290954,-0.15656565,0.0,0.03768844,0.0,0.0,0.0,0.0,0.0,0.0,0.0,1
252013962,252013878,1.0,-0.13636364,0.0,0.03768844,0.0,0.0,0.0,0.0,0.0,0.0,0.0,1
252233827,252233774,0.35207823,-0.15151516,0.0,0.03768844,0.0,0.0,0.0,0.0,0.0,0.0,0.0,1
252368100,252368032,-1.0,-0.15404041,0.0,0.03768844,0.0,0.0,0.0,0.0,0.0,0.0,0.0,1
252634161,252634101,1.0,-0.1388889,0.0,0.03768844,0.0,0.0,0.0,0.0,0.0,0.0,0.0,1
252828243,252828187,1.0,-0.045454547,0.0,0.03768844,0.0,0.0,0.0,0.0,0.0,0.0,0.0,1
253028348,253028286,-0.53904283,-0.1590909,0.0,0.03768844,0.0,0.0,0.0,0.0,0.0,0.0,0.0,1
253238400,253238339,0.026894866,-0.1590909,0.0,0.03768844,0.0,0.0,0.0,0.0,0.0,0.0,0.0,1
253428677,253428575,0.058679707,-0.15656565,0.0,0.025125628,0.0,0.0,0.0,0.0,0.0,0.0,0.0,1
253634190,253634137,-0.0025188916,-1.0,0.0,0.03517588,0.0,0.0,0.0,0.0,0.0,0.0,0.0,1
253828866,253828812,0.04400978,-1.0,0.0,0.032663316,0.0,0.0,0.0,0.0,0.0,0.0,0.0,1
254029050,254028962,-0.2141058,0.8303797,0.0,0.03517588,0.0,0.0,0.0,0.0,0.0,0.0,0.0,1
254215000,254214895,-0.17884131,0.8303797,0.0,0.032663316,0.0,0.0,0.0,0.0,0.0,0.0,0.0,1
254429085,254429032,0.056234717,-0.15404041,0.0,0.032663316,0.0,0.0,0.0,0.0,0.0,0.0,0.0,1
254639165,254639102,0.061124694,-0.15404041,0.0,0.03517588,0.0,0.0,0.0,0.0,0.0,0.0,0.0,1
254849310,254849256,0.061124694,-0.15404041,0.0,0.032663316,0.0,0.0,0.0,0.0,0.0,0.0,0.0,1
255035266,255035213,0.061124694,-0.15656565,0.0,0.032663316,0.0,0.0,0.0,0.0,0.0,0.0,0.0,1
255234963,255234910,0.061124694,-0.09343434,0.0,0.032663316,0.0,0.0,0.0,0.0,0.0,0.0,0.0,1
255435578,255435522,0.061124694,-0.15656565,0.0,0.032663316,0.0,0.0,0.0,0.0,0.0,0.0,0.0,1
255635687,255635631,0.061124694,-0.15404041,0.0,0.032663316,0.0,0.0,0.0,0.0,0.0,0.0,0.0,1
255845258,255845205,0.061124694,-0.15656565,0.0,0.03517588,0.0,0.0,0.0,0.0,0.0,0.0,0.0,1
256049960,256049904,0.061124694,-0.15404041,0.0,0.032663316,0.0,0.0,0.0,0.0,0.0,0.0,0.0,1
256236026,256235970,0.058679707,-0.15404041,0.0,0.03517588,0.0,0.0,0.0,0.0,0.0,0.0,0.0,1
256446070,256446014,0.058679707,-0.15404041,0.0,0.032663316,0.0,0.0,0.0,0.0,0.0,0.0,0.0,1
256646080,256646027,0.058679707,-0.15404041,0.0,0.032663316,0.0,0.0,0.0,0.0,0.0,0.0,0.0,1
256800272,256800211,0.061124694,-0.15404041,0.0,0.032663316,0.0,0.0,0.0,0.0,0.0,0.0,0.0,1
257036561,257036505,0.058679707,-0.15404041,0.0,0.032663316,0.0,0.0,0.0,0.0,0.0,0.0,0.0,1
257240586,257240499,0.061124694,-0.15404041,0.0,0.03517588,0.0,0.0,0.0,0.0,0.0,0.0,0.0,1
257426542,257426489,0.061124694,-0.15656565,0.0,0.03517588,0.0,0.0,0.0,0.0,0.0,0.0,0.0,1
257626652,257626589,0.061124694,-0.15656565,0.0,0.03768844,0.0,0.0,0.0,0.0,0.0,0.0,0.0,1
257836695,257836641,0.061124694,-0.15404041,0.0,0.03768844,0.0,0.0,0.0,0.0,0.0,0.0,0.0,1
258041006,258040953,0.061124694,-0.15404041,0.0,0.03517588,0.0,0.0,0.0,0.0,0.0,0.0,0.0,1
258247016,258246960,0.061124694,-0.15404041,0.0,0.03517588,0.0,0.0,0.0,0.0,0.0,0.0,0.0,1
258446595,258446541,0.061124694,-0.15404041,0.0,0.03517588,0.0,0.0,0.0,0.0,0.0,0.0,0.0,1
258647204,258647148,0.061124694,-0.15404041,0.0,0.03768844,0.0,0.0,0.0,0.0,0.0,0.0,0.0,1
258837330,258837228,0.061124694,-0.15404041,0.0,0.03768844,0.0,0.0,0.0,0.0,0.0,0.0,0.0,1
259047295,259047242,0.061124694,-0.15656565,0.0,0.03768844,0.0,0.0,0.0,0.0,0.0,0.0,0.0,1
259247072,259247016,0.061124694,-0.15404041,0.0,0.03517588,0.0,0.0,0.0,0.0,0.0,0.0,0.0,1
259441673,259441617,0.061124694,-0.15404041,0.0,0.03517588,0.0,0.0,0.0,0.0,0.0,0.0,0.0,1
259621907,259621810,0.061124694,-0.15656565,0.0,0.03768844,0.0,0.0,0.0,0.0,0.0,0.0,0.0,1
259827826,259827764,0.061124694,-0.15656565,0.0,0.03517588,0.0,0.0,0.0,0.0,0.0,0.0,0.0,1
260031829,260031776,0.061124694,-0.15404041,0.0,0.03768844,0.0,0.0,0.0,0.0,0.0,0.0,0.0,1
260237911,260237858,0.061124694,-0.15656565,0.0,0.03768844,0.0,0.0,0.0,0.0,0.0,0.0,0.0,1
260432207,260432147,0.061124694,-0.15404041,0.0,0.03768844,0.0,0.0,0.0,0.0,0.0,0.0,0.0,1
260632464,260632410,0.061124694,-0.15404041,0.0,0.03517588,0.0,0.0,0.0,0.0,0.0,0.0,0.0,1
260832443,260832389,0.061124694,-0.15404041,0.0,0.03768844,0.0,0.0,0.0,0.0,0.0,0.0,0.0,1
261032508,261032452,0.061124694,-0.15656565,0.0,0.03768844,0.0,0.0,0.0,0.0,0.0,0.0,0.0,1
261228526,261228039,0.061124694,-0.15404041,0.0,0.03768844,0.0,0.0,0.0,0.0,0.0,0.0,0.0,1
261432731,261432666,0.061124694,-0.15404041,0.07985258,0.03768844,0.0,0.0,0.0,0.0,0.0,0.0,0.0,1
261618825,261618772,0.061124694,-0.15404041,0.12653562,0.022613065,0.0,0.0,0.0,0.0,0.0,0.0,0.0,1
261832837,261832781,0.061124694,-0.15404041,0.16584766,-0.049261082,0.0,0.0,0.0,0.0,0.0,0.0,0.0,1
262003134,262003074,0.061124694,-0.15404041,0.2063882,-0.12561576,0.0,0.0,0.0,0.0,0.0,0.0,0.0,1
262243347,262243285,0.061124694,-0.15404041,0.24938574,-0.13793103,0.0,0.0,0.0,0.0,0.0,0.0,0.0,1
262429029,262428976,0.058679707,-0.15404041,0.28132677,-0.07881773,0.0,0.0,0.0,0.0,0.0,0.0,0.0,1
262643408,262643347,0.061124694,-0.15656565,0.33292383,-0.08374384,0.0,0.0,0.0,0.0,0.0,0.0,0.0,1
262839352,262839296,0.061124694,-0.15404041,0.39312038,-0.5640394,0.0,0.0,0.0,0.0,0.0,0.0,0.0,1
263043433,263043368,0.06601467,-0.15404041,0.4127764,-0.62068963,0.0,0.0,0.0,0.0,0.0,0.0,0.0,1
263249525,263249468,0.07579462,-0.15656565,0.5687961,-0.62068963,0.0,0.0,0.0,0.0,0.0,0.0,0.0,1
263429550,263429497,0.17114915,-0.15404041,0.73218673,-0.48522168,0.0,0.0,0.0,0.0,0.0,0.0,0.0,1
263639844,263639788,0.35452324,-0.15656565,0.8108108,-0.13546798,0.0,0.0,0.0,0.0,0.0,0.0,0.0,1
263839840,263839780,0.73838633,-0.15404041,0.85503685,0.23869346,0.0,0.0,0.0,0.0,0.0,0.0,0.0,1
264039887,264039834,1.0,-0.15404041,0.90909094,0.30150753,0.0,0.0,0.0,0.0,0.0,0.0,0.0,1
264224230,264224173,1.0,-0.15404041,0.94963145,-0.019704433,0.0,0.0,0.0,0.0,0.0,0.0,0.0,1
264450166,264450111,0.041564792,-0.15404041,0.995086,-0.2536946,0.0,0.0,0.0,0.0,0.0,0.0,0.0,1
264629784,264629730,-0.105793454,-0.530303,0.96314496,-0.18226601,0.0,0.0,0.0,0.0,0.0,0.0,0.0,1
264830295,264830242,0.009779952,-0.20454545,0.82063884,0.0,0.0,0.0,0.0,0.0,0.0,0.0,0.0,1
265044407,265044342,0.3422983,-0.13383839,0.6904177,0.030150754,0.0,0.0,0.0,0.0,0.0,0.0,0.0,1
265244813,265244753,0.42542788,-0.15404041,0.63882065,0.030150754,0.0,0.0,0.0,0.0,0.0,0.0,0.0,1
265444871,265444815,0.23716381,-0.027777778,0.62653565,0.030150754,0.0,0.0,0.0,0.0,0.0,0.0,0.0,1
265645054,265645001,-0.0906801,-0.1388889,0.6105651,0.030150754,0.0,0.0,0.0,0.0,0.0,0.0,0.0,1
265834835,265834770,-0.0,-0.1010101,0.57739556,0.032663316,0.0,0.0,0.0,0.0,0.0,0.0,0.0,1
266045062,266044999,0.036674816,0.121518984,0.541769,0.032663316,0.0,0.0,0.0,0.0,0.0,0.0,0.0,1
266245153,266245097,0.04645477,0.19746836,0.541769,0.03517588,0.0,0.0,0.0,0.0,0.0,0.0,0.0,1
266431082,266431025,0.06845966,0.027848102,0.5110565,0.03517588,0.0,0.0,0.0,0.0,0.0,0.0,0.0,1
266635424,266635356,0.09535452,0.015189873,0.5061425,0.03517588,0.0,0.0,0.0,0.0,0.0,0.0,0.0,1
266835410,266835347,0.10513447,-0.15404041,0.5061425,0.03517588,0.0,0.0,0.0,0.0,0.0,0.0,0.0,1
267040910,267040857,0.3374083,-0.15404041,0.5061425,0.03768844,0.0,0.0,0.0,0.0,0.0,0.0,0.0,1
267245299,267245243,0.20293398,-0.17424242,0.504914,0.03768844,0.0,0.0,0.0,0.0,0.0,0.0,0.0,1
267425688,267425632,0.17114915,-0.17929293,0.504914,0.03768844,0.0,0.0,0.0,0.0,0.0,0.0,0.0,1
267645860,267645807,0.06601467,-0.23232323,0.44963145,-0.046798028,0.0,0.0,0.0,0.0,0.0,0.0,0.0,1
267841921,267841866,0.06845966,-0.20707071,0.39680588,-0.098522164,0.0,0.0,0.0,0.0,0.0,0.0,0.0,1
268046210,268046154,0.06601467,-0.10858586,0.3894349,0.072864324,0.0,0.0,0.0,0.0,0.0,0.0,0.0,1
268246113,268246048,0.06845966,-0.15151516,0.3894349,0.0,0.0,0.0,0.0,0.0,0.0,0.0,0.0,1
268435744,268435679,0.06845966,-0.15404041,0.3894349,-0.3497537,0.0,0.0,0.0,0.0,0.0,0.0,0.0,1
268646019,268645959,0.06845966,-0.07323232,0.3894349,-0.1502463,0.0,0.0,0.0,0.0,0.0,0.0,0.0,1
268846566,268846502,0.19070904,-0.116161615,0.38329238,0.032663316,0.0,0.0,0.0,0.0,0.0,0.0,0.0,1
269032018,269031965,0.24694377,-0.04292929,0.3845209,0.04522613,0.0,0.0,0.0,0.0,0.0,0.0,0.0,1
269236586,269236532,0.20782396,0.005063291,0.36732188,0.047738694,0.0,0.0,0.0,0.0,0.0,0.0,0.0,1
269436950,269436891,0.33251834,0.010126582,0.34275183,0.04522613,0.0,0.0,0.0,0.0,0.0,0.0,0.0,1
269642758,269642705,0.32518336,-0.0,0.3894349,0.042713568,0.0,0.0,0.0,0.0,0.0,0.0,0.0,1
269847113,269847045,0.19804402,0.060759492,0.42997542,0.042713568,0.0,0.0,0.0,0.0,0.0,0.0,0.0,1
270027161,270027095,0.28606358,-0.007575758,0.46928746,0.040201005,0.0,0.0,0.0,0.0,0.0,0.0,0.0,1
270247266,270247202,0.27383864,-0.03787879,0.46805897,0.042713568,0.0,0.0,0.0,0.0,0.0,0.0,0.0,1
270436762,270436652,0.34963325,-0.0,0.46805897,0.040201005,0.0,0.0,0.0,0.0,0.0,0.0,0.0,1
270637473,270637411,0.37163815,-0.11111111,0.46805897,0.040201005,0.0,0.0,0.0,0.0,0.0,0.0,0.0,1
270837689,270837633,0.39853302,-0.15404041,0.47174448,0.042713568,0.0,0.0,0.0,0.0,0.0,0.0,0.0,1
271037661,271037600,0.58924204,-0.15656565,0.46928746,0.042713568,0.0,0.0,0.0,0.0,0.0,0.0,0.0,1
271223674,271223614,0.594132,-0.1590909,0.47051597,0.040201005,0.0,0.0,0.0,0.0,0.0,0.0,0.0,1
271433806,271433715,0.26894864,-0.14393939,0.47051597,0.040201005,0.0,0.0,0.0,0.0,0.0,0.0,0.0,1
271647996,271647930,0.041564792,-0.15656565,0.47051597,0.03768844,0.0,0.0,0.0,0.0,0.0,0.0,0.0,1
271848237,271848184,-0.010075566,-0.20959596,0.47051597,0.03768844,0.0,0.0,0.0,0.0,0.0,0.0,0.0,1
272048141,272048080,-0.055415615,-0.239899,0.47051597,0.03768844,0.0,0.0,0.0,0.0,0.0,0.0,0.0,1
272228466,272228413,-0.12846348,-0.26767677,0.46928746,0.03768844,0.0,0.0,0.0,0.0,0.0,0.0,0.0,1
272434307,272434216,-0.0,-0.28282827,0.46928746,0.040201005,0.0,0.0,0.0,0.0,0.0,0.0,0.0,1
272624312,272624259,0.25183374,-0.15656565,0.47051597,0.03768844,0.0,0.0,0.0,0.0,0.0,0.0,0.0,1
272834462,272834409,0.31051344,-0.0959596,0.46928746,0.040201005,0.0,0.0,0.0,0.0,0.0,0.0,0.0,1
273038643,273038580,0.3374083,-0.0,0.47051597,0.040201005,0.0,0.0,0.0,0.0,0.0,0.0,0.0,1
273248706,273248646,0.19315404,0.027848102,0.46928746,0.040201005,0.0,0.0,0.0,0.0,0.0,0.0,0.0,1
273424896,273424840,0.1589242,-0.06818182,0.47051597,0.040201005,0.0,0.0,0.0,0.0,0.0,0.0,0.0,1
273634835,273634782,0.08801956,0.06835443,0.47051597,0.040201005,0.0,0.0,0.0,0.0,0.0,0.0,0.0,1
273844025,273843969,0.07579462,0.0025316456,0.47051597,0.040201005,0.0,0.0,0.0,0.0,0.0,0.0,0.0,1
274039195,274039136,0.10757946,-0.032828283,0.47051597,0.040201005,0.0,0.0,0.0,0.0,0.0,0.0,0.0,1
274245124,274245071,0.2982885,-0.1489899,0.46437347,0.042713568,0.0,0.0,0.0,0.0,0.0,0.0,0.0,1
274428838,274428778,0.38875306,-0.15404041,0.46437347,0.042713568,0.0,0.0,0.0,0.0,0.0,0.0,0.0,1
274639438,274639371,0.22738387,-0.07575758,0.46437347,0.03768844,0.0,0.0,0.0,0.0,0.0,0.0,0.0,1
274839155,274838924,0.114914425,-0.025252525,0.46560195,0.03768844,0.0,0.0,0.0,0.0,0.0,0.0,0.0,1
275035553,275035500,0.13691932,-0.07575758,0.46437347,0.042713568,0.0,0.0,0.0,0.0,0.0,0.0,0.0,1
275239900,275239840,0.1589242,-0.22727273,0.46560195,0.040201005,0.0,0.0,0.0,0.0,0.0,0.0,0.0,1
275430035,275429979,0.22738387,-0.239899,0.46560195,0.03768844,0.0,0.0,0.0,0.0,0.0,0.0,0.0,1
275635929,275635844,0.23716381,-0.16414142,0.46437347,0.040201005,0.0,0.0,0.0,0.0,0.0,0.0,0.0,1
275830160,275830104,0.20537898,-0.15656565,0.46683046,0.03768844,0.0,0.0,0.0,0.0,0.0,0.0,0.0,1
276035772,276035716,0.17603911,-0.17929293,0.46560195,0.040201005,0.0,0.0,0.0,0.0,0.0,0.0,0.0,1
276240408,276240338,0.3178484,-0.16414142,0.46560195,0.040201005,0.0,0.0,0.0,0.0,0.0,0.0,0.0,1
276430659,276430545,0.22982885,-0.23232323,0.46683046,0.03768844,0.0,0.0,0.0,0.0,0.0,0.0,0.0,1
276630489,276630433,0.16136919,-0.27272728,0.46683046,0.03768844,0.0,0.0,0.0,0.0,0.0,0.0,0.0,1
276820730,276820670,0.09535452,-0.22222222,0.46560195,0.040201005,0.0,0.0,0.0,0.0,0.0,0.0,0.0,1
277026635,277026582,0.09046455,-0.20707071,0.46683046,0.03768844,0.0,0.0,0.0,0.0,0.0,0.0,0.0,1
277230869,277230813,0.09535452,-0.19949494,0.45700246,0.03768844,0.0,0.0,0.0,0.0,0.0,0.0,0.0,1
277430984,277430928,0.06845966,-0.21464646,0.42628992,0.03768844,0.0,0.0,0.0,0.0,0.0,0.0,0.0,1
277630430,277630307,0.06845966,-0.14646465,0.42628992,0.040201005,0.0,0.0,0.0,0.0,0.0,0.0,0.0,1
277827131,277827063,0.061124694,-0.0,0.42628992,0.03768844,0.0,0.0,0.0,0.0,0.0,0.0,0.0,1
278031205,278031149,0.061124694,0.012658228,0.42628992,0.040201005,0.0,0.0,0.0,0.0,0.0,0.0,0.0,1
278221372,278221315,0.061124694,-0.0,0.42628992,0.040201005,0.0,0.0,0.0,0.0,0.0,0.0,0.0,1
278440867,278440811,0.061124694,-0.0,0.42628992,0.040201005,0.0,0.0,0.0,0.0,0.0,0.0,0.0,1
278631018,278630965,0.061124694,-0.07070707,0.42628992,0.040201005,0.0,0.0,0.0,0.0,0.0,0.0,0.0,1
278831727,278831671,0.061124694,-0.15404041,0.42628992,0.040201005,0.0,0.0,0.0,0.0,0.0,0.0,0.0,1
279031827,279031736,0.061124694,-0.15404041,0.42628992,0.040201005,0.0,0.0,0.0,0.0,0.0,0.0,0.0,1
279247325,279247272,0.17359413,-0.12626262,0.42628992,0.03768844,0.0,0.0,0.0,0.0,0.0,0.0,0.0,1
279431439,279431368,0.058679707,-0.055555556,0.42628992,0.040201005,0.0,0.0,0.0,0.0,0.0,0.0,0.0,1
279637546,279637487,0.061124694,-0.07070707,0.42751843,0.040201005,0.0,0.0,0.0,0.0,0.0,0.0,0.0,1
279842402,279842337,0.061124694,-0.07323232,0.42751843,0.03768844,0.0,0.0,0.0,0.0,0.0,0.0,0.0,1
280048202,280048149,0.07579462,-0.04292929,0.42628992,0.040201005,0.0,0.0,0.0,0.0,0.0,0.0,0.0,1
280242477,280242418,0.07579462,-0.015151516,0.42628992,0.040201005,0.0,0.0,0.0,0.0,0.0,0.0,0.0,1
280442691,280442635,0.07823961,-0.007575758,0.42628992,0.040201005,0.0,0.0,0.0,0.0,0.0,0.0,0.0,1
280628592,280628539,0.06845966,-0.015151516,0.42628992,0.03768844,0.0,0.0,0.0,0.0,0.0,0.0,0.0,1
280838702,280838649,0.09290954,-0.15404041,0.42751843,0.0,0.0,0.0,0.0,0.0,0.0,0.0,0.0,1
281043173,281043120,0.3765281,-0.15151516,0.42628992,0.03768844,0.0,0.0,0.0,0.0,0.0,0.0,0.0,1
281232193,281232133,0.23471883,-0.15151516,0.42751843,0.03768844,0.0,0.0,0.0,0.0,0.0,0.0,0.0,1
281433206,281433150,0.18826406,-0.16919191,0.42506143,0.040201005,0.0,0.0,0.0,0.0,0.0,0.0,0.0,1
281623338,281623279,0.1393643,-0.16161616,0.42506143,0.040201005,0.0,0.0,0.0,0.0,0.0,0.0,0.0,1
281833379,281833317,0.06845966,-0.30555555,0.42506143,0.040201005,0.0,0.0,0.0,0.0,0.0,0.0,0.0,1
282033533,282033476,0.061124694,-0.3661616,0.42628992,0.040201005,0.0,0.0,0.0,0.0,0.0,0.0,0.0,1
282223463,282223407,0.061124694,-0.17171717,0.42628992,0.040201005,0.0,0.0,0.0,0.0,0.0,0.0,0.0,1
282433558,282433492,0.10757946,-0.1590909,0.42628992,0.040201005,0.0,0.0,0.0,0.0,0.0,0.0,0.0,1
282643637,282643581,0.23960881,-0.38131315,0.42628992,0.03768844,0.0,0.0,0.0,0.0,0.0,0.0,0.0,1
282843852,282843795,0.3031785,-0.20454545,0.42628992,0.040201005,0.0,0.0,0.0,0.0,0.0,0.0,0.0,1
283039766,283039713,0.41075796,-0.116161615,0.42628992,0.040201005,0.0,0.0,0.0,0.0,0.0,0.0,0.0,1
283229811,283229758,0.38630807,-0.05050505,0.42628992,0.040201005,0.0,0.0,0.0,0.0,0.0,0.0,0.0,1
283434311,283434214,0.3202934,0.07341772,0.42628992,0.040201005,0.0,0.0,0.0,0.0,0.0,0.0,0.0,1
283629643,283629584,0.28606358,0.11139241,0.42751843,0.040201005,0.0,0.0,0.0,0.0,0.0,0.0,0.0,1
283844402,283844340,0.080684595,-0.058080807,0.42628992,0.040201005,0.0,0.0,0.0,0.0,0.0,0.0,0.0,1
284034410,284034346,0.056234717,-0.15404041,0.42751843,0.03768844,0.0,0.0,0.0,0.0,0.0,0.0,0.0,1
284234326,284234224,-0.0,-0.2929293,0.42628992,0.040201005,0.0,0.0,0.0,0.0,0.0,0.0,0.0,1
284434043,284433990,0.058679707,-0.2651515,0.42628992,0.040201005,0.0,0.0,0.0,0.0,0.0,0.0,0.0,1
284634691,284634638,0.058679707,-0.34343433,0.42628992,0.040201005,0.0,0.0,0.0,0.0,0.0,0.0,0.0,1
284844867,284844811,0.048899755,-0.30808082,0.42751843,0.040201005,0.0,0.0,0.0,0.0,0.0,0.0,0.0,1
285044281,285044228,0.1002445,-0.1590909,0.42628992,0.040201005,0.0,0.0,0.0,0.0,0.0,0.0,0.0,1
285244961,285244905,0.24449877,0.07848101,0.42751843,0.040201005,0.0,0.0,0.0,0.0,0.0,0.0,0.0,1
285435138,285435082,0.29339853,-0.045454547,0.42751843,0.040201005,0.0,0.0,0.0,0.0,0.0,0.0,0.0,1
285644651,285644545,0.32273838,-0.083333336,0.42751843,0.040201005,0.0,0.0,0.0,0.0,0.0,0.0,0.0,1
285845310,285845254,0.3031785,-0.027777778,0.42751843,0.040201005,0.0,0.0,0.0,0.0,0.0,0.0,0.0,1
286024881,286024824,0.400978,-0.05050505,0.42628992,0.040201005,0.0,0.0,0.0,0.0,0.0,0.0,0.0,1
286245588,286245523,0.46943766,-0.060606062,0.42751843,0.040201005,0.0,0.0,0.0,0.0,0.0,0.0,0.0,1
286431644,286431591,0.45232275,-0.083333336,0.42628992,0.040201005,0.0,0.0,0.0,0.0,0.0,0.0,0.0,1
286635727,286635667,0.36674815,-0.055555556,0.42628992,0.03768844,0.0,0.0,0.0,0.0,0.0,0.0,0.0,1
286835828,286835769,0.2591687,0.04556962,0.42751843,0.03768844,0.0,0.0,0.0,0.0,0.0,0.0,0.0,1
287046049,287045996,0.27139366,-0.0,0.42628992,0.040201005,0.0,0.0,0.0,0.0,0.0,0.0,0.0,1
287231919,287231863,0.20537898,-0.032828283,0.42751843,0.03517588,0.0,0.0,0.0,0.0,0.0,0.0,0.0,1
287436291,287436238,0.19804402,-0.1010101,0.42751843,0.040201005,0.0,0.0,0.0,0.0,0.0,0.0,0.0,1
287646304,287646245,0.11002445,-0.060606062,0.42874694,0.040201005,0.0,0.0,0.0,0.0,0.0,0.0,0.0,1
287846407,287846343,0.048899755,-0.14141414,0.42628992,0.040201005,0.0,0.0,0.0,0.0,0.0,0.0,0.0,1
288036459,288036398,-0.0,-0.15404041,0.42628992,0.042713568,0.0,0.0,0.0,0.0,0.0,0.0,0.0,1
288246668,288246609,0.058679707,-0.121212125,0.42628992,0.042713568,0.0,0.0,0.0,0.0,0.0,0.0,0.0,1
288426749,288426659,0.056234717,-0.0,0.42628992,0.040201005,0.0,0.0,0.0,0.0,0.0,0.0,0.0,1
288632915,288632812,0.058679707,0.02278481,0.42751843,0.040201005,0.0,0.0,0.0,0.0,0.0,0.0,0.0,1
288842776,288842713,0.06845966,-0.025252525,0.42751843,0.03768844,0.0,0.0,0.0,0.0,0.0,0.0,0.0,1
289032856,289032800,0.083129585,-0.14646465,0.42874694,0.03768844,0.0,0.0,0.0,0.0,0.0,0.0,0.0,1
289242585,289242532,0.12713936,-0.12373737,0.42751843,0.040201005,0.0,0.0,0.0,0.0,0.0,0.0,0.0,1
289437294,289437241,0.18826406,-0.07070707,0.42751843,0.040201005,0.0,0.0,0.0,0.0,0.0,0.0,0.0,1
289627295,289627239,0.18581907,-0.0,0.42751843,0.040201005,0.0,0.0,0.0,0.0,0.0,0.0,0.0,1
289847369,289847313,0.40342298,-0.15404041,0.46437347,0.040201005,0.0,0.0,0.0,0.0,0.0,0.0,0.0,1
290036953,290036897,0.40342298,-0.15656565,0.46560195,0.040201005,0.0,0.0,0.0,0.0,0.0,0.0,0.0,1
290247459,290247348,0.43276283,-0.14646465,0.46683046,0.040201005,0.0,0.0,0.0,0.0,0.0,0.0,0.0,1
290443577,290443524,0.36919317,-0.09848485,0.46683046,0.040201005,0.0,0.0,0.0,0.0,0.0,0.0,0.0,1
290627750,290627697,0.33007336,-0.09090909,0.46560195,0.042713568,0.0,0.0,0.0,0.0,0.0,0.0,0.0,1
290833809,290833756,0.29095355,-0.0479798,0.46560195,0.042713568,0.0,0.0,0.0,0.0,0.0,0.0,0.0,1
291043912,291043859,0.27139366,-0.017676767,0.46683046,0.040201005,0.0,0.0,0.0,0.0,0.0,0.0,0.0,1
291238246,291238187,0.31051344,-0.032828283,0.46560195,0.040201005,0.0,0.0,0.0,0.0,0.0,0.0,0.0,1
291438144,291438090,0.3031785,-0.0,0.46560195,0.040201005,0.0,0.0,0.0,0.0,0.0,0.0,0.0,1
291638387,291638316,0.2591687,-0.0,0.46437347,0.042713568,0.0,0.0,0.0,0.0,0.0,0.0,0.0,1
291847868,291847812,0.3594132,-0.12626262,0.46560195,0.040201005,0.0,0.0,0.0,0.0,0.0,0.0,0.0,1
292038909,292038856,0.40586796,-0.1489899,0.46560195,0.040201005,0.0,0.0,0.0,0.0,0.0,0.0,0.0,1
292247419,292247351,0.43765283,-0.34848484,0.46560195,0.040201005,0.0,0.0,0.0,0.0,0.0,0.0,0.0,1
292438973,292438886,0.4205379,-0.52272725,0.46560195,0.03768844,0.0,0.0,0.0,0.0,0.0,0.0,0.0,1
292649029,292648976,0.38630807,-0.44191918,0.46560195,0.040201005,0.0,0.0,0.0,0.0,0.0,0.0,0.0,1
292838346,292838289,0.36919317,-0.2929293,0.46560195,0.03768844,0.0,0.0,0.0,0.0,0.0,0.0,0.0,1
293019150,293019094,0.37408313,-0.18181819,0.42874694,0.040201005,0.0,0.0,0.0,0.0,0.0,0.0,0.0,1
293229274,293229221,0.24205379,0.020253165,0.42874694,0.040201005,0.0,0.0,0.0,0.0,0.0,0.0,0.0,1
293439433,293439369,0.2200489,-0.032828283,0.42997542,0.03768844,0.0,0.0,0.0,0.0,0.0,0.0,0.0,1
293625294,293625241,0.13691932,-0.09343434,0.46683046,0.040201005,0.0,0.0,0.0,0.0,0.0,0.0,0.0,1
293839522,293839469,0.06845966,-0.022727273,0.46805897,0.040201005,0.0,0.0,0.0,0.0,0.0,0.0,0.0,1
294019732,294019679,0.06601467,-0.007575758,0.46805897,0.040201005,0.0,0.0,0.0,0.0,0.0,0.0,0.0,1
294229613,294229560,-0.0,-0.0,0.46805897,0.040201005,0.0,0.0,0.0,0.0,0.0,0.0,0.0,1
294429742,294429689,-0.0,-0.0,0.46683046,0.040201005,0.0,0.0,0.0,0.0,0.0,0.0,0.0,1
294639823,294639770,0.10757946,0.09873418,0.46683046,0.040201005,0.0,0.0,0.0,0.0,0.0,0.0,0.0,1
294839617,294839557,0.2958435,0.017721519,0.43488944,0.040201005,0.0,0.0,0.0,0.0,0.0,0.0,0.0,1
295020301,295020245,0.46210268,-0.083333336,0.42628992,0.040201005,0.0,0.0,0.0,0.0,0.0,0.0,0.0,1
295239674,295239618,0.6185819,-0.15656565,0.42506143,0.042713568,0.0,0.0,0.0,0.0,0.0,0.0,0.0,1
295420448,295420389,0.6601467,-0.18939394,0.42628992,0.040201005,0.0,0.0,0.0,0.0,0.0,0.0,0.0,1
295630611,295630555,0.6136919,-0.18939394,0.42383292,0.040201005,0.0,0.0,0.0,0.0,0.0,0.0,0.0,1
295826096,295826036,0.5770171,-0.20454545,0.42137593,0.03768844,0.0,0.0,0.0,0.0,0.0,0.0,0.0,1
296040638,296040571,0.5354523,-0.18939394,0.42137593,0.040201005,0.0,0.0,0.0,0.0,0.0,0.0,0.0,1
296230684,296230623,0.400978,-0.10606061,0.4189189,0.040201005,0.0,0.0,0.0,0.0,0.0,0.0,0.0,1
296436395,296436333,0.39608803,-0.083333336,0.4189189,0.040201005,0.0,0.0,0.0,0.0,0.0,0.0,0.0,1
296631084,296631020,0.37408313,-0.027777778,0.3894349,0.040201005,0.0,0.0,0.0,0.0,0.0,0.0,0.0,1
296836965,296836912,0.39119804,-0.04292929,0.3894349,0.040201005,0.0,0.0,0.0,0.0,0.0,0.0,0.0,1
297041168,297041102,0.32273838,-0.0,0.3894349,0.040201005,0.0,0.0,0.0,0.0,0.0,0.0,0.0,1
297236519,297236466,0.3202934,-0.0025252525,0.3894349,0.040201005,0.0,0.0,0.0,0.0,0.0,0.0,0.0,1
297441410,297441346,0.29095355,-0.0,0.3894349,0.040201005,0.0,0.0,0.0,0.0,0.0,0.0,0.0,1
297641588,297641460,0.3594132,-0.060606062,0.3894349,0.042713568,0.0,0.0,0.0,0.0,0.0,0.0,0.0,1
297831731,297831677,0.35207823,-0.09090909,0.3906634,0.03768844,0.0,0.0,0.0,0.0,0.0,0.0,0.0,1
298030976,298030923,0.27139366,-0.078282826,0.3882064,0.040201005,0.0,0.0,0.0,0.0,0.0,0.0,0.0,1
298247799,298247697,0.20782396,-0.032828283,0.3894349,0.03768844,0.0,0.0,0.0,0.0,0.0,0.0,0.0,1
298431249,298431189,0.27139366,-0.12373737,0.38697788,0.03768844,0.0,0.0,0.0,0.0,0.0,0.0,0.0,1
298647941,298647884,0.1809291,-0.15404041,0.3820639,0.03768844,0.0,0.0,0.0,0.0,0.0,0.0,0.0,1
298842047,298841986,0.06845966,-0.18939394,0.3820639,0.040201005,0.0,0.0,0.0,0.0,0.0,0.0,0.0,1
299042482,299042422,0.061124694,-0.33585858,0.3820639,0.040201005,0.0,0.0,0.0,0.0,0.0,0.0,0.0,1
299222828,299222771,0.085574575,-0.36363637,0.3820639,0.03768844,0.0,0.0,0.0,0.0,0.0,0.0,0.0,1
299442546,299442486,0.15403423,-0.16919191,0.38329238,0.03768844,0.0,0.0,0.0,0.0,0.0,0.0,0.0,1
299642942,299642889,0.24694377,-0.16666667,0.3820639,0.03768844,0.0,0.0,0.0,0.0,0.0,0.0,0.0,1
299842190,299842136,0.22982885,-0.16161616,0.3820639,0.03768844,0.0,0.0,0.0,0.0,0.0,0.0,0.0,1
300033075,300033015,0.12958436,0.070886075,0.3820639,0.040201005,0.0,0.0,0.0,0.0,0.0,0.0,0.0,1
300238843,300238787,0.10268949,0.09113924,0.3820639,0.040201005,0.0,0.0,0.0,0.0,0.0,0.0,0.0,1
300438919,300438819,0.06601467,0.08607595,0.3820639,0.03768844,0.0,0.0,0.0,0.0,0.0,0.0,0.0,1
300643562,300643509,0.06601467,0.07341772,0.3820639,0.03768844,0.0,0.0,0.0,0.0,0.0,0.0,0.0,1
300829047,300828994,0.06845966,0.08101266,0.3820639,0.040201005,0.0,0.0,0.0,0.0,0.0,0.0,0.0,1
301038833,301038778,0.119804405,-0.05050505,0.38329238,0.040201005,0.0,0.0,0.0,0.0,0.0,0.0,0.0,1
301243534,301243481,0.22249389,-0.15151516,0.3820639,0.040201005,0.0,0.0,0.0,0.0,0.0,0.0,0.0,1
301443629,301443572,0.25183374,-0.15404041,0.3820639,0.03768844,0.0,0.0,0.0,0.0,0.0,0.0,0.0,1
301633773,301633707,0.29339853,-0.24494949,0.3820639,0.03768844,0.0,0.0,0.0,0.0,0.0,0.0,0.0,1
301833804,301833742,0.3007335,-0.31060606,0.38083538,0.040201005,0.0,0.0,0.0,0.0,0.0,0.0,0.0,1
302034021,302033914,0.3178484,-0.19444445,0.38083538,0.03768844,0.0,0.0,0.0,0.0,0.0,0.0,0.0,1
302243389,302243293,0.4205379,-0.16161616,0.38083538,0.040201005,0.0,0.0,0.0,0.0,0.0,0.0,0.0,1
302444209,302444146,0.34963325,-0.21464646,0.3820639,0.03768844,0.0,0.0,0.0,0.0,0.0,0.0,0.0,1
302634245,302634192,0.31295845,-0.17929293,0.38083538,0.040201005,0.0,0.0,0.0,0.0,0.0,0.0,0.0,1
302844410,302844345,0.3594132,-0.15656565,0.38083538,0.040201005,0.0,0.0,0.0,0.0,0.0,0.0,0.0,1
303030231,303030178,0.34718826,-0.17171717,0.38083538,0.040201005,0.0,0.0,0.0,0.0,0.0,0.0,0.0,1
303234360,303234307,0.18337408,-0.25,0.37960687,0.040201005,0.0,0.0,0.0,0.0,0.0,0.0,0.0,1
303434553,303434497,0.20537898,-0.17676768,0.37960687,0.040201005,0.0,0.0,0.0,0.0,0.0,0.0,0.0,1
303634091,303634035,0.15403423,-0.02020202,0.37960687,0.03768844,0.0,0.0,0.0,0.0,0.0,0.0,0.0,1
303834864,303834807,0.08801956,-0.0025252525,0.37960687,0.040201005,0.0,0.0,0.0,0.0,0.0,0.0,0.0,1
304034962,304034900,0.06601467,0.07341772,0.37960687,0.03517588,0.0,0.0,0.0,0.0,0.0,0.0,0.0,1
304225072,304225015,0.058679707,0.16202532,0.38083538,0.03517588,0.0,0.0,0.0,0.0,0.0,0.0,0.0,1
304434539,304434483,0.061124694,0.055696204,0.38083538,0.03517588,0.0,0.0,0.0,0.0,0.0,0.0,0.0,1
304635231,304635168,0.058679707,-0.005050505,0.38083538,0.03517588,0.0,0.0,0.0,0.0,0.0,0.0,0.0,1
304835234,304835181,0.058679707,-0.14646465,0.38083538,0.03517588,0.0,0.0,0.0,0.0,0.0,0.0,0.0,1
305034087,305034032,0.07090464,-0.5479798,0.38083538,0.03517588,0.0,0.0,0.0,0.0,0.0,0.0,0.0,1
305230974,305230917,0.09779951,-0.33585858,0.37960687,0.03768844,0.0,0.0,0.0,0.0,0.0,0.0,0.0,1
305435152,305434926,0.40586796,-0.15656565,0.38083538,0.03517588,0.0,0.0,0.0,0.0,0.0,0.0,0.0,1
305645184,305645128,0.26894864,-0.15656565,0.37960687,0.03768844,0.0,0.0,0.0,0.0,0.0,0.0,0.0,1
305835916,305835856,0.26894864,-0.0479798,0.38083538,0.03768844,0.0,0.0,0.0,0.0,0.0,0.0,0.0,1
306046022,306045962,0.17848411,-0.04292929,0.38083538,0.03768844,0.0,0.0,0.0,0.0,0.0,0.0,0.0,1
306236210,306236154,0.13691932,-0.02020202,0.38083538,0.040201005,0.0,0.0,0.0,0.0,0.0,0.0,0.0,1
306446421,306446360,0.06845966,0.08101266,0.38083538,0.040201005,0.0,0.0,0.0,0.0,0.0,0.0,0.0,1
306646512,306646448,0.06601467,0.1164557,0.38083538,0.03517588,0.0,0.0,0.0,0.0,0.0,0.0,0.0,1
306835837,306835783,0.061124694,0.35949367,0.38083538,0.03517588,0.0,0.0,0.0,0.0,0.0,0.0,0.0,1
307046510,307046454,0.10268949,0.06835443,0.3820639,0.03517588,0.0,0.0,0.0,0.0,0.0,0.0,0.0,1
307246636,307246581,0.2176039,-0.15404041,0.38083538,0.03768844,0.0,0.0,0.0,0.0,0.0,0.0,0.0,1
307446760,307446694,0.39119804,-0.15404041,0.38083538,0.03768844,0.0,0.0,0.0,0.0,0.0,0.0,0.0,1
307646218,307646137,0.3031785,-0.11363637,0.3820639,0.03768844,0.0,0.0,0.0,0.0,0.0,0.0,0.0,1
307837015,307836956,0.31295845,-0.270202,0.38329238,0.03517588,0.0,0.0,0.0,0.0,0.0,0.0,0.0,1
308027127,308027066,0.30562347,-0.25,0.3820639,0.03768844,0.0,0.0,0.0,0.0,0.0,0.0,0.0,1
308237076,308237021,0.1393643,-0.121212125,0.38329238,0.03768844,0.0,0.0,0.0,0.0,0.0,0.0,0.0,1
308443097,308443044,0.1589242,-0.007575758,0.3820639,0.03768844,0.0,0.0,0.0,0.0,0.0,0.0,0.0,1
308647393,308647325,0.23471883,-0.09090909,0.3820639,0.03768844,0.0,0.0,0.0,0.0,0.0,0.0,0.0,1
308836832,308836776,0.17603911,0.048101265,0.38329238,0.03768844,0.0,0.0,0.0,0.0,0.0,0.0,0.0,1
309046943,309046887,0.200489,0.030379746,0.38329238,0.03768844,0.0,0.0,0.0,0.0,0.0,0.0,0.0,1
309237075,309236972,0.28850856,0.0025316456,0.38329238,0.03768844,0.0,0.0,0.0,0.0,0.0,0.0,0.0,1
309427989,309427935,0.41564792,-0.03787879,0.38329238,0.03517588,0.0,0.0,0.0,0.0,0.0,0.0,0.0,1
309647531,309647472,0.55256724,-0.14141414,0.38329238,0.03768844,0.0,0.0,0.0,0.0,0.0,0.0,0.0,1
309847944,309847881,0.58924204,-0.15404041,0.38329238,0.03768844,0.0,0.0,0.0,0.0,0.0,0.0,0.0,1
310048112,310048045,0.5427873,-0.1590909,0.38329238,0.03768844,0.0,0.0,0.0,0.0,0.0,0.0,0.0,1
310228160,310228107,0.29095355,-0.16919191,0.38329238,0.03517588,0.0,0.0,0.0,0.0,0.0,0.0,0.0,1
310438346,310438283,0.10757946,-0.22222222,0.38329238,0.03768844,0.0,0.0,0.0,0.0,0.0,0.0,0.0,1
310618464,310618407,0.06845966,-0.17171717,0.3980344,0.03768844,0.0,0.0,0.0,0.0,0.0,0.0,0.0,1
310838395,310838328,-0.055415615,-0.0,0.42997542,0.03768844,0.0,0.0,0.0,0.0,0.0,0.0,0.0,1
311047966,311047902,-0.012594459,0.08354431,0.42874694,0.03768844,0.0,0.0,0.0,0.0,0.0,0.0,0.0,1
311248683,311248623,0.048899755,0.10886076,0.42874694,0.03768844,0.0,0.0,0.0,0.0,0.0,0.0,0.0,1
311428893,311428839,0.056234717,0.055696204,0.42874694,0.03517588,0.0,0.0,0.0,0.0,0.0,0.0,0.0,1
311629066,311629010,0.20537898,0.027848102,0.42874694,0.03768844,0.0,0.0,0.0,0.0,0.0,0.0,0.0,1
311829289,311829233,0.30562347,-0.0,0.42874694,0.03768844,0.0,0.0,0.0,0.0,0.0,0.0,0.0,1
312049330,312049273,0.3202934,-0.0,0.43120393,0.03517588,0.0,0.0,0.0,0.0,0.0,0.0,0.0,1
312249344,312249291,0.59902203,-0.053030305,0.43120393,0.03768844,0.0,0.0,0.0,0.0,0.0,0.0,0.0,1
312444441,312444379,0.6650367,-0.15404041,0.43980345,0.03768844,0.0,0.0,0.0,0.0,0.0,0.0,0.0,1
312639542,312639489,0.44743276,-0.22979797,0.47542998,0.03768844,0.0,0.0,0.0,0.0,0.0,0.0,0.0,1
312825006,312824953,0.09535452,-0.2020202,0.47420147,0.040201005,0.0,0.0,0.0,0.0,0.0,0.0,0.0,1
313029010,313028950,-0.01511335,-0.15656565,0.46928746,0.03768844,0.0,0.0,0.0,0.0,0.0,0.0,0.0,1
313229880,313229827,0.051344745,-0.24747474,0.46928746,0.040201005,0.0,0.0,0.0,0.0,0.0,0.0,0.0,1
313435733,313435680,0.13691932,-0.3030303,0.46928746,0.03768844,0.0,0.0,0.0,0.0,0.0,0.0,0.0,1
313645350,313645297,0.17603911,-0.45454547,0.46928746,0.040201005,0.0,0.0,0.0,0.0,0.0,0.0,0.0,1
313836193,313836108,0.40342298,-0.16161616,0.46928746,0.03768844,0.0,0.0,0.0,0.0,0.0,0.0,0.0,1
314026277,314026192,0.44743276,-0.12626262,0.46928746,0.03768844,0.0,0.0,0.0,0.0,0.0,0.0,0.0,1
314240208,314240155,0.2176039,-0.025252525,0.46928746,0.03768844,0.0,0.0,0.0,0.0,0.0,0.0,0.0,1
314426427,314426316,0.058679707,-0.017676767,0.46805897,0.03768844,0.0,0.0,0.0,0.0,0.0,0.0,0.0,1
314636026,314635970,0.02200489,-0.0,0.46928746,0.03768844,0.0,0.0,0.0,0.0,0.0,0.0,0.0,1
314830558,314830498,0.04645477,0.15443037,0.46928746,0.03517588,0.0,0.0,0.0,0.0,0.0,0.0,0.0,1
315030023,315029967,0.058679707,0.06329114,0.46928746,0.03768844,0.0,0.0,0.0,0.0,0.0,0.0,0.0,1
315236689,315236636,0.058679707,-0.035353534,0.46928746,0.03768844,0.0,0.0,0.0,0.0,0.0,0.0,0.0,1
315446873,315446817,0.06845966,-0.0479798,0.47051597,0.03517588,0.0,0.0,0.0,0.0,0.0,0.0,0.0,1
315621225,315621132,0.012224939,-0.035353534,0.46928746,0.03768844,0.0,0.0,0.0,0.0,0.0,0.0,0.0,1
315846605,315846548,0.056234717,-0.15404041,0.46928746,0.03768844,0.0,0.0,0.0,0.0,0.0,0.0,0.0,1
316030706,316030653,0.056234717,-0.15656565,0.46928746,0.03768844,0.0,0.0,0.0,0.0,0.0,0.0,0.0,1
316230774,316230714,0.051344745,-0.15404041,0.46928746,0.03768844,0.0,0.0,0.0,0.0,0.0,0.0,0.0,1
316446797,316446744,0.058679707,-0.07575758,0.47051597,0.03517588,0.0,0.0,0.0,0.0,0.0,0.0,0.0,1
316621742,316621676,0.058679707,-0.15151516,0.46928746,0.03768844,0.0,0.0,0.0,0.0,0.0,0.0,0.0,1
316841867,316841814,0.080684595,-0.1388889,0.46928746,0.03517588,0.0,0.0,0.0,0.0,0.0,0.0,0.0,1
317021985,317021897,0.06845966,-0.1010101,0.46928746,0.03768844,0.0,0.0,0.0,0.0,0.0,0.0,0.0,1
317241916,317241861,0.06601467,0.08607595,0.46928746,0.03768844,0.0,0.0,0.0,0.0,0.0,0.0,0.0,1
317421969,317421916,0.06845966,-0.045454547,0.46928746,0.03768844,0.0,0.0,0.0,0.0,0.0,0.0,0.0,1
