timestamp,timestamp_sample,gps_hvel[0],gps_hvel[1],gps_vvel,gps_hpos[0],gps_hpos[1],gps_vpos,ev_hvel[0],ev_hvel[1],ev_vvel,ev_hpos[0],ev_hpos[1],ev_vpos,rng_vpos,baro_vpos,aux_hvel[0],aux_hvel[1],aux_vvel,flow[0],flow[1],heading,mag_field[0],mag_field[1],mag_field[2],drag[0],drag[1],airspeed,beta,hagl
186840056,186838176,0.0,0.0,0.0,2.1752408e-06,0.0,0.0,0.0,0.0,0.0,0.0,0.0,0.0,0.0,0.0,0.0,0.0,nan,0.0,0.0,4.1107996e-06,0.0,0.0,0.0,0.0,0.0,0.0,0.0,0.0
186850594,186848181,0.0,0.0,0.0,2.1752408e-06,0.0,0.0,0.0,0.0,0.0,0.0,0.0,0.0,0.0,0.0,0.0,0.0,nan,0.0,0.0,2.2109849e-05,0.0,0.0,0.0,0.0,0.0,0.0,0.0,0.0
187340263,187338413,0.0,0.0,0.0,4.5871825e-06,0.0,0.0,0.0,0.0,0.0,0.0,0.0,0.0,0.0,0.0,0.0,0.0,nan,0.0,0.0,2.8093958e-05,0.0,0.0,0.0,0.0,0.0,0.0,0.0,0.0
187840355,187838647,0.0,0.0,0.0,1.286204e-05,0.0,0.0,0.0,0.0,0.0,0.0,0.0,0.0,0.0,0.0,0.0,0.0,nan,0.0,0.0,1.5176963e-05,0.0,0.0,0.0,0.0,0.0,0.0,0.0,0.0
188351285,188348890,0.0,0.0,0.0,1.7011202e-05,0.0,0.0,0.0,0.0,0.0,0.0,0.0,0.0,0.0,5.3423482e-05,0.0,0.0,nan,0.0,0.0,4.638785e-05,0.0,0.0,0.0,0.0,0.0,0.0,0.0,0.0
188851077,188849128,0.0,0.0,0.0,1.956217e-05,0.0,0.0,0.0,0.0,0.0,0.0,0.0,0.0,0.0,0.0,0.0,0.0,nan,0.0,0.0,2.0235015e-05,0.0,0.0,0.0,0.0,0.0,0.0,0.0,0.0
189341255,189339361,0.0,0.0,0.0,1.6954213e-05,0.0,0.0,0.0,0.0,0.0,0.0,0.0,0.0,0.0,0.0,0.0,0.0,nan,0.0,0.0,5.692978e-08,0.0,0.0,0.0,0.0,0.0,0.0,0.0,0.0
189841307,189839599,0.0,0.0,0.0,1.2080612e-05,0.0,0.0,0.0,0.0,0.0,0.0,0.0,0.0,0.0,7.009547e-06,0.0,0.0,nan,0.0,0.0,4.44391e-07,0.0,0.0,0.0,0.0,0.0,0.0,0.0,0.0
190342104,190339837,0.0,0.0,0.0,8.977159e-06,0.0,0.0,0.0,0.0,0.0,0.0,0.0,0.0,0.0,0.0,0.0,0.0,nan,0.0,0.0,4.572211e-05,0.0,0.0,0.0,0.0,0.0,0.0,0.0,0.0
190842274,190840115,0.0,0.0,0.0,2.5204897e-06,0.0,0.0,0.0,0.0,0.0,0.0,0.0,0.0,0.0,0.0,0.0,0.0,nan,0.0,0.0,1.8565157e-05,0.0,0.0,0.0,0.0,0.0,0.0,0.0,0.0
191342380,191340314,0.0,0.0,0.0,1.8069734e-06,0.0,0.0,0.0,0.0,0.0,0.0,0.0,0.0,0.0,0.0,0.0,0.0,nan,0.0,0.0,7.357383e-07,0.0,0.0,0.0,0.0,0.0,0.0,0.0,0.0
191842606,191840552,0.0,0.0,0.0,1.4884383e-05,0.0,0.0,0.0,0.0,0.0,0.0,0.0,0.0,0.0,0.0,0.0,0.0,nan,0.0,0.0,8.6096827e-07,0.0,0.0,0.0,0.0,0.0,0.0,0.0,0.0
192342497,192340790,0.0,0.0,0.0,1.8376051e-05,0.0,0.0,0.0,0.0,0.0,0.0,0.0,0.0,0.0,4.766517e-06,0.0,0.0,nan,0.0,0.0,1.878919e-05,0.0,0.0,0.0,0.0,0.0,0.0,0.0,0.0
192842682,192841028,0.0,0.0,0.0,1.8121225e-05,0.0,0.0,0.0,0.0,0.0,0.0,0.0,0.0,0.0,5.991176e-07,0.0,0.0,nan,0.0,0.0,1.6393373e-06,0.0,0.0,0.0,0.0,0.0,0.0,0.0,0.0
193343163,193341270,0.0,0.0,0.0,2.9646797e-05,0.0,0.0,0.0,0.0,0.0,0.0,0.0,0.0,0.0,0.0,0.0,0.0,nan,0.0,0.0,5.20682e-06,0.0,0.0,0.0,0.0,0.0,0.0,0.0,0.0
193843448,193841505,0.0,0.0,0.0,3.1382915e-05,0.0,0.0,0.0,0.0,0.0,0.0,0.0,0.0,0.0,0.0,0.0,0.0,nan,0.0,0.0,2.9144005e-06,0.0,0.0,0.0,0.0,0.0,0.0,0.0,0.0
194343625,194341752,0.0,0.0,0.0,1.4177554e-05,0.0,0.0,0.0,0.0,0.0,0.0,0.0,0.0,0.0,0.0,0.0,0.0,nan,0.0,0.0,9.06116e-06,0.0,0.0,0.0,0.0,0.0,0.0,0.0,0.0
194843906,194841982,0.0,0.0,0.0,9.2312475e-06,0.0,0.0,0.0,0.0,0.0,0.0,0.0,0.0,0.0,4.0137297e-07,0.0,0.0,nan,0.0,0.0,2.4329787e-09,0.0,0.0,0.0,0.0,0.0,0.0,0.0,0.0
195343984,195342220,0.0,0.0,0.0,4.4298845e-06,0.0,0.0,0.0,0.0,0.0,0.0,0.0,0.0,0.0,0.0,0.0,0.0,nan,0.0,0.0,5.822223e-05,0.0,0.0,0.0,0.0,0.0,0.0,0.0,0.0
195844191,195842459,0.0,0.0,0.0,9.849759e-06,0.0,0.0,0.0,0.0,0.0,0.0,0.0,0.0,0.0,0.0,0.0,0.0,nan,0.0,0.0,2.8406356e-07,0.0,0.0,0.0,0.0,0.0,0.0,0.0,0.0
196344416,196342705,0.0,0.0,0.0,2.1659103e-05,0.0,0.0,0.0,0.0,0.0,0.0,0.0,0.0,0.0,0.0,0.0,0.0,nan,0.0,0.0,2.4148349e-05,0.0,0.0,0.0,0.0,0.0,0.0,0.0,0.0
196845267,196842961,0.0,0.0,0.0,1.3872791e-05,0.0,0.0,0.0,0.0,0.0,0.0,0.0,0.0,0.0,1.7011058e-05,0.0,0.0,nan,0.0,0.0,5.885588e-09,0.0,0.0,0.0,0.0,0.0,0.0,0.0,0.0
197345208,197343176,0.0,0.0,0.0,9.603859e-06,0.0,0.0,0.0,0.0,0.0,0.0,0.0,0.0,0.0,0.0,0.0,0.0,nan,0.0,0.0,1.0481633e-05,0.0,0.0,0.0,0.0,0.0,0.0,0.0,0.0
197845204,197843418,0.0,0.0,0.0,1.0882846e-05,0.0,0.0,0.0,0.0,0.0,0.0,0.0,0.0,0.0,0.00024896942,0.0,0.0,nan,0.0,0.0,3.5652292e-07,0.0,0.0,0.0,0.0,0.0,0.0,0.0,0.0
198345693,198343657,0.0,0.0,0.0,1.407898e-05,0.0,0.0,0.0,0.0,0.0,0.0,0.0,0.0,0.0,0.0,0.0,0.0,nan,0.0,0.0,8.033745e-07,0.0,0.0,0.0,0.0,0.0,0.0,0.0,0.0
198845859,198843893,0.0,0.0,0.0,2.015162e-05,0.0,0.0,0.0,0.0,0.0,0.0,0.0,0.0,0.0,5.49524e-05,0.0,0.0,nan,0.0,0.0,9.939305e-06,0.0,0.0,0.0,0.0,0.0,0.0,0.0,0.0
199346101,199344134,0.0,0.0,0.0,2.0212647e-05,0.0,0.0,0.0,0.0,0.0,0.0,0.0,0.0,0.0,0.0,0.0,0.0,nan,0.0,0.0,6.633035e-05,0.0,0.0,0.0,0.0,0.0,0.0,0.0,0.0
199846412,199844378,0.0,0.0,0.0,1.8394396e-05,0.0,0.0,0.0,0.0,0.0,0.0,0.0,0.0,0.0,0.00015321073,0.0,0.0,nan,0.0,0.0,2.5221136e-05,0.0,0.0,0.0,0.0,0.0,0.0,0.0,0.0
200346615,200344612,0.0,0.0,0.0,2.1406406e-05,0.0,0.0,0.0,0.0,0.0,0.0,0.0,0.0,0.0,3.872509e-06,0.0,0.0,nan,0.0,0.0,6.641722e-05,0.0,0.0,0.0,0.0,0.0,0.0,0.0,0.0
200846863,200844854,0.0,0.0,0.0,1.9799685e-05,0.0,0.0,0.0,0.0,0.0,0.0,0.0,0.0,0.0,0.00022630328,0.0,0.0,nan,0.0,0.0,4.7249373e-06,0.0,0.0,0.0,0.0,0.0,0.0,0.0,0.0
201346774,201345103,0.0,0.0,0.0,1.975015e-05,0.0,0.0,0.0,0.0,0.0,0.0,0.0,0.0,0.0,6.766857e-05,0.0,0.0,nan,0.0,0.0,3.592963e-08,0.0,0.0,0.0,0.0,0.0,0.0,0.0,0.0
201847194,201845339,0.0,0.0,0.0,1.7529794e-05,0.0,0.0,0.0,0.0,0.0,0.0,0.0,0.0,0.0,0.0,0.0,0.0,nan,0.0,0.0,5.1855952e-08,0.0,0.0,0.0,0.0,0.0,0.0,0.0,0.0
202347587,202345572,0.0,0.0,0.0,2.0788559e-05,0.0,0.0,0.0,0.0,0.0,0.0,0.0,0.0,0.0,0.0,0.0,0.0,nan,0.0,0.0,4.6345863e-06,0.0,0.0,0.0,0.0,0.0,0.0,0.0,0.0
202847724,202845812,0.0,0.0,0.0,2.0020307e-05,0.0,0.0,0.0,0.0,0.0,0.0,0.0,0.0,0.0,0.0,0.0,0.0,nan,0.0,0.0,5.988677e-10,0.0,0.0,0.0,0.0,0.0,0.0,0.0,0.0
203348101,203346053,0.0,0.0,0.0,1.8573724e-05,0.0,0.0,0.0,0.0,0.0,0.0,0.0,0.0,0.0,0.0,0.0,0.0,nan,0.0,0.0,5.122626e-06,0.0,0.0,0.0,0.0,0.0,0.0,0.0,0.0
203848473,203846293,0.0,0.0,0.0,2.2316617e-05,0.0,0.0,0.0,0.0,0.0,0.0,0.0,0.0,0.0,0.0,0.0,0.0,nan,0.0,0.0,1.6167709e-05,0.0,0.0,0.0,0.0,0.0,0.0,0.0,0.0
204348183,204346534,0.0,0.0,0.0,2.3441113e-05,0.0,0.0,0.0,0.0,0.0,0.0,0.0,0.0,0.0,0.0,0.0,0.0,nan,0.0,0.0,2.4221158e-06,0.0,0.0,0.0,0.0,0.0,0.0,0.0,0.0
204848627,204846775,0.0,0.0,0.0,2.3531924e-05,0.0,0.0,0.0,0.0,0.0,0.0,0.0,0.0,0.0,0.0,0.0,0.0,nan,0.0,0.0,4.6721407e-08,0.0,0.0,0.0,0.0,0.0,0.0,0.0,0.0
205348645,205347016,0.0,0.0,0.0,2.3541472e-05,0.0,0.0,0.0,0.0,0.0,0.0,0.0,0.0,0.0,0.0,0.0,0.0,nan,0.0,0.0,2.886418e-06,0.0,0.0,0.0,0.0,0.0,0.0,0.0,0.0
205849192,205847257,0.0,0.0,0.0,0.00013877338,0.0,0.0,0.0,0.0,0.0,0.0,0.0,0.0,0.0,0.0,0.0,0.0,nan,0.0,0.0,1.4597077e-09,0.0,0.0,0.0,0.0,0.0,0.0,0.0,0.0
206349476,206347506,0.0,0.0,0.0,4.796901e-05,0.0,0.0,0.0,0.0,0.0,0.0,0.0,0.0,0.0,0.0,0.0,0.0,nan,0.0,0.0,2.03138e-05,0.0,0.0,0.0,0.0,0.0,0.0,0.0,0.0
206840042,206837735,0.0,0.0,0.0,5.508681e-06,0.0,0.0,0.0,0.0,0.0,0.0,0.0,0.0,0.0,0.0,0.0,0.0,nan,0.0,0.0,4.6305627e-06,0.0,0.0,0.0,0.0,0.0,0.0,0.0,0.0
207339922,207338007,0.0,0.0,0.0,1.7702298e-05,0.0,0.0,0.0,0.0,0.0,0.0,0.0,0.0,0.0,0.0,0.0,0.0,nan,0.0,0.0,2.7648004e-05,0.0,0.0,0.0,0.0,0.0,0.0,0.0,0.0
207840268,207838223,0.0,0.0,0.0,5.0112576e-05,0.0,0.0,0.0,0.0,0.0,0.0,0.0,0.0,0.0,0.0,0.0,0.0,nan,0.0,0.0,7.531873e-06,0.0,0.0,0.0,0.0,0.0,0.0,0.0,0.0
208340309,208338461,0.0,0.0,0.0,6.639983e-05,0.0,0.0,0.0,0.0,0.0,0.0,0.0,0.0,0.0,0.0,0.0,0.0,nan,0.0,0.0,4.0691164e-05,0.0,0.0,0.0,0.0,0.0,0.0,0.0,0.0
208840577,208838704,0.0,0.0,0.0,6.6016844e-05,0.0,0.0,0.0,0.0,0.0,0.0,0.0,0.0,0.0,0.0,0.0,0.0,nan,0.0,0.0,2.7614099e-06,0.0,0.0,0.0,0.0,0.0,0.0,0.0,0.0
209351064,209348950,0.0,0.0,0.0,5.495836e-05,0.0,0.0,0.0,0.0,0.0,0.0,0.0,0.0,0.0,0.0,0.0,0.0,nan,0.0,0.0,8.1671926e-05,0.0,0.0,0.0,0.0,0.0,0.0,0.0,0.0
209851317,209849193,0.0,0.0,0.0,5.1907686e-05,0.0,0.0,0.0,0.0,0.0,0.0,0.0,0.0,0.0,0.0,0.0,0.0,nan,0.0,0.0,2.4598635e-06,0.0,0.0,0.0,0.0,0.0,0.0,0.0,0.0
210341094,210339431,0.0,0.0,0.0,5.0700608e-05,0.0,0.0,0.0,0.0,0.0,0.0,0.0,0.0,0.0,0.0,0.0,0.0,nan,0.0,0.0,1.361865e-05,0.0,0.0,0.0,0.0,0.0,0.0,0.0,0.0
210841890,210839673,0.0,0.0,0.0,3.5679128e-05,0.0,0.0,0.0,0.0,0.0,0.0,0.0,0.0,0.0,0.0,0.0,0.0,nan,0.0,0.0,2.172091e-06,0.0,0.0,0.0,0.0,0.0,0.0,0.0,0.0
211342062,211339917,0.0,0.0,0.0,4.5138357e-05,0.0,0.0,0.0,0.0,0.0,0.0,0.0,0.0,0.0,0.0,0.0,0.0,nan,0.0,0.0,5.5349934e-05,0.0,0.0,0.0,0.0,0.0,0.0,0.0,0.0
211841979,211840160,0.0,0.0,0.0,3.572366e-05,0.0,0.0,0.0,0.0,0.0,0.0,0.0,0.0,0.0,0.0,0.0,0.0,nan,0.0,0.0,1.8069706e-05,0.0,0.0,0.0,0.0,0.0,0.0,0.0,0.0
212342624,212340403,0.0,0.0,0.0,2.9638926e-05,0.0,0.0,0.0,0.0,0.0,0.0,0.0,0.0,0.0,0.0,0.0,0.0,nan,0.0,0.0,3.6824993e-05,0.0,0.0,0.0,0.0,0.0,0.0,0.0,0.0
212842337,212840647,0.0,0.0,0.0,4.8835254e-06,0.0,0.0,0.0,0.0,0.0,0.0,0.0,0.0,0.0,0.0,0.0,0.0,nan,0.0,0.0,3.234028e-05,0.0,0.0,0.0,0.0,0.0,0.0,0.0,0.0
213342988,213340890,0.0,0.0,0.0,9.971324e-06,0.0,0.0,0.0,0.0,0.0,0.0,0.0,0.0,0.0,0.0,0.0,0.0,nan,0.0,0.0,4.094126e-07,0.0,0.0,0.0,0.0,0.0,0.0,0.0,0.0
213842864,213841134,0.0,0.0,0.0,1.8076467e-05,0.0,0.0,0.0,0.0,0.0,0.0,0.0,0.0,0.0,0.0,0.0,0.0,nan,0.0,0.0,6.2816674e-05,0.0,0.0,0.0,0.0,0.0,0.0,0.0,0.0
214343339,214341386,0.0,0.0,0.0,2.4634253e-05,0.0,0.0,0.0,0.0,0.0,0.0,0.0,0.0,0.0,0.0,0.0,0.0,nan,0.0,0.0,7.840202e-06,0.0,0.0,0.0,0.0,0.0,0.0,0.0,0.0
214843792,214841622,0.0,0.0,0.0,7.7065735e-05,0.0,0.0,0.0,0.0,0.0,0.0,0.0,0.0,0.0,0.0,0.0,0.0,nan,0.0,0.0,3.336172e-05,0.0,0.0,0.0,0.0,0.0,0.0,0.0,0.0
215343752,215341861,0.0,0.0,0.0,5.3136766e-05,0.0,0.0,0.0,0.0,0.0,0.0,0.0,0.0,0.0,0.0,0.0,0.0,nan,0.0,0.0,3.1845675e-06,0.0,0.0,0.0,0.0,0.0,0.0,0.0,0.0
215843796,215842115,0.0,0.0,0.0,1.7817141e-05,0.0,0.0,0.0,0.0,0.0,0.0,0.0,0.0,0.0,0.0,0.0,0.0,nan,0.0,0.0,2.9200005e-06,0.0,0.0,0.0,0.0,0.0,0.0,0.0,0.0
216344457,216342360,0.0,0.0,0.0,3.705957e-05,0.0,0.0,0.0,0.0,0.0,0.0,0.0,0.0,0.0,0.0,0.0,0.0,nan,0.0,0.0,1.9734976e-05,0.0,0.0,0.0,0.0,0.0,0.0,0.0,0.0
216844206,216842599,0.0,0.0,0.0,7.321601e-05,0.0,0.0,0.0,0.0,0.0,0.0,0.0,0.0,0.0,0.0,0.0,0.0,nan,0.0,0.0,1.3241218e-05,0.0,0.0,0.0,0.0,0.0,0.0,0.0,0.0
217344744,217342843,0.0,0.0,0.0,9.175077e-05,0.0,0.0,0.0,0.0,0.0,0.0,0.0,0.0,0.0,0.0,0.0,0.0,nan,0.0,0.0,1.4201198e-06,0.0,0.0,0.0,0.0,0.0,0.0,0.0,0.0
217844965,217843088,0.0,0.0,0.0,0.00013157219,0.0,0.0,0.0,0.0,0.0,0.0,0.0,0.0,0.0,0.0,0.0,0.0,nan,0.0,0.0,1.2891316e-05,0.0,0.0,0.0,0.0,0.0,0.0,0.0,0.0
218345241,218343332,0.0,0.0,0.0,0.00014664115,0.0,0.0,0.0,0.0,0.0,0.0,0.0,0.0,0.0,0.0,0.0,0.0,nan,0.0,0.0,2.5399252e-08,0.0,0.0,0.0,0.0,0.0,0.0,0.0,0.0
218845736,218843607,0.0,0.0,0.0,0.00015329185,0.0,0.0,0.0,0.0,0.0,0.0,0.0,0.0,0.0,0.0,0.0,0.0,nan,0.0,0.0,1.3213771e-06,0.0,0.0,0.0,0.0,0.0,0.0,0.0,0.0
219345618,219343821,0.0,0.0,0.0,0.00014945341,0.0,0.0,0.0,0.0,0.0,0.0,0.0,0.0,0.0,0.0,0.0,0.0,nan,0.0,0.0,3.5532925e-05,0.0,0.0,0.0,0.0,0.0,0.0,0.0,0.0
219845955,219844072,0.0,0.0,0.0,0.00014149556,0.0,0.0,0.0,0.0,0.0,0.0,0.0,0.0,0.0,0.0,0.0,0.0,nan,0.0,0.0,1.8856377e-05,0.0,0.0,0.0,0.0,0.0,0.0,0.0,0.0
220346327,220344311,0.0,0.0,0.0,0.0001370275,0.0,0.0,0.0,0.0,0.0,0.0,0.0,0.0,0.0,0.0,0.0,0.0,nan,0.0,0.0,2.285846e-06,0.0,0.0,0.0,0.0,0.0,0.0,0.0,0.0
220846230,220844557,0.0,0.0,0.0,0.00012344909,0.0,0.0,0.0,0.0,0.0,0.0,0.0,0.0,0.0,0.0,0.0,0.0,nan,0.0,0.0,1.9031333e-08,0.0,0.0,0.0,0.0,0.0,0.0,0.0,0.0
221346879,221344802,0.0,0.0,0.0,0.00010182497,0.0,0.0,0.0,0.0,0.0,0.0,0.0,0.0,0.0,0.0,0.0,0.0,nan,0.0,0.0,2.786056e-05,0.0,0.0,0.0,0.0,0.0,0.0,0.0,0.0
221847045,221845048,0.0,0.0,0.0,9.9878365e-05,0.0,0.0,0.0,0.0,0.0,0.0,0.0,0.0,0.0,0.0,0.0,0.0,nan,0.0,0.0,1.575705e-05,0.0,0.0,0.0,0.0,0.0,0.0,0.0,0.0
222347353,222345300,0.0,0.0,0.0,0.000100283185,0.0,0.0,0.0,0.0,0.0,0.0,0.0,0.0,0.0,0.0,0.0,0.0,nan,0.0,0.0,9.530065e-06,0.0,0.0,0.0,0.0,0.0,0.0,0.0,0.0
222847575,222845539,0.0,0.0,0.0,9.92127e-05,0.0,0.0,0.0,0.0,0.0,0.0,0.0,0.0,0.0,0.0,0.0,0.0,nan,0.0,0.0,2.5285644e-06,0.0,0.0,0.0,0.0,0.0,0.0,0.0,0.0
223347506,223345785,0.0,0.0,0.0,9.495946e-05,0.0,0.0,0.0,0.0,0.0,0.0,0.0,0.0,0.0,0.0,0.0,0.0,nan,0.0,0.0,2.968039e-05,0.0,0.0,0.0,0.0,0.0,0.0,0.0,0.0
223847969,223846032,0.0,0.0,0.0,0.000102685044,0.0,0.0,0.0,0.0,0.0,0.0,0.0,0.0,0.0,0.0,0.0,0.0,nan,0.0,0.0,2.2137392e-05,0.0,0.0,0.0,0.0,0.0,0.0,0.0,0.0
224348294,224346278,0.0,0.0,0.0,0.00010658081,0.0,0.0,0.0,0.0,0.0,0.0,0.0,0.0,0.0,0.0,0.0,0.0,nan,0.0,0.0,2.8467184e-06,0.0,0.0,0.0,0.0,0.0,0.0,0.0,0.0
224848654,224846525,0.0,0.0,0.0,6.7451634e-05,0.0,0.0,0.0,0.0,0.0,0.0,0.0,0.0,0.0,0.0,0.0,0.0,nan,0.0,0.0,2.825921e-08,0.0,0.0,0.0,0.0,0.0,0.0,0.0,0.0
225348451,225346771,0.0,0.0,0.0,5.9799928e-05,0.0,0.0,0.0,0.0,0.0,0.0,0.0,0.0,0.0,0.0,0.0,0.0,nan,0.0,0.0,0.00015408461,0.0,0.0,0.0,0.0,0.0,0.0,0.0,0.0
225848912,225847018,0.0,0.0,0.0,0.00017545842,0.0,0.0,0.0,0.0,0.0,0.0,0.0,0.0,0.0,0.0,0.0,0.0,nan,0.0,0.0,7.226812e-05,0.0,0.0,0.0,0.0,0.0,0.0,0.0,0.0
226349231,226347265,0.0,0.0,0.0,0.00028189228,0.0,0.0,0.0,0.0,0.0,0.0,0.0,0.0,0.0,0.0,0.0,0.0,nan,0.0,0.0,5.544202e-05,0.0,0.0,0.0,0.0,0.0,0.0,0.0,0.0
226849432,226847512,0.0,0.0,0.0,0.00041557036,0.0,0.0,0.0,0.0,0.0,0.0,0.0,0.0,0.0,0.0,0.0,0.0,nan,0.0,0.0,1.6341344e-05,0.0,0.0,0.0,0.0,0.0,0.0,0.0,0.0
227349723,227347759,0.0,0.0,0.0,0.00050393224,0.0,0.0,0.0,0.0,0.0,0.0,0.0,0.0,0.0,0.0,0.0,0.0,nan,0.0,0.0,3.3070366e-05,0.0,0.0,0.0,0.0,0.0,0.0,0.0,0.0
227840179,227838002,0.0,0.0,0.0,0.00061459857,0.0,0.0,0.0,0.0,0.0,0.0,0.0,0.0,0.0,0.0,0.0,0.0,nan,0.0,0.0,1.6358816e-05,0.0,0.0,0.0,0.0,0.0,0.0,0.0,0.0
228340056,228338272,0.0,0.0,0.0,0.00062671455,0.0,0.0,0.0,0.0,0.0,0.0,0.0,0.0,0.0,0.0,0.0,0.0,nan,0.0,0.0,6.0979248e-05,0.0,0.0,0.0,0.0,0.0,0.0,0.0,0.0
228840669,228838498,0.0,0.0,0.0,0.00059625076,0.0,0.0,0.0,0.0,0.0,0.0,0.0,0.0,0.0,0.0,0.0,0.0,nan,0.0,0.0,1.775615e-05,0.0,0.0,0.0,0.0,0.0,0.0,0.0,0.0
229340917,229338745,0.0,0.0,0.0,0.000564576,0.0,0.0,0.0,0.0,0.0,0.0,0.0,0.0,0.0,0.0,0.0,0.0,nan,0.0,0.0,1.3847124e-05,0.0,0.0,0.0,0.0,0.0,0.0,0.0,0.0
229841364,229838993,0.0,0.0,0.0,0.0007421831,0.0,0.0,0.0,0.0,0.0,0.0,0.0,0.0,0.0,0.00038813337,0.0,0.0,nan,0.0,0.0,1.51698005e-05,0.0,0.0,0.0,0.0,0.0,0.0,0.0,0.0
230341043,230339242,0.0,0.0,0.0,0.0005657356,0.0,0.0,0.0,0.0,0.0,0.0,0.0,0.0,0.0,0.0013726869,0.0,0.0,nan,0.0,0.0,6.684733e-05,0.0,0.0,0.0,0.0,0.0,0.0,0.0,0.0
230851122,230849496,0.0,0.0,0.0,0.00037518181,0.0,0.0,0.0,0.0,0.0,0.0,0.0,0.0,0.0,0.00031466587,0.0,0.0,nan,0.0,0.0,4.9199207e-06,0.0,0.0,0.0,0.0,0.0,0.0,0.0,0.0
231341783,231339739,0.0,0.0,0.0,0.00026083481,0.0,0.0,0.0,0.0,0.0,0.0,0.0,0.0,0.0,0.0007237941,0.0,0.0,nan,0.0,0.0,4.0467953e-06,0.0,0.0,0.0,0.0,0.0,0.0,0.0,0.0
231842260,231839987,0.0,0.0,0.0,0.00013973027,0.0,0.0,0.0,0.0,0.0,0.0,0.0,0.0,0.0,0.0006898007,0.0,0.0,nan,0.0,0.0,7.966631e-07,0.0,0.0,0.0,0.0,0.0,0.0,0.0,0.0
232342294,232340236,0.0,0.0,0.0,0.0001092776,0.0,0.0,0.0,0.0,0.0,0.0,0.0,0.0,0.0,0.0007120292,0.0,0.0,nan,0.0,0.0,1.3215635e-05,0.0,0.0,0.0,0.0,0.0,0.0,0.0,0.0
232842877,232840485,0.0,0.0,0.0,0.000114135124,0.0,0.0,0.0,0.0,0.0,0.0,0.0,0.0,0.0,0.00037973345,0.0,0.0,nan,0.0,0.0,1.3223143e-05,0.0,0.0,0.0,0.0,0.0,0.0,0.0,0.0
233342590,233340734,0.0,0.0,0.0,0.00013051488,0.0,0.0,0.0,0.0,0.0,0.0,0.0,0.0,0.0,0.0003626017,0.0,0.0,nan,0.0,0.0,9.111003e-06,0.0,0.0,0.0,0.0,0.0,0.0,0.0,0.0
233843112,233840983,0.0,0.0,0.0,0.00016076595,0.0,0.0,0.0,0.0,0.0,0.0,0.0,0.0,0.0,0.0008087302,0.0,0.0,nan,0.0,0.0,4.016337e-05,0.0,0.0,0.0,0.0,0.0,0.0,0.0,0.0
234343259,234341234,0.0,0.0,0.0,0.00018502548,0.0,0.0,0.0,0.0,0.0,0.0,0.0,0.0,0.0,0.00082658546,0.0,0.0,nan,0.0,0.0,8.5352787e-07,0.0,0.0,0.0,0.0,0.0,0.0,0.0,0.0
234843656,234841482,0.0,0.0,0.0,0.00022061424,0.0,0.0,0.0,0.0,0.0,0.0,0.0,0.0,0.0,0.0018587902,0.0,0.0,nan,0.0,0.0,5.2388505e-06,0.0,0.0,0.0,0.0,0.0,0.0,0.0,0.0
235343668,235341732,0.0,0.0,0.0,0.00024379097,0.0,0.0,0.0,0.0,0.0,0.0,0.0,0.0,0.0,0.0004617584,0.0,0.0,nan,0.0,0.0,1.4366403e-05,0.0,0.0,0.0,0.0,0.0,0.0,0.0,0.0
235844438,235841982,0.0,0.0,0.0,0.0002845789,0.0,0.0,0.0,0.0,0.0,0.0,0.0,0.0,0.0,0.0009322142,0.0,0.0,nan,0.0,0.0,1.2458757e-07,0.0,0.0,0.0,0.0,0.0,0.0,0.0,0.0
236344135,236342231,0.0,0.0,0.0,0.00029488423,0.0,0.0,0.0,0.0,0.0,0.0,0.0,0.0,0.0,0.0009965247,0.0,0.0,nan,0.0,0.0,3.9172885e-08,0.0,0.0,0.0,0.0,0.0,0.0,0.0,0.0
236844548,236842478,0.0,0.0,0.0,0.00032151505,0.0,0.0,0.0,0.0,0.0,0.0,0.0,0.0,0.0,0.00032455643,0.0,0.0,nan,0.0,0.0,1.227149e-07,0.0,0.0,0.0,0.0,0.0,0.0,0.0,0.0
237344437,237342736,0.0,0.0,0.0,0.0003366359,0.0,0.0,0.0,0.0,0.0,0.0,0.0,0.0,0.0,0.00010181411,0.0,0.0,nan,0.0,0.0,1.8283127e-11,0.0,0.0,0.0,0.0,0.0,0.0,0.0,0.0
237845566,237842982,0.0,0.0,0.0,0.00042408658,0.0,0.0,0.0,0.0,0.0,0.0,0.0,0.0,0.0,0.00013132217,0.0,0.0,nan,0.0,0.0,1.4202595e-06,0.0,0.0,0.0,0.0,0.0,0.0,0.0,0.0
238344877,238343267,0.0,0.0,0.0,0.00058322307,0.0,0.0,0.0,0.0,0.0,0.0,0.0,0.0,0.0,0.00056636566,0.0,0.0,nan,0.0,0.0,9.989062e-06,0.0,0.0,0.0,0.0,0.0,0.0,0.0,0.0
238845731,238843491,0.0,0.0,0.0,0.0009125072,0.0,0.0,0.0,0.0,0.0,0.0,0.0,0.0,0.0,0.00010127771,0.0,0.0,nan,0.0,0.0,1.6778931e-05,0.0,0.0,0.0,0.0,0.0,0.0,0.0,0.0
239345419,239343734,0.0,0.0,0.0,0.0009063183,0.0,0.0,0.0,0.0,0.0,0.0,0.0,0.0,0.0,2.0018022e-05,0.0,0.0,nan,0.0,0.0,3.9274976e-08,0.0,0.0,0.0,0.0,0.0,0.0,0.0,0.0
239846291,239843986,0.0,0.0,0.0,0.00071563834,0.0,0.0,0.0,0.0,0.0,0.0,0.0,0.0,0.0,0.00017486092,0.0,0.0,nan,0.0,0.0,2.7677166e-05,0.0,0.0,0.0,0.0,0.0,0.0,0.0,0.0
240346126,240344236,0.0,0.0,0.0,0.00057399244,0.0,0.0,0.0,0.0,0.0,0.0,0.0,0.0,0.0,1.3394362e-05,0.0,0.0,nan,0.0,0.0,9.595261e-06,0.0,0.0,0.0,0.0,0.0,0.0,0.0,0.0
240846913,240844488,0.0,0.0,0.0,0.00041088037,0.0,0.0,0.0,0.0,0.0,0.0,0.0,0.0,0.0,0.0,0.0,0.0,nan,0.0,0.0,2.4638563e-05,0.0,0.0,0.0,0.0,0.0,0.0,0.0,0.0
241346417,241344739,0.0,0.0,0.0,0.0003236772,0.0,0.0,0.0,0.0,0.0,0.0,0.0,0.0,0.0,0.0,0.0,0.0,nan,0.0,0.0,3.7531696e-05,0.0,0.0,0.0,0.0,0.0,0.0,0.0,0.0
241847366,241844991,0.0,0.0,0.0,0.0002470367,0.0,0.0,0.0,0.0,0.0,0.0,0.0,0.0,0.0,0.0,0.0,0.0,nan,0.0,0.0,6.5718393e-07,0.0,0.0,0.0,0.0,0.0,0.0,0.0,0.0
242347160,242345242,0.0,0.0,0.0,0.00021732459,0.0,0.0,0.0,0.0,0.0,0.0,0.0,0.0,0.0,0.0,0.0,0.0,nan,0.0,0.0,1.1952732e-05,0.0,0.0,0.0,0.0,0.0,0.0,0.0,0.0
242848062,242845494,0.0,0.0,0.0,2.0015628e-05,0.0,0.0,0.0,0.0,0.0,0.0,0.0,0.0,0.0,0.0,0.0,0.0,nan,0.0,0.0,6.366568e-09,0.0,0.0,0.0,0.0,0.0,0.0,0.0,0.0
243347961,243345746,0.0,0.0,0.0,5.486561e-05,0.0,0.0,0.0,0.0,0.0,0.0,0.0,0.0,0.0,0.0,0.0,0.0,nan,0.0,0.0,9.665986e-06,0.0,0.0,0.0,0.0,0.0,0.0,0.0,0.0
243848341,243846005,0.0,0.0,0.0,0.00014047943,0.0,0.0,0.0,0.0,0.0,0.0,0.0,0.0,0.0,0.0,0.0,0.0,nan,0.0,0.0,4.0200366e-06,0.0,0.0,0.0,0.0,0.0,0.0,0.0,0.0
244348017,244346250,0.0,0.0,0.0,0.00020110035,0.0,0.0,0.0,0.0,0.0,0.0,0.0,0.0,0.0,0.0,0.0,0.0,nan,0.0,0.0,3.0774032e-08,0.0,0.0,0.0,0.0,0.0,0.0,0.0,0.0
244848975,244846503,0.0,0.0,0.0,0.00025331407,0.0,0.0,0.0,0.0,0.0,0.0,0.0,0.0,0.0,0.0,0.0,0.0,nan,0.0,0.0,2.7090098e-05,0.0,0.0,0.0,0.0,0.0,0.0,0.0,0.0
245338717,245336750,0.0,0.0,0.0,0.00024764004,0.0,0.0,0.0,0.0,0.0,0.0,0.0,0.0,0.0,0.0,0.0,0.0,nan,0.0,0.0,4.0688094e-05,0.0,0.0,0.0,0.0,0.0,0.0,0.0,0.0
245849251,245847008,0.0,0.0,0.0,0.0010529778,0.0,0.0,0.0,0.0,0.0,0.0,0.0,0.0,0.0,0.0,0.0,0.0,nan,0.0,0.0,2.9987816e-06,0.0,0.0,0.0,0.0,0.0,0.0,0.0,0.0
246348994,246347260,0.0,0.0,0.0,0.000120634235,0.0,0.0,0.0,0.0,0.0,0.0,0.0,0.0,0.0,0.0,0.0,0.0,nan,0.0,0.0,1.0826206e-05,0.0,0.0,0.0,0.0,0.0,0.0,0.0,0.0
246849637,246847513,0.0,0.0,0.0,0.00017644164,0.0,0.0,0.0,0.0,0.0,0.0,0.0,0.0,0.0,0.0,0.0,0.0,nan,0.0,0.0,2.3417755e-05,0.0,0.0,0.0,0.0,0.0,0.0,0.0,0.0
247349712,247347766,0.0,0.0,0.0,0.00019047059,0.0,0.0,0.0,0.0,0.0,0.0,0.0,0.0,0.0,0.0,0.0,0.0,nan,0.0,0.0,3.859806e-06,0.0,0.0,0.0,0.0,0.0,0.0,0.0,0.0
247850323,247848019,0.0,0.0,0.0,0.00014449586,0.0,0.0,0.0,0.0,0.0,0.0,0.0,0.0,0.0,0.0,0.0,0.0,nan,0.0,0.0,2.049524e-05,0.0,0.0,0.0,0.0,0.0,0.0,0.0,0.0
248339965,248338268,0.0,0.0,0.0,0.00012797656,0.0,0.0,0.0,0.0,0.0,0.0,0.0,0.0,0.0,0.0,0.0,0.0,nan,0.0,0.0,2.3321668e-07,0.0,0.0,0.0,0.0,0.0,0.0,0.0,0.0
248840478,248838521,0.0,0.0,0.0,9.967812e-05,0.0,0.0,0.0,0.0,0.0,0.0,0.0,0.0,0.0,0.0,0.0,0.0,nan,0.0,0.0,8.05427e-07,0.0,0.0,0.0,0.0,0.0,0.0,0.0,0.0
249340471,249338779,0.0,0.0,0.0,4.8494458e-05,0.0,0.0,0.0,0.0,0.0,0.0,0.0,0.0,0.0,0.0,0.0,0.0,nan,0.0,0.0,2.8150878e-06,0.0,0.0,0.0,0.0,0.0,0.0,0.0,0.0
249840738,249839033,0.0,0.0,0.0,4.4234075e-05,0.0,0.0,0.0,0.0,0.0,0.0,0.0,0.0,0.0,0.0,0.0,0.0,nan,0.0,0.0,2.0097305e-05,0.0,0.0,0.0,0.0,0.0,0.0,0.0,0.0
250341623,250339281,0.0,0.0,0.0,6.8732916e-05,0.0,0.0,0.0,0.0,0.0,0.0,0.0,0.0,0.0,0.0,0.0,0.0,nan,0.0,0.0,6.655567e-10,0.0,0.0,0.0,0.0,0.0,0.0,0.0,0.0
250841655,250839535,0.0,0.0,0.0,7.8411926e-05,0.0,0.0,0.0,0.0,0.0,0.0,0.0,0.0,0.0,0.0,0.0,0.0,nan,0.0,0.0,1.0445553e-05,0.0,0.0,0.0,0.0,0.0,0.0,0.0,0.0
251341545,251339822,0.0,0.0,0.0,4.9437326e-06,0.0,0.0,0.0,0.0,0.0,0.0,0.0,0.0,0.0,0.0,0.0,0.0,nan,0.0,0.0,9.034165e-05,0.0,0.0,0.0,0.0,0.0,0.0,0.0,0.0
251841839,251840043,0.0,0.0,0.0,1.1828192e-05,0.0,0.0,0.0,0.0,0.0,0.0,0.0,0.0,0.0,0.0,0.0,0.0,nan,0.0,0.0,1.5409098e-05,0.0,0.0,0.0,0.0,0.0,0.0,0.0,0.0
252342041,252340297,0.0,0.0,0.0,2.829852e-05,0.0,0.0,0.0,0.0,0.0,0.0,0.0,0.0,0.0,0.0,0.0,0.0,nan,0.0,0.0,5.655348e-05,0.0,0.0,0.0,0.0,0.0,0.0,0.0,0.0
252842642,252840551,0.0,0.0,0.0,4.2061307e-05,0.0,0.0,0.0,0.0,0.0,0.0,0.0,0.0,0.0,0.0,0.0,0.0,nan,0.0,0.0,4.042377e-07,0.0,0.0,0.0,0.0,0.0,0.0,0.0,0.0
253342541,253340805,0.0,0.0,0.0,6.0952523e-05,0.0,0.0,0.0,0.0,0.0,0.0,0.0,0.0,0.0,0.0,0.0,0.0,nan,0.0,0.0,5.5314e-05,0.0,0.0,0.0,0.0,0.0,0.0,0.0,0.0
253842812,253841059,0.0,0.0,0.0,7.1696086e-05,0.0,0.0,0.0,0.0,0.0,0.0,0.0,0.0,0.0,0.0,0.0,0.0,nan,0.0,0.0,2.0470246e-07,0.0,0.0,0.0,0.0,0.0,0.0,0.0,0.0
254343188,254341314,0.0,0.0,0.0,7.8962374e-05,0.0,0.0,0.0,0.0,0.0,0.0,0.0,0.0,0.0,0.0,0.0,0.0,nan,0.0,0.0,8.901669e-10,0.0,0.0,0.0,0.0,0.0,0.0,0.0,0.0
254843536,254841569,0.0,0.0,0.0,8.253898e-05,0.0,0.0,0.0,0.0,0.0,0.0,0.0,0.0,0.0,0.0,0.0,0.0,nan,0.0,0.0,4.283684e-05,0.0,0.0,0.0,0.0,0.0,0.0,0.0,0.0
255343902,255341824,0.0,0.0,0.0,8.8072404e-05,0.0,0.0,0.0,0.0,0.0,0.0,0.0,0.0,0.0,0.0,0.0,0.0,nan,0.0,0.0,3.0075857e-06,0.0,0.0,0.0,0.0,0.0,0.0,0.0,0.0
255843772,255842078,0.0,0.0,0.0,9.649173e-05,0.0,0.0,0.0,0.0,0.0,0.0,0.0,0.0,0.0,0.0,0.0,0.0,nan,0.0,0.0,1.708286e-06,0.0,0.0,0.0,0.0,0.0,0.0,0.0,0.0
256344166,256342333,0.0,0.0,0.0,0.00011947394,0.0,0.0,0.0,0.0,0.0,0.0,0.0,0.0,0.0,0.0,0.0,0.0,nan,0.0,0.0,2.8458555e-08,0.0,0.0,0.0,0.0,0.0,0.0,0.0,0.0
256844276,256842588,0.0,0.0,0.0,0.00013858236,0.0,0.0,0.0,0.0,0.0,0.0,0.0,0.0,0.0,0.0,0.0,0.0,nan,0.0,0.0,2.3153577e-06,0.0,0.0,0.0,0.0,0.0,0.0,0.0,0.0
257344925,257342847,0.0,0.0,0.0,0.00017217282,0.0,0.0,0.0,0.0,0.0,0.0,0.0,0.0,0.0,0.0,0.0,0.0,nan,0.0,0.0,1.4695389e-05,0.0,0.0,0.0,0.0,0.0,0.0,0.0,0.0
257845210,257843099,0.0,0.0,0.0,0.00019387818,0.0,0.0,0.0,0.0,0.0,0.0,0.0,0.0,0.0,0.0,0.0,0.0,nan,0.0,0.0,4.7875496e-06,0.0,0.0,0.0,0.0,0.0,0.0,0.0,0.0
258345285,258343355,0.0,0.0,0.0,0.0002276727,0.0,0.0,0.0,0.0,0.0,0.0,0.0,0.0,0.0,0.0,0.0,0.0,nan,0.0,0.0,2.5007845e-05,0.0,0.0,0.0,0.0,0.0,0.0,0.0,0.0
258845367,258843619,0.0,0.0,0.0,0.0002454432,0.0,0.0,0.0,0.0,0.0,0.0,0.0,0.0,0.0,0.0,0.0,0.0,nan,0.0,0.0,3.3275542e-06,0.0,0.0,0.0,0.0,0.0,0.0,0.0,0.0
259345723,259343866,0.0,0.0,0.0,0.00026065213,0.0,0.0,0.0,0.0,0.0,0.0,0.0,0.0,0.0,0.0,0.0,0.0,nan,0.0,0.0,1.1931665e-05,0.0,0.0,0.0,0.0,0.0,0.0,0.0,0.0
259846214,259844122,0.0,0.0,0.0,0.0002609881,0.0,0.0,0.0,0.0,0.0,0.0,0.0,0.0,0.0,0.0,0.0,0.0,nan,0.0,0.0,5.3450573e-09,0.0,0.0,0.0,0.0,0.0,0.0,0.0,0.0
260346211,260344386,0.0,0.0,0.0,0.00028858343,0.0,0.0,0.0,0.0,0.0,0.0,0.0,0.0,0.0,0.0,0.0,0.0,nan,0.0,0.0,1.567886e-05,0.0,0.0,0.0,0.0,0.0,0.0,0.0,0.0
260846610,260844661,0.0,0.0,0.0,0.00030651139,0.0,0.0,0.0,0.0,0.0,0.0,0.0,0.0,0.0,0.0,0.0,0.0,nan,0.0,0.0,1.6480308e-06,0.0,0.0,0.0,0.0,0.0,0.0,0.0,0.0
261346826,261344890,0.0,0.0,0.0,0.0003112279,0.0,0.0,0.0,0.0,0.0,0.0,0.0,0.0,0.0,0.0,0.0,0.0,nan,0.0,0.0,8.284041e-08,0.0,0.0,0.0,0.0,0.0,0.0,0.0,0.0
261847070,261845147,0.0,0.0,0.0,0.00031562228,0.0,0.0,0.0,0.0,0.0,0.0,0.0,0.0,0.0,0.0,0.0,0.0,nan,0.0,0.0,2.3166194e-05,0.0,0.0,0.0,0.0,0.0,0.0,0.0,0.0
262347048,262345407,0.0,0.0,0.0,0.0006409815,0.0,0.0,0.0,0.0,0.0,0.0,0.0,0.0,0.0,0.0,0.0,0.0,nan,0.0,0.0,0.0006695756,0.0,0.0,0.0,0.0,0.0,0.0,0.0,0.0
262847548,262845660,0.0,0.0,0.0,0.0115129175,0.0,0.0,0.0,0.0,0.0,0.0,0.0,0.0,0.0,0.0,0.0,0.0,nan,0.0,0.0,0.0021933233,0.0,0.0,0.0,0.0,0.0,0.0,0.0,0.0
263347728,263345917,0.0,0.0,0.0,0.30678487,0.0,0.0,0.0,0.0,0.0,0.0,0.0,0.0,0.0,0.0029931488,0.0,0.0,nan,0.0,0.0,0.010540421,0.0,0.0,0.0,0.0,0.0,0.0,0.0,0.0
263847897,263846174,0.0,0.0,0.0,0.0060847434,0.0,0.0,0.0,0.0,0.0,0.0,0.0,0.0,0.0,0.0015177374,0.0,0.0,nan,0.0,0.0,8.0710436e-07,0.0,0.0,0.0,0.0,0.0,0.0,0.0,0.0
264348400,264346446,0.0,0.0,0.0,0.04437663,0.0,0.0,0.0,0.0,0.0,0.0,0.0,0.0,0.0,0.0,0.0,0.0,nan,0.0,0.0,0.0026037493,0.0,0.0,0.0,0.0,0.0,0.0,0.0,0.0
264848692,264846689,0.0,0.0,0.0,0.10867017,0.0,0.0,0.0,0.0,0.0,0.0,0.0,0.0,0.0,0.0004056895,0.0,0.0,nan,0.0,0.0,0.013965286,0.0,0.0,0.0,0.0,0.0,0.0,0.0,0.0
265348831,265346947,0.0,0.0,0.0,0.31205228,0.0,0.0,0.0,0.0,0.0,0.0,0.0,0.0,0.0,0.003823367,0.0,0.0,nan,0.0,0.0,0.0,0.0049230354,0.0,0.0,0.0,0.0,0.0,0.0,0.0
265852566,265847205,0.0,0.0,0.0,0.54159904,0.0,0.0,0.0,0.0,0.0,0.0,0.0,0.0,0.0,0.0030404315,0.0,0.0,nan,0.0,0.0,0.0,0.0069812573,0.0,0.0,0.0,0.0,0.0,0.0,0.0
266342659,266337457,0.0,0.0,0.0,0.9653733,0.0,0.0,0.0,0.0,0.0,0.0,0.0,0.0,0.0,0.00460093,0.0,0.0,nan,0.0,0.0,0.0,0.004196184,0.0,0.0,0.0,0.0,0.0,0.0,0.0
266842938,266837715,0.0,0.0,0.0,1.2780452,0.0,0.0,0.0,0.0,0.0,0.0,0.0,0.0,0.0,0.004893009,0.0,0.0,nan,0.0,0.0,0.0,0.01616089,0.0,0.0,0.0,0.0,0.0,0.0,0.0
267339668,267337974,0.0,0.0,0.0,1.7578124,0.0,0.0,0.0,0.0,0.0,0.0,0.0,0.0,0.0,0.0019061133,0.0,0.0,nan,0.0,0.0,0.0,0.009399173,0.0,0.0,0.0,0.0,0.0,0.0,0.0
267840079,267838235,0.0,0.0,0.0,2.0369365,0.0,0.0,0.0,0.0,0.0,0.0,0.0,0.0,0.0,0.0032803663,0.0,0.0,nan,0.0,0.0,0.0,0.008094591,0.0,0.0,0.0,0.0,0.0,0.0,0.0
268343847,268338514,0.0,0.0,0.0,2.2629788,0.0,0.0,0.0,0.0,0.0,0.0,0.0,0.0,0.0,0.007333517,0.0,0.0,nan,0.0,0.0,0.0,0.015629662,0.0,0.0,0.0,0.0,0.0,0.0,0.0
268854170,268848754,0.0,0.0,0.0,2.2217977,0.0,0.0,0.0,0.0,0.0,0.0,0.0,0.0,0.0,0.01052357,0.0,0.0,nan,0.0,0.0,0.0,0.010266881,0.0,0.0,0.0,0.0,0.0,0.0,0.0
269353997,269349013,0.0,0.0,0.0,1.9276873,0.0,0.0,0.0,0.0,0.0,0.0,0.0,0.0,0.0,0.0066041243,0.0,0.0,nan,0.0,0.0,0.0,0.030657874,0.0,0.0,0.0,0.0,0.0,0.0,0.0
269840984,269839266,0.0,0.0,0.0,1.6234769,0.0,0.0,0.0,0.0,0.0,0.0,0.0,0.0,0.0,0.016666178,0.0,0.0,nan,0.0,0.0,0.0,0.0060734134,0.0,0.0,0.0,0.0,0.0,0.0,0.0
270341539,270339526,0.0,0.0,0.0,1.1568117,0.0,0.0,0.0,0.0,0.0,0.0,0.0,0.0,0.0,0.030718451,0.0,0.0,nan,0.0,0.0,0.0,0.004311147,0.0,0.0,0.0,0.0,0.0,0.0,0.0
270841822,270839784,0.0,0.0,0.0,0.8921682,0.0,0.0,0.0,0.0,0.0,0.0,0.0,0.0,0.0,0.031904716,0.0,0.0,nan,0.0,0.0,0.0,0.0038077089,0.0,0.0,0.0,0.0,0.0,0.0,0.0
271345280,271340043,0.0,0.0,0.0,0.53910995,0.0,0.0,0.0,0.0,0.0,0.0,0.0,0.0,0.0,0.022967957,0.0,0.0,nan,0.0,0.0,0.0,0.004001313,0.0,0.0,0.0,0.0,0.0,0.0,0.0
271845524,271840323,0.0,0.0,0.0,0.33036193,0.0,0.0,0.0,0.0,0.0,0.0,0.0,0.0,0.0,0.0633992,0.0,0.0,nan,0.0,0.0,0.0,0.005223756,0.0,0.0,0.0,0.0,0.0,0.0,0.0
272345713,272340562,0.0,0.0,0.0,0.10192702,0.0,0.0,0.0,0.0,0.0,0.0,0.0,0.0,0.0,0.062290266,0.0,0.0,nan,0.0,0.0,0.0,0.0074853436,0.0,0.0,0.0,0.0,0.0,0.0,0.0
272845942,272840821,0.0,0.0,0.0,0.07250261,0.0,0.0,0.0,0.0,0.0,0.0,0.0,0.0,0.0,0.05749342,0.0,0.0,nan,0.0,0.0,0.0,0.013254103,0.0,0.0,0.0,0.0,0.0,0.0,0.0
273342818,273341088,0.0,0.0,0.0,0.17582314,0.0,0.0,0.0,0.0,0.0,0.0,0.0,0.0,0.0,0.040482845,0.0,0.0,nan,0.0,0.0,0.0,0.006988434,0.0,0.0,0.0,0.0,0.0,0.0,0.0
273843199,273841341,0.0,0.0,0.0,0.26473385,0.0,0.0,0.0,0.0,0.0,0.0,0.0,0.0,0.0,0.059025694,0.0,0.0,nan,0.0,0.0,0.0,0.0056019295,0.0,0.0,0.0,0.0,0.0,0.0,0.0
274343429,274341600,0.0,0.0,0.0,0.4086813,0.0,0.0,0.0,0.0,0.0,0.0,0.0,0.0,0.0,0.03448006,0.0,0.0,nan,0.0,0.0,0.0,0.0016449228,0.0,0.0,0.0,0.0,0.0,0.0,0.0
274843570,274841872,0.0,0.0,0.0,0.51895577,0.0,0.0,0.0,0.0,0.0,0.0,0.0,0.0,0.0,0.020497996,0.0,0.0,nan,0.0,0.0,0.0,0.0024927552,0.0,0.0,0.0,0.0,0.0,0.0,0.0
275343926,275342121,0.0,0.0,0.0,0.70628446,0.0,0.0,0.0,0.0,0.0,0.0,0.0,0.0,0.0,0.01406953,0.0,0.0,nan,0.0,0.0,0.0,0.0050044376,0.0,0.0,0.0,0.0,0.0,0.0,0.0
275844396,275842389,0.0,0.0,0.0,0.8356925,0.0,0.0,0.0,0.0,0.0,0.0,0.0,0.0,0.0,0.007715563,0.0,0.0,nan,0.0,0.0,0.0,0.003316778,0.0,0.0,0.0,0.0,0.0,0.0,0.0
276347586,276342684,0.0,0.0,0.0,1.1777807,0.0,0.0,0.0,0.0,0.0,0.0,0.0,0.0,0.0,0.0022743149,0.0,0.0,nan,0.0,0.0,0.0,0.002305402,0.0,0.0,0.0,0.0,0.0,0.0,0.0
276848011,276842905,0.0,0.0,0.0,1.557332,0.0,0.0,0.0,0.0,0.0,0.0,0.0,0.0,0.0,1.3809139e-06,0.0,0.0,nan,0.0,0.0,0.0,0.0017480477,0.0,0.0,0.0,0.0,0.0,0.0,0.0
277348524,277343161,0.0,0.0,0.0,2.220874,0.0,0.0,0.0,0.0,0.0,0.0,0.0,0.0,0.0,0.00093143363,0.0,0.0,nan,0.0,0.0,0.0,0.003420343,0.0,0.0,0.0,0.0,0.0,0.0,0.0
277845109,277843422,0.0,0.0,0.0,2.6884348,0.0,0.0,0.0,0.0,0.0,0.0,0.0,0.0,0.0,0.0036320398,0.0,0.0,nan,0.0,0.0,0.0,0.0045946254,0.0,0.0,0.0,0.0,0.0,0.0,0.0
278345486,278343682,0.0,0.0,0.0,3.3345275,0.0,0.0,0.0,0.0,0.0,0.0,0.0,0.0,0.0,0.009101844,0.0,0.0,nan,0.0,0.0,0.0,0.0020857877,0.0,0.0,0.0,0.0,0.0,0.0,0.0
278845795,278843943,0.0,0.0,0.0,3.7046237,0.0,0.0,0.0,0.0,0.0,0.0,0.0,0.0,0.0,0.011347491,0.0,0.0,nan,0.0,0.0,0.0,0.00075254205,0.0,0.0,0.0,0.0,0.0,0.0,0.0
279345974,279344233,0.0,0.0,0.0,4.1932144,0.0,0.0,0.0,0.0,0.0,0.0,0.0,0.0,0.0,0.018789679,0.0,0.0,nan,0.0,0.0,0.0,0.00078261393,0.0,0.0,0.0,0.0,0.0,0.0,0.0
279846371,279844479,0.0,0.0,0.0,4.4796104,0.0,0.0,0.0,0.0,0.0,0.0,0.0,0.0,0.0,0.027565457,0.0,0.0,nan,0.0,0.0,0.0,0.0010731334,0.0,0.0,0.0,0.0,0.0,0.0,0.0
280349771,280344726,0.0,0.0,0.0,4.8105116,0.0,0.0,0.0,0.0,0.0,0.0,0.0,0.0,0.0,0.03742742,0.0,0.0,nan,0.0,0.0,0.0,9.8618235e-05,0.0,0.0,0.0,0.0,0.0,0.0,0.0
280846796,280845008,0.0,0.0,0.0,4.973353,0.0,0.0,0.0,0.0,0.0,0.0,0.0,0.0,0.0,0.024634482,0.0,0.0,nan,0.0,0.0,0.0,0.00054069393,0.0,0.0,0.0,0.0,0.0,0.0,0.0
281347066,281345248,0.0,0.0,0.0,5.174876,0.0,0.0,0.0,0.0,0.0,0.0,0.0,0.0,0.0,0.04633132,0.0,0.0,nan,0.0,0.0,0.0,0.0013720402,0.0,0.0,0.0,0.0,0.0,0.0,0.0
281847217,281845509,0.0,0.0,0.0,5.293921,0.0,0.0,0.0,0.0,0.0,0.0,0.0,0.0,0.0,0.054707855,0.0,0.0,nan,0.0,0.0,0.0,0.002744492,0.0,0.0,0.0,0.0,0.0,0.0,0.0
282350989,282345803,0.0,0.0,0.0,5.4332767,0.0,0.0,0.0,0.0,0.0,0.0,0.0,0.0,0.0,0.054090228,0.0,0.0,nan,0.0,0.0,0.0,0.0013877759,0.0,0.0,0.0,0.0,0.0,0.0,0.0
282851288,282846031,0.0,0.0,0.0,5.472635,0.0,0.0,0.0,0.0,0.0,0.0,0.0,0.0,0.0,0.035605185,0.0,0.0,nan,0.0,0.0,0.0,0.00030761372,0.0,0.0,0.0,0.0,0.0,0.0,0.0
283351571,283346293,0.0,0.0,0.0,5.337311,0.0,0.0,0.0,0.0,0.0,0.0,0.0,0.0,0.0,0.034009945,0.0,0.0,nan,0.0,0.0,0.0,0.006449755,0.0,0.0,0.0,0.0,0.0,0.0,0.0
283838252,283836568,0.0,0.0,0.0,5.0846753,0.0,0.0,0.0,0.0,0.0,0.0,0.0,0.0,0.0,0.04442746,0.0,0.0,nan,0.0,0.0,0.0,0.0049320767,0.0,0.0,0.0,0.0,0.0,0.0,0.0
284352250,284346812,0.0,0.0,0.0,4.4157085,0.0,0.0,0.0,0.0,0.0,0.0,0.0,0.0,0.0,0.023900243,0.0,0.0,nan,0.0,0.0,0.0,0.0018332107,0.0,0.0,0.0,0.0,0.0,0.0,0.0
284852219,284847077,0.0,0.0,0.0,3.8923728,0.0,0.0,0.0,0.0,0.0,0.0,0.0,0.0,0.0,0.010665099,0.0,0.0,nan,0.0,0.0,0.0,0.002800325,0.0,0.0,0.0,0.0,0.0,0.0,0.0
285349087,285347363,0.0,0.0,0.0,3.0774796,0.0,0.0,0.0,0.0,0.0,0.0,0.0,0.0,0.0,0.007566896,0.0,0.0,nan,0.0,0.0,0.0,0.017500129,0.0,0.0,0.0,0.0,0.0,0.0,0.0
285852903,285847601,0.0,0.0,0.0,2.5559924,0.0,0.0,0.0,0.0,0.0,0.0,0.0,0.0,0.0,6.34313e-05,0.0,0.0,nan,0.0,0.0,0.0,0.018393427,0.0,0.0,0.0,0.0,0.0,0.0,0.0
286349670,286347863,0.0,0.0,0.0,1.7934237,0.0,0.0,0.0,0.0,0.0,0.0,0.0,0.0,0.0,9.3975716e-05,0.0,0.0,nan,0.0,0.0,0.0,0.025566826,0.0,0.0,0.0,0.0,0.0,0.0,0.0
286849832,286848162,0.0,0.0,0.0,1.3177714,0.0,0.0,0.0,0.0,0.0,0.0,0.0,0.0,0.0,0.0059190565,0.0,0.0,nan,0.0,0.0,0.0,0.019009497,0.0,0.0,0.0,0.0,0.0,0.0,0.0
287340462,287338390,0.0,0.0,0.0,0.6711582,0.0,0.0,0.0,0.0,0.0,0.0,0.0,0.0,0.0,0.027853766,0.0,0.0,nan,0.0,0.0,0.0,0.017649926,0.0,0.0,0.0,0.0,0.0,0.0,0.0
287840441,287838644,0.0,0.0,0.0,0.3460846,0.0,0.0,0.0,0.0,0.0,0.0,0.0,0.0,0.0,0.042713307,0.0,0.0,nan,0.0,0.0,0.0,0.005450334,0.0,0.0,0.0,0.0,0.0,0.0,0.0
288344130,288338912,0.0,0.0,0.0,0.111468814,0.0,0.0,0.0,0.0,0.0,0.0,0.0,0.0,0.0,0.11811522,0.0,0.0,nan,0.0,0.0,0.0,0.007615144,0.0,0.0,0.0,0.0,0.0,0.0,0.0
288841141,288839168,0.0,0.0,0.0,0.08276399,0.0,0.0,0.0,0.0,0.0,0.0,0.0,0.0,0.0,0.14565654,0.0,0.0,nan,0.0,0.0,0.0,0.0030274307,0.0,0.0,0.0,0.0,0.0,0.0,0.0
289344593,289339431,0.0,0.0,0.0,0.044812046,0.0,0.0,0.0,0.0,0.0,0.0,0.0,0.0,0.0,0.1604033,0.0,0.0,nan,0.0,0.0,0.0,0.0025914677,0.0,0.0,0.0,0.0,0.0,0.0,0.0
289844921,289839748,0.0,0.0,0.0,0.07067303,0.0,0.0,0.0,0.0,0.0,0.0,0.0,0.0,0.0,0.14662553,0.0,0.0,nan,0.0,0.0,0.0,0.0010914542,0.0,0.0,0.0,0.0,0.0,0.0,0.0
290345355,290339955,0.0,0.0,0.0,0.16338736,0.0,0.0,0.0,0.0,0.0,0.0,0.0,0.0,0.0,0.15111463,0.0,0.0,nan,0.0,0.0,0.0,0.001424676,0.0,0.0,0.0,0.0,0.0,0.0,0.0
290845131,290840218,0.0,0.0,0.0,0.21432829,0.0,0.0,0.0,0.0,0.0,0.0,0.0,0.0,0.0,0.1415918,0.0,0.0,nan,0.0,0.0,0.0,0.0023933027,0.0,0.0,0.0,0.0,0.0,0.0,0.0
291345908,291340501,0.0,0.0,0.0,0.26141006,0.0,0.0,0.0,0.0,0.0,0.0,0.0,0.0,0.0,0.12868147,0.0,0.0,nan,0.0,0.0,0.0,0.0036367169,0.0,0.0,0.0,0.0,0.0,0.0,0.0
291845885,291840744,0.0,0.0,0.0,0.2710765,0.0,0.0,0.0,0.0,0.0,0.0,0.0,0.0,0.0,0.14424483,0.0,0.0,nan,0.0,0.0,0.0,0.007477361,0.0,0.0,0.0,0.0,0.0,0.0,0.0
292346207,292341006,0.0,0.0,0.0,0.24997286,0.0,0.0,0.0,0.0,0.0,0.0,0.0,0.0,0.0,0.12404011,0.0,0.0,nan,0.0,0.0,0.0,0.013011854,0.0,0.0,0.0,0.0,0.0,0.0,0.0
292843237,292841278,0.0,0.0,0.0,0.21767822,0.0,0.0,0.0,0.0,0.0,0.0,0.0,0.0,0.0,0.09651592,0.0,0.0,nan,0.0,0.0,0.0,0.00830162,0.0,0.0,0.0,0.0,0.0,0.0,0.0
293346693,293341532,0.0,0.0,0.0,0.2793425,0.0,0.0,0.0,0.0,0.0,0.0,0.0,0.0,0.0,0.08549224,0.0,0.0,nan,0.0,0.0,0.0,0.003111923,0.0,0.0,0.0,0.0,0.0,0.0,0.0
293847147,293841795,0.0,0.0,0.0,0.41789234,0.0,0.0,0.0,0.0,0.0,0.0,0.0,0.0,0.0,0.057408486,0.0,0.0,nan,0.0,0.0,0.0,0.008228875,0.0,0.0,0.0,0.0,0.0,0.0,0.0
294347326,294342071,0.0,0.0,0.0,0.65294075,0.0,0.0,0.0,0.0,0.0,0.0,0.0,0.0,0.0,0.05743733,0.0,0.0,nan,0.0,0.0,0.0,0.009023842,0.0,0.0,0.0,0.0,0.0,0.0,0.0
294844160,294842321,0.0,0.0,0.0,0.8285157,0.0,0.0,0.0,0.0,0.0,0.0,0.0,0.0,0.0,0.056449458,0.0,0.0,nan,0.0,0.0,0.0,0.0048273555,0.0,0.0,0.0,0.0,0.0,0.0,0.0
295344379,295342585,0.0,0.0,0.0,1.1315736,0.0,0.0,0.0,0.0,0.0,0.0,0.0,0.0,0.0,0.03627864,0.0,0.0,nan,0.0,0.0,0.0,0.014813619,0.0,0.0,0.0,0.0,0.0,0.0,0.0
295847905,295842858,0.0,0.0,0.0,1.3862584,0.0,0.0,0.0,0.0,0.0,0.0,0.0,0.0,0.0,0.0045679025,0.0,0.0,nan,0.0,0.0,0.0,0.013201827,0.0,0.0,0.0,0.0,0.0,0.0,0.0
296348256,296343111,0.0,0.0,0.0,1.9031638,0.0,0.0,0.0,0.0,0.0,0.0,0.0,0.0,0.0,0.0049050753,0.0,0.0,nan,0.0,0.0,0.0,0.005111137,0.0,0.0,0.0,0.0,0.0,0.0,0.0
296848363,296843381,0.0,0.0,0.0,2.2751942,0.0,0.0,0.0,0.0,0.0,0.0,0.0,0.0,0.0,0.0015725616,0.0,0.0,nan,0.0,0.0,0.0,0.009633526,0.0,0.0,0.0,0.0,0.0,0.0,0.0
297345322,297343633,0.0,0.0,0.0,2.7345302,0.0,0.0,0.0,0.0,0.0,0.0,0.0,0.0,0.0,3.8767124e-05,0.0,0.0,nan,0.0,0.0,0.0,0.0148423845,0.0,0.0,0.0,0.0,0.0,0.0,0.0
297848976,297843902,0.0,0.0,0.0,2.908862,0.0,0.0,0.0,0.0,0.0,0.0,0.0,0.0,0.0,0.0010029823,0.0,0.0,nan,0.0,0.0,0.0,0.014916265,0.0,0.0,0.0,0.0,0.0,0.0,0.0
298345940,298344170,0.0,0.0,0.0,2.925457,0.0,0.0,0.0,0.0,0.0,0.0,0.0,0.0,0.0,0.003302129,0.0,0.0,nan,0.0,0.0,0.0,0.019758908,0.0,0.0,0.0,0.0,0.0,0.0,0.0
298849343,298844440,0.0,0.0,0.0,3.2171407,0.0,0.0,0.0,0.0,0.0,0.0,0.0,0.0,0.0,0.0067278743,0.0,0.0,nan,0.0,0.0,0.0,0.031405333,0.0,0.0,0.0,0.0,0.0,0.0,0.0
299349766,299344692,0.0,0.0,0.0,4.353961,0.0,0.0,0.0,0.0,0.0,0.0,0.0,0.0,0.0,0.0030753864,0.0,0.0,nan,0.0,0.0,0.0,0.028308641,0.0,0.0,0.0,0.0,0.0,0.0,0.0
299846686,299844957,0.0,0.0,0.0,5.063801,0.0,0.0,0.0,0.0,0.0,0.0,0.0,0.0,0.0,0.0141523555,0.0,0.0,nan,0.0,0.0,0.0,0.0225321,0.0,0.0,0.0,0.0,0.0,0.0,0.0
300350657,300345221,0.0,0.0,0.0,6.026141,0.0,0.0,0.0,0.0,0.0,0.0,0.0,0.0,0.0,0.01343678,0.0,0.0,nan,0.0,0.0,0.0,0.023221195,0.0,0.0,0.0,0.0,0.0,0.0,0.0
300847279,300845488,0.0,0.0,0.0,6.5941005,0.0,0.0,0.0,0.0,0.0,0.0,0.0,0.0,0.0,0.01035671,0.0,0.0,nan,0.0,0.0,0.0,0.0129228,0.0,0.0,0.0,0.0,0.0,0.0,0.0
301350870,301345752,0.0,0.0,0.0,7.333635,0.0,0.0,0.0,0.0,0.0,0.0,0.0,0.0,0.0,0.013286548,0.0,0.0,nan,0.0,0.0,0.0,0.031174056,0.0,0.0,0.0,0.0,0.0,0.0,0.0
301851338,301846012,0.0,0.0,0.0,7.7081265,0.0,0.0,0.0,0.0,0.0,0.0,0.0,0.0,0.0,0.006143146,0.0,0.0,nan,0.0,0.0,0.0,0.03221543,0.0,0.0,0.0,0.0,0.0,0.0,0.0
302351201,302346276,0.0,0.0,0.0,8.085935,0.0,0.0,0.0,0.0,0.0,0.0,0.0,0.0,0.0,0.012616869,0.0,0.0,nan,0.0,0.0,0.0,0.014750241,0.0,0.0,0.0,0.0,0.0,0.0,0.0
302851834,302846540,0.0,0.0,0.0,8.192049,0.0,0.0,0.0,0.0,0.0,0.0,0.0,0.0,0.0,0.024453953,0.0,0.0,nan,0.0,0.0,0.0,0.0074711386,0.0,0.0,0.0,0.0,0.0,0.0,0.0
303348542,303346804,0.0,0.0,0.0,8.212082,0.0,0.0,0.0,0.0,0.0,0.0,0.0,0.0,0.0,0.01879726,0.0,0.0,nan,0.0,0.0,0.0,0.0050541675,0.0,0.0,0.0,0.0,0.0,0.0,0.0
303848834,303847068,0.0,0.0,0.0,8.106244,0.0,0.0,0.0,0.0,0.0,0.0,0.0,0.0,0.0,0.00016494164,0.0,0.0,nan,0.0,0.0,0.0,0.00469208,0.0,0.0,0.0,0.0,0.0,0.0,0.0
304352642,304347332,0.0,0.0,0.0,7.737855,0.0,0.0,0.0,0.0,0.0,0.0,0.0,0.0,0.0,0.0006124921,0.0,0.0,nan,0.0,0.0,0.0,0.0028269829,0.0,0.0,0.0,0.0,0.0,0.0,0.0
304842793,304837585,0.0,0.0,0.0,7.3976316,0.0,0.0,0.0,0.0,0.0,0.0,0.0,0.0,0.0,0.00016253328,0.0,0.0,nan,0.0,0.0,0.0,0.017153474,0.0,0.0,0.0,0.0,0.0,0.0,0.0
305343342,305337855,0.0,0.0,0.0,6.796556,0.0,0.0,0.0,0.0,0.0,0.0,0.0,0.0,0.0,0.0002497039,0.0,0.0,nan,0.0,0.0,0.0,0.0018788119,0.0,0.0,0.0,0.0,0.0,0.0,0.0
305843246,305838119,0.0,0.0,0.0,6.320616,0.0,0.0,0.0,0.0,0.0,0.0,0.0,0.0,0.0,0.00048762374,0.0,0.0,nan,0.0,0.0,0.0,0.0027727063,0.0,0.0,0.0,0.0,0.0,0.0,0.0
306343830,306338392,0.0,0.0,0.0,5.5898542,0.0,0.0,0.0,0.0,0.0,0.0,0.0,0.0,0.0,0.013209172,0.0,0.0,nan,0.0,0.0,0.0,0.008488843,0.0,0.0,0.0,0.0,0.0,0.0,0.0
306840431,306838653,0.0,0.0,0.0,5.089264,0.0,0.0,0.0,0.0,0.0,0.0,0.0,0.0,0.0,0.019373396,0.0,0.0,nan,0.0,0.0,0.0,0.018639294,0.0,0.0,0.0,0.0,0.0,0.0,0.0
307350701,307348918,0.0,0.0,0.0,4.301312,0.0,0.0,0.0,0.0,0.0,0.0,0.0,0.0,0.0,0.030626385,0.0,0.0,nan,0.0,0.0,0.0,0.0022337392,0.0,0.0,0.0,0.0,0.0,0.0,0.0
307854465,307849182,0.0,0.0,0.0,3.7776675,0.0,0.0,0.0,0.0,0.0,0.0,0.0,0.0,0.0,0.0023573758,0.0,0.0,nan,0.0,0.0,0.0,0.0020472948,0.0,0.0,0.0,0.0,0.0,0.0,0.0
308341234,308339442,0.0,0.0,0.0,3.048479,0.0,0.0,0.0,0.0,0.0,0.0,0.0,0.0,0.0,0.011154763,0.0,0.0,nan,0.0,0.0,0.0,0.0016704882,0.0,0.0,0.0,0.0,0.0,0.0,0.0
308841471,308839706,0.0,0.0,0.0,2.608145,0.0,0.0,0.0,0.0,0.0,0.0,0.0,0.0,0.0,0.070648775,0.0,0.0,nan,0.0,0.0,0.0,0.0054690493,0.0,0.0,0.0,0.0,0.0,0.0,0.0
309341774,309339976,0.0,0.0,0.0,2.0186632,0.0,0.0,0.0,0.0,0.0,0.0,0.0,0.0,0.0,0.043993488,0.0,0.0,nan,0.0,0.0,0.0,0.00194522,0.0,0.0,0.0,0.0,0.0,0.0,0.0
309842102,309840239,0.0,0.0,0.0,1.6633825,0.0,0.0,0.0,0.0,0.0,0.0,0.0,0.0,0.0,0.057484753,0.0,0.0,nan,0.0,0.0,0.0,0.007803223,0.0,0.0,0.0,0.0,0.0,0.0,0.0
310345727,310340500,0.0,0.0,0.0,1.1969905,0.0,0.0,0.0,0.0,0.0,0.0,0.0,0.0,0.0,0.046663806,0.0,0.0,nan,0.0,0.0,0.0,0.03264431,0.0,0.0,0.0,0.0,0.0,0.0,0.0
310842439,310840767,0.0,0.0,0.0,0.9096194,0.0,0.0,0.0,0.0,0.0,0.0,0.0,0.0,0.0,0.12833431,0.0,0.0,nan,0.0,0.0,0.0,0.03111982,0.0,0.0,0.0,0.0,0.0,0.0,0.0
311342913,311341043,0.0,0.0,0.0,0.55362743,0.0,0.0,0.0,0.0,0.0,0.0,0.0,0.0,0.0,0.116432995,0.0,0.0,nan,0.0,0.0,0.0,0.015074804,0.0,0.0,0.0,0.0,0.0,0.0,0.0
311846507,311841294,0.0,0.0,0.0,0.37539607,0.0,0.0,0.0,0.0,0.0,0.0,0.0,0.0,0.0,0.13523614,0.0,0.0,nan,0.0,0.0,0.0,0.010230408,0.0,0.0,0.0,0.0,0.0,0.0,0.0
312343384,312341562,0.0,0.0,0.0,0.23928171,0.0,0.0,0.0,0.0,0.0,0.0,0.0,0.0,0.0,0.12676808,0.0,0.0,nan,0.0,0.0,0.0,0.0041481312,0.0,0.0,0.0,0.0,0.0,0.0,0.0
312843590,312841823,0.0,0.0,0.0,0.23475616,0.0,0.0,0.0,0.0,0.0,0.0,0.0,0.0,0.0,0.11410646,0.0,0.0,nan,0.0,0.0,0.0,0.021481697,0.0,0.0,0.0,0.0,0.0,0.0,0.0
313347278,313342088,0.0,0.0,0.0,0.30322447,0.0,0.0,0.0,0.0,0.0,0.0,0.0,0.0,0.0,0.18824361,0.0,0.0,nan,0.0,0.0,0.0,0.009262211,0.0,0.0,0.0,0.0,0.0,0.0,0.0
313847285,313842361,0.0,0.0,0.0,0.36779985,0.0,0.0,0.0,0.0,0.0,0.0,0.0,0.0,0.0,0.17826398,0.0,0.0,nan,0.0,0.0,0.0,0.0006520319,0.0,0.0,0.0,0.0,0.0,0.0,0.0
314344546,314342618,0.0,0.0,0.0,0.48501152,0.0,0.0,0.0,0.0,0.0,0.0,0.0,0.0,0.0,0.14569336,0.0,0.0,nan,0.0,0.0,0.0,0.0004386278,0.0,0.0,0.0,0.0,0.0,0.0,0.0
314844642,314842882,0.0,0.0,0.0,0.566603,0.0,0.0,0.0,0.0,0.0,0.0,0.0,0.0,0.0,0.1921547,0.0,0.0,nan,0.0,0.0,0.0,0.0020143003,0.0,0.0,0.0,0.0,0.0,0.0,0.0
315348115,315343148,0.0,0.0,0.0,0.64181274,0.0,0.0,0.0,0.0,0.0,0.0,0.0,0.0,0.0,0.18486989,0.0,0.0,nan,0.0,0.0,0.0,0.00038478564,0.0,0.0,0.0,0.0,0.0,0.0,0.0
315845197,315843413,0.0,0.0,0.0,0.68085766,0.0,0.0,0.0,0.0,0.0,0.0,0.0,0.0,0.0,0.14821748,0.0,0.0,nan,0.0,0.0,0.0,0.0006348701,0.0,0.0,0.0,0.0,0.0,0.0,0.0
316348862,316343677,0.0,0.0,0.0,0.74787545,0.0,0.0,0.0,0.0,0.0,0.0,0.0,0.0,0.0,0.12843944,0.0,0.0,nan,0.0,0.0,0.0,0.00027820523,0.0,0.0,0.0,0.0,0.0,0.0,0.0
316845847,316843943,0.0,0.0,0.0,0.79447293,0.0,0.0,0.0,0.0,0.0,0.0,0.0,0.0,0.0,0.10139934,0.0,0.0,nan,0.0,0.0,0.0,0.0015671676,0.0,0.0,0.0,0.0,0.0,0.0,0.0
317349460,317344208,0.0,0.0,0.0,0.87080383,0.0,0.0,0.0,0.0,0.0,0.0,0.0,0.0,0.0,0.08957351,0.0,0.0,nan,0.0,0.0,0.0,0.0018617141,0.0,0.0,0.0,0.0,0.0,0.0,0.0
317846313,317844473,0.0,0.0,0.0,0.92572916,0.0,0.0,0.0,0.0,0.0,0.0,0.0,0.0,0.0,0.100625634,0.0,0.0,nan,0.0,0.0,0.0,0.00088030135,0.0,0.0,0.0,0.0,0.0,0.0,0.0
318346648,318344762,0.0,0.0,0.0,1.010124,0.0,0.0,0.0,0.0,0.0,0.0,0.0,0.0,0.0,0.042443167,0.0,0.0,nan,0.0,0.0,0.0,0.00022843435,0.0,0.0,0.0,0.0,0.0,0.0,0.0
318850249,318845003,0.0,0.0,0.0,1.0870805,0.0,0.0,0.0,0.0,0.0,0.0,0.0,0.0,0.0,0.0446136,0.0,0.0,nan,0.0,0.0,0.0,0.0008230888,0.0,0.0,0.0,0.0,0.0,0.0,0.0
319350544,319345272,0.0,0.0,0.0,1.2302264,0.0,0.0,0.0,0.0,0.0,0.0,0.0,0.0,0.0,0.013211503,0.0,0.0,nan,0.0,0.0,0.0,0.0026973826,0.0,0.0,0.0,0.0,0.0,0.0,0.0
319847320,319845534,0.0,0.0,0.0,1.3371978,0.0,0.0,0.0,0.0,0.0,0.0,0.0,0.0,0.0,0.0054208892,0.0,0.0,nan,0.0,0.0,0.0,0.0046706065,0.0,0.0,0.0,0.0,0.0,0.0,0.0
320347588,320345799,0.0,0.0,0.0,1.4878764,0.0,0.0,0.0,0.0,0.0,0.0,0.0,0.0,0.0,0.006584909,0.0,0.0,nan,0.0,0.0,0.0,0.00476294,0.0,0.0,0.0,0.0,0.0,0.0,0.0
320851130,320846068,0.0,0.0,0.0,1.5758991,0.0,0.0,0.0,0.0,0.0,0.0,0.0,0.0,0.0,0.0013531223,0.0,0.0,nan,0.0,0.0,0.0,0.005021914,0.0,0.0,0.0,0.0,0.0,0.0,0.0
321351597,321346349,0.0,0.0,0.0,2.0603912,0.0,0.0,0.0,0.0,0.0,0.0,0.0,0.0,0.0,0.008965022,0.0,0.0,nan,0.0,0.0,0.0,0.06285132,0.0,0.0,0.0,0.0,0.0,0.0,0.0
321848286,321846606,0.0,0.0,0.0,2.3381758,0.0,0.0,0.0,0.0,0.0,0.0,0.0,0.0,0.0,0.0047116065,0.0,0.0,nan,0.0,0.0,0.0,0.04059965,0.0,0.0,0.0,0.0,0.0,0.0,0.0
322342102,322336862,0.0,0.0,0.0,2.5260768,0.0,0.0,0.0,0.0,0.0,0.0,0.0,0.0,0.0,0.00092623907,0.0,0.0,nan,0.0,0.0,0.0,0.00971901,0.0,0.0,0.0,0.0,0.0,0.0,0.0
322838971,322837123,0.0,0.0,0.0,2.5795054,0.0,0.0,0.0,0.0,0.0,0.0,0.0,0.0,0.0,0.012356553,0.0,0.0,nan,0.0,0.0,0.0,0.010140809,0.0,0.0,0.0,0.0,0.0,0.0,0.0
323352829,323347393,0.0,0.0,0.0,2.6060243,0.0,0.0,0.0,0.0,0.0,0.0,0.0,0.0,0.0,0.0051882784,0.0,0.0,nan,0.0,0.0,0.0,0.014888293,0.0,0.0,0.0,0.0,0.0,0.0,0.0
323849484,323847656,0.0,0.0,0.0,2.5731409,0.0,0.0,0.0,0.0,0.0,0.0,0.0,0.0,0.0,0.007823331,0.0,0.0,nan,0.0,0.0,0.0,0.009994536,0.0,0.0,0.0,0.0,0.0,0.0,0.0
324349736,324347921,0.0,0.0,0.0,2.4987457,0.0,0.0,0.0,0.0,0.0,0.0,0.0,0.0,0.0,0.0009131874,0.0,0.0,nan,0.0,0.0,0.0,0.008355284,0.0,0.0,0.0,0.0,0.0,0.0,0.0
324850066,324848187,0.0,0.0,0.0,2.4439936,0.0,0.0,0.0,0.0,0.0,0.0,0.0,0.0,0.0,0.0036263014,0.0,0.0,nan,0.0,0.0,0.0,0.011444949,0.0,0.0,0.0,0.0,0.0,0.0,0.0
325350252,325348452,0.0,0.0,0.0,2.377683,0.0,0.0,0.0,0.0,0.0,0.0,0.0,0.0,0.0,0.020926444,0.0,0.0,nan,0.0,0.0,0.0,0.019281942,0.0,0.0,0.0,0.0,0.0,0.0,0.0
325840521,325838712,0.0,0.0,0.0,2.3834655,0.0,0.0,0.0,0.0,0.0,0.0,0.0,0.0,0.0,0.011280902,0.0,0.0,nan,0.0,0.0,0.0,0.019683465,0.0,0.0,0.0,0.0,0.0,0.0,0.0
326340822,326338978,0.0,0.0,0.0,2.4203105,0.0,0.0,0.0,0.0,0.0,0.0,0.0,0.0,0.0,0.013334985,0.0,0.0,nan,0.0,0.0,0.0,0.02394789,0.0,0.0,0.0,0.0,0.0,0.0,0.0
326841149,326839262,0.0,0.0,0.0,2.4744062,0.0,0.0,0.0,0.0,0.0,0.0,0.0,0.0,0.0,0.0029697658,0.0,0.0,nan,0.0,0.0,0.0,0.024971709,0.0,0.0,0.0,0.0,0.0,0.0,0.0
327344820,327339509,0.0,0.0,0.0,2.565582,0.0,0.0,0.0,0.0,0.0,0.0,0.0,0.0,0.0,1.4986361e-05,0.0,0.0,nan,0.0,0.0,0.0,0.025588928,0.0,0.0,0.0,0.0,0.0,0.0,0.0
327845061,327839781,0.0,0.0,0.0,2.6098235,0.0,0.0,0.0,0.0,0.0,0.0,0.0,0.0,0.0,7.6399774e-05,0.0,0.0,nan,0.0,0.0,0.0,0.021969639,0.0,0.0,0.0,0.0,0.0,0.0,0.0
328342123,328340039,0.0,0.0,0.0,2.7029152,0.0,0.0,0.0,0.0,0.0,0.0,0.0,0.0,0.0,6.405334e-05,0.0,0.0,nan,0.0,0.0,0.0,0.029724827,0.0,0.0,0.0,0.0,0.0,0.0,0.0
328842249,328840305,0.0,0.0,0.0,2.781933,0.0,0.0,0.0,0.0,0.0,0.0,0.0,0.0,0.0,0.0005520201,0.0,0.0,nan,0.0,0.0,0.0,0.034687597,0.0,0.0,0.0,0.0,0.0,0.0,0.0
329345905,329340602,0.0,0.0,0.0,2.9002926,0.0,0.0,0.0,0.0,0.0,0.0,0.0,0.0,0.0,0.0017108457,0.0,0.0,nan,0.0,0.0,0.0,0.033973552,0.0,0.0,0.0,0.0,0.0,0.0,0.0
329842592,329840836,0.0,0.0,0.0,2.9039648,0.0,0.0,0.0,0.0,0.0,0.0,0.0,0.0,0.0,3.2013613e-05,0.0,0.0,nan,0.0,0.0,0.0,0.05388603,0.0,0.0,0.0,0.0,0.0,0.0,0.0
330342892,330341115,0.0,0.0,0.0,2.7509336,0.0,0.0,0.0,0.0,0.0,0.0,0.0,0.0,0.0,0.0030902456,0.0,0.0,nan,0.0,0.0,0.0,0.14775586,0.0,0.0,0.0,0.0,0.0,0.0,0.0
330846730,330841395,0.0,0.0,0.0,2.5260565,0.0,0.0,0.0,0.0,0.0,0.0,0.0,0.0,0.0,0.014243341,0.0,0.0,nan,0.0,0.0,0.0,0.0463471,0.0,0.0,0.0,0.0,0.0,0.0,0.0
331343461,331341661,0.0,0.0,0.0,2.046017,0.0,0.0,0.0,0.0,0.0,0.0,0.0,0.0,0.0,0.031675722,0.0,0.0,nan,0.0,0.0,0.0,0.0482228,0.0,0.0,0.0,0.0,0.0,0.0,0.0
331843618,331841897,0.0,0.0,0.0,1.7163022,0.0,0.0,0.0,0.0,0.0,0.0,0.0,0.0,0.0,0.01776455,0.0,0.0,nan,0.0,0.0,0.0,0.03334829,0.0,0.0,0.0,0.0,0.0,0.0,0.0
332343949,332342168,0.0,0.0,0.0,1.2523211,0.0,0.0,0.0,0.0,0.0,0.0,0.0,0.0,0.0,0.052971635,0.0,0.0,nan,0.0,0.0,0.0,0.009129019,0.0,0.0,0.0,0.0,0.0,0.0,0.0
332847652,332842429,0.0,0.0,0.0,0.9721641,0.0,0.0,0.0,0.0,0.0,0.0,0.0,0.0,0.0,0.057900164,0.0,0.0,nan,0.0,0.0,0.0,0.0011048772,0.0,0.0,0.0,0.0,0.0,0.0,0.0
333347991,333342694,0.0,0.0,0.0,0.65583605,0.0,0.0,0.0,0.0,0.0,0.0,0.0,0.0,0.0,0.047416463,0.0,0.0,nan,0.0,0.0,0.0,0.0030698476,0.0,0.0,0.0,0.0,0.0,0.0,0.0
333844641,333842960,0.0,0.0,0.0,0.5174345,0.0,0.0,0.0,0.0,0.0,0.0,0.0,0.0,0.0,0.04723683,0.0,0.0,nan,0.0,0.0,0.0,0.010755572,0.0,0.0,0.0,0.0,0.0,0.0,0.0
334345142,334343224,0.0,0.0,0.0,0.37108868,0.0,0.0,0.0,0.0,0.0,0.0,0.0,0.0,0.0,0.055658914,0.0,0.0,nan,0.0,0.0,0.0,0.022833217,0.0,0.0,0.0,0.0,0.0,0.0,0.0
334845513,334843490,0.0,0.0,0.0,0.28910813,0.0,0.0,0.0,0.0,0.0,0.0,0.0,0.0,0.0,0.048609596,0.0,0.0,nan,0.0,0.0,0.0,0.13397981,0.0,0.0,0.0,0.0,0.0,0.0,0.0
335348885,335343756,0.0,0.0,0.0,0.225861,0.0,0.0,0.0,0.0,0.0,0.0,0.0,0.0,0.0,0.07117713,0.0,0.0,nan,0.0,0.0,0.0,0.13949057,0.0,0.0,0.0,0.0,0.0,0.0,0.0
335849183,335844032,0.0,0.0,0.0,0.21968141,0.0,0.0,0.0,0.0,0.0,0.0,0.0,0.0,0.0,0.074496344,0.0,0.0,nan,0.0,0.0,0.0,0.051429823,0.0,0.0,0.0,0.0,0.0,0.0,0.0
336346327,336344288,0.0,0.0,0.0,0.20407355,0.0,0.0,0.0,0.0,0.0,0.0,0.0,0.0,0.0,0.092139974,0.0,0.0,nan,0.0,0.0,0.0,0.018623242,0.0,0.0,0.0,0.0,0.0,0.0,0.0
336849451,336844552,0.0,0.0,0.0,0.19205436,0.0,0.0,0.0,0.0,0.0,0.0,0.0,0.0,0.0,0.102346785,0.0,0.0,nan,0.0,0.0,0.0,0.015190849,0.0,0.0,0.0,0.0,0.0,0.0,0.0
337346616,337344817,0.0,0.0,0.0,0.17730288,0.0,0.0,0.0,0.0,0.0,0.0,0.0,0.0,0.0,0.06989641,0.0,0.0,nan,0.0,0.0,0.0,0.011368485,0.0,0.0,0.0,0.0,0.0,0.0,0.0
337846871,337845082,0.0,0.0,0.0,0.21162826,0.0,0.0,0.0,0.0,0.0,0.0,0.0,0.0,0.0,0.09546499,0.0,0.0,nan,0.0,0.0,0.0,0.007921481,0.0,0.0,0.0,0.0,0.0,0.0,0.0
338350256,338345348,0.0,0.0,0.0,0.32092965,0.0,0.0,0.0,0.0,0.0,0.0,0.0,0.0,0.0,0.0710867,0.0,0.0,nan,0.0,0.0,0.0,0.0057053287,0.0,0.0,0.0,0.0,0.0,0.0,0.0
338847419,338845613,0.0,0.0,0.0,0.36577955,0.0,0.0,0.0,0.0,0.0,0.0,0.0,0.0,0.0,0.07287342,0.0,0.0,nan,0.0,0.0,0.0,0.0035613785,0.0,0.0,0.0,0.0,0.0,0.0,0.0
339347663,339345878,0.0,0.0,0.0,0.3883256,0.0,0.0,0.0,0.0,0.0,0.0,0.0,0.0,0.0,0.07145515,0.0,0.0,nan,0.0,0.0,0.0,0.0067614927,0.0,0.0,0.0,0.0,0.0,0.0,0.0
339848124,339846176,0.0,0.0,0.0,0.37135684,0.0,0.0,0.0,0.0,0.0,0.0,0.0,0.0,0.0,0.06320065,0.0,0.0,nan,0.0,0.0,0.0,0.011749352,0.0,0.0,0.0,0.0,0.0,0.0,0.0
340348287,340346409,0.0,0.0,0.0,0.30873686,0.0,0.0,0.0,0.0,0.0,0.0,0.0,0.0,0.0,0.050481487,0.0,0.0,nan,0.0,0.0,0.0,0.009038645,0.0,0.0,0.0,0.0,0.0,0.0,0.0
340851547,340846674,0.0,0.0,0.0,0.24912106,0.0,0.0,0.0,0.0,0.0,0.0,0.0,0.0,0.0,0.043472193,0.0,0.0,nan,0.0,0.0,0.0,0.010214069,0.0,0.0,0.0,0.0,0.0,0.0,0.0
341349043,341346940,0.0,0.0,0.0,0.1537556,0.0,0.0,0.0,0.0,0.0,0.0,0.0,0.0,0.0,0.031191215,0.0,0.0,nan,0.0,0.0,0.0,0.01631951,0.0,0.0,0.0,0.0,0.0,0.0,0.0
341849200,341847205,0.0,0.0,0.0,0.09450594,0.0,0.0,0.0,0.0,0.0,0.0,0.0,0.0,0.0,0.029747998,0.0,0.0,nan,0.0,0.0,0.013250152,0.0,0.0,0.0,0.0,0.0,0.0,0.0,0.0
342349520,342347470,0.0,0.0,0.0,0.025513051,0.0,0.0,0.0,0.0,0.0,0.0,0.0,0.0,0.0,0.0049987338,0.0,0.0,nan,0.0,0.0,0.012227238,0.0,0.0,0.0,0.0,0.0,0.0,0.0,0.0
342849664,342847736,0.0,0.0,0.0,0.017552238,0.0,0.0,0.0,0.0,0.0,0.0,0.0,0.0,0.0,0.01499806,0.0,0.0,nan,0.0,0.0,0.0,0.0028000376,0.0,0.0,0.0,0.0,0.0,0.0,0.0
343343428,343337996,0.0,0.0,0.0,0.09530115,0.0,0.0,0.0,0.0,0.0,0.0,0.0,0.0,0.0,0.009196433,0.0,0.0,nan,0.0,0.0,0.0,0.0036003808,0.0,0.0,0.0,0.0,0.0,0.0,0.0
343840124,343838261,0.0,0.0,0.0,0.22296558,0.0,0.0,0.0,0.0,0.0,0.0,0.0,0.0,0.0,3.6744612e-05,0.0,0.0,nan,0.0,0.0,0.0,0.015900811,0.0,0.0,0.0,0.0,0.0,0.0,0.0
344340304,344338561,0.0,0.0,0.0,0.56856704,0.0,0.0,0.0,0.0,0.0,0.0,0.0,0.0,0.0,0.00016607183,0.0,0.0,nan,0.0,0.0,0.0,0.010718303,0.0,0.0,0.0,0.0,0.0,0.0,0.0
344840707,344838791,0.0,0.0,0.0,0.89740396,0.0,0.0,0.0,0.0,0.0,0.0,0.0,0.0,0.0,0.0007815958,0.0,0.0,nan,0.0,0.0,0.0,0.017483504,0.0,0.0,0.0,0.0,0.0,0.0,0.0
345341016,345339056,0.0,0.0,0.0,1.5215638,0.0,0.0,0.0,0.0,0.0,0.0,0.0,0.0,0.0,0.007532583,0.0,0.0,nan,0.0,0.0,0.0,0.013216017,0.0,0.0,0.0,0.0,0.0,0.0,0.0
345844710,345839322,0.0,0.0,0.0,2.0343108,0.0,0.0,0.0,0.0,0.0,0.0,0.0,0.0,0.0,0.013462411,0.0,0.0,nan,0.0,0.0,0.0,0.009805247,0.0,0.0,0.0,0.0,0.0,0.0,0.0
346341447,346339587,0.0,0.0,0.0,2.9130483,0.0,0.0,0.0,0.0,0.0,0.0,0.0,0.0,0.0,0.042608146,0.0,0.0,nan,0.0,0.0,0.0,0.0064764745,0.0,0.0,0.0,0.0,0.0,0.0,0.0
346841598,346839852,0.0,0.0,0.0,3.5155709,0.0,0.0,0.0,0.0,0.0,0.0,0.0,0.0,0.0,0.084063746,0.0,0.0,nan,0.0,0.0,0.0,0.014052614,0.0,0.0,0.0,0.0,0.0,0.0,0.0
347345319,347340117,0.0,0.0,0.0,4.3032618,0.0,0.0,0.0,0.0,0.0,0.0,0.0,0.0,0.0,0.10903009,0.0,0.0,nan,0.0,0.0,0.0,0.023164283,0.0,0.0,0.0,0.0,0.0,0.0,0.0
347845555,347840391,0.0,0.0,0.0,4.6750536,0.0,0.0,0.0,0.0,0.0,0.0,0.0,0.0,0.0,0.13606153,0.0,0.0,nan,0.0,0.0,0.0,0.014402703,0.0,0.0,0.0,0.0,0.0,0.0,0.0
348342674,348340647,0.0,0.0,0.0,4.9942284,0.0,0.0,0.0,0.0,0.0,0.0,0.0,0.0,0.0,0.15870199,0.0,0.0,nan,0.0,0.0,0.0,0.0050023496,0.0,0.0,0.0,0.0,0.0,0.0,0.0
348846131,348840920,0.0,0.0,0.0,5.0691566,0.0,0.0,0.0,0.0,0.0,0.0,0.0,0.0,0.0,0.10591714,0.0,0.0,nan,0.0,0.0,0.0,0.009849071,0.0,0.0,0.0,0.0,0.0,0.0,0.0
349342945,349341189,0.0,0.0,0.0,5.0354195,0.0,0.0,0.0,0.0,0.0,0.0,0.0,0.0,0.0,0.09530089,0.0,0.0,nan,0.0,0.0,0.0,0.019757658,0.0,0.0,0.0,0.0,0.0,0.0,0.0
349843608,349841453,0.0,0.0,0.0,4.8876123,0.0,0.0,0.0,0.0,0.0,0.0,0.0,0.0,0.0,0.105159126,0.0,0.0,nan,0.0,0.0,0.0,0.013494499,0.0,0.0,0.0,0.0,0.0,0.0,0.0
350346984,350341708,0.0,0.0,0.0,4.530079,0.0,0.0,0.0,0.0,0.0,0.0,0.0,0.0,0.0,0.12934162,0.0,0.0,nan,0.0,0.0,0.0,0.006300174,0.0,0.0,0.0,0.0,0.0,0.0,0.0
350843774,350841972,0.0,0.0,0.0,4.201906,0.0,0.0,0.0,0.0,0.0,0.0,0.0,0.0,0.0,0.1771397,0.0,0.0,nan,0.0,0.0,0.0,0.0049009384,0.0,0.0,0.0,0.0,0.0,0.0,0.0
351347570,351342237,0.0,0.0,0.0,3.7257497,0.0,0.0,0.0,0.0,0.0,0.0,0.0,0.0,0.0,0.07269425,0.0,0.0,nan,0.0,0.0,0.0,0.0068870266,0.0,0.0,0.0,0.0,0.0,0.0,0.0
351847722,351842503,0.0,0.0,0.0,4.1005025,0.0,0.0,0.0,0.0,0.0,0.0,0.0,0.0,0.0,0.07855658,0.0,0.0,nan,0.0,0.0,0.0,0.0059594894,0.0,0.0,0.0,0.0,0.0,0.0,0.0
352344432,352342767,0.0,0.0,0.0,4.566564,0.0,0.0,0.0,0.0,0.0,0.0,0.0,0.0,0.0,0.04631668,0.0,0.0,nan,0.0,0.0,0.0,0.009330059,0.0,0.0,0.0,0.0,0.0,0.0,0.0
352848434,352843032,0.0,0.0,0.0,4.750978,0.0,0.0,0.0,0.0,0.0,0.0,0.0,0.0,0.0,0.035873804,0.0,0.0,nan,0.0,0.0,0.0,0.009749122,0.0,0.0,0.0,0.0,0.0,0.0,0.0
353345082,353343303,0.0,0.0,0.0,4.807992,0.0,0.0,0.0,0.0,0.0,0.0,0.0,0.0,0.0,0.019299582,0.0,0.0,nan,0.0,0.0,0.0,0.0048459917,0.0,0.0,0.0,0.0,0.0,0.0,0.0
353845368,353843562,0.0,0.0,0.0,4.7266607,0.0,0.0,0.0,0.0,0.0,0.0,0.0,0.0,0.0,0.0054373704,0.0,0.0,nan,0.0,0.0,0.0,0.009726772,0.0,0.0,0.0,0.0,0.0,0.0,0.0
354348999,354343827,0.0,0.0,0.0,4.472828,0.0,0.0,0.0,0.0,0.0,0.0,0.0,0.0,0.0,0.0043763476,0.0,0.0,nan,0.0,0.0,0.0,0.008587003,0.0,0.0,0.0,0.0,0.0,0.0,0.0
354849371,354844092,0.0,0.0,0.0,4.2129273,0.0,0.0,0.0,0.0,0.0,0.0,0.0,0.0,0.0,0.003331055,0.0,0.0,nan,0.0,0.0,0.0,0.015153463,0.0,0.0,0.0,0.0,0.0,0.0,0.0
355346220,355344357,0.0,0.0,0.0,3.7472322,0.0,0.0,0.0,0.0,0.0,0.0,0.0,0.0,0.0,0.024377786,0.0,0.0,nan,0.0,0.0,0.0,0.04134471,0.0,0.0,0.0,0.0,0.0,0.0,0.0
355846413,355844622,0.0,0.0,0.0,3.4085355,0.0,0.0,0.0,0.0,0.0,0.0,0.0,0.0,0.0,0.015783615,0.0,0.0,nan,0.0,0.0,0.0,0.03816315,0.0,0.0,0.0,0.0,0.0,0.0,0.0
356350178,356344887,0.0,0.0,0.0,2.9713175,0.0,0.0,0.0,0.0,0.0,0.0,0.0,0.0,0.0,0.03928738,0.0,0.0,nan,0.0,0.0,0.0,0.023374764,0.0,0.0,0.0,0.0,0.0,0.0,0.0
356847029,356845152,0.0,0.0,0.0,2.7284412,0.0,0.0,0.0,0.0,0.0,0.0,0.0,0.0,0.0,0.031832807,0.0,0.0,nan,0.0,0.0,0.0,0.009161964,0.0,0.0,0.0,0.0,0.0,0.0,0.0
357350771,357345420,0.0,0.0,0.0,2.3978426,0.0,0.0,0.0,0.0,0.0,0.0,0.0,0.0,0.0,0.101582274,0.0,0.0,nan,0.0,0.0,0.0,0.008338147,0.0,0.0,0.0,0.0,0.0,0.0,0.0
357847556,357845681,0.0,0.0,0.0,2.1672184,0.0,0.0,0.0,0.0,0.0,0.0,0.0,0.0,0.0,0.089557976,0.0,0.0,nan,0.0,0.0,0.0,0.014513048,0.0,0.0,0.0,0.0,0.0,0.0,0.0
358347698,358345946,0.0,0.0,0.0,1.7875501,0.0,0.0,0.0,0.0,0.0,0.0,0.0,0.0,0.0,0.06890623,0.0,0.0,nan,0.0,0.0,0.0,0.07344353,0.0,0.0,0.0,0.0,0.0,0.0,0.0
358851301,358846211,0.0,0.0,0.0,1.5336897,0.0,0.0,0.0,0.0,0.0,0.0,0.0,0.0,0.0,0.1402347,0.0,0.0,nan,0.0,0.0,0.0,0.11077515,0.0,0.0,0.0,0.0,0.0,0.0,0.0
359351745,359346476,0.0,0.0,0.0,1.173241,0.0,0.0,0.0,0.0,0.0,0.0,0.0,0.0,0.0,0.13146763,0.0,0.0,nan,0.0,0.0,0.0,0.019852139,0.0,0.0,0.0,0.0,0.0,0.0,0.0
359852083,359846741,0.0,0.0,0.0,0.9786262,0.0,0.0,0.0,0.0,0.0,0.0,0.0,0.0,0.0,0.09696455,0.0,0.0,nan,0.0,0.0,0.0,0.014259764,0.0,0.0,0.0,0.0,0.0,0.0,0.0
360348810,360347005,0.0,0.0,0.0,1.0728065,0.0,0.0,0.0,0.0,0.0,0.0,0.0,0.0,0.0,0.10164874,0.0,0.0,nan,0.0,0.0,0.0,0.06149891,0.0,0.0,0.0,0.0,0.0,0.0,0.0
360842503,360837265,0.0,0.0,0.0,1.1171777,0.0,0.0,0.0,0.0,0.0,0.0,0.0,0.0,0.0,0.07621527,0.0,0.0,nan,0.0,0.0,0.0,0.08511228,0.0,0.0,0.0,0.0,0.0,0.0,0.0
361342940,361337563,0.0,0.0,0.0,1.113471,0.0,0.0,0.0,0.0,0.0,0.0,0.0,0.0,0.0,0.12218759,0.0,0.0,nan,0.0,0.0,0.0,0.075453356,0.0,0.0,0.0,0.0,0.0,0.0,0.0
361839514,361837795,0.0,0.0,0.0,1.0424252,0.0,0.0,0.0,0.0,0.0,0.0,0.0,0.0,0.0,0.15045214,0.0,0.0,nan,0.0,0.0,0.0,0.017011229,0.0,0.0,0.0,0.0,0.0,0.0,0.0
362339822,362338060,0.0,0.0,0.0,0.94853085,0.0,0.0,0.0,0.0,0.0,0.0,0.0,0.0,0.0,0.08708845,0.0,0.0,nan,0.0,0.0,0.0,0.015495927,0.0,0.0,0.0,0.0,0.0,0.0,0.0
362850148,362848358,0.0,0.0,0.0,0.9254853,0.0,0.0,0.0,0.0,0.0,0.0,0.0,0.0,0.0,0.10070359,0.0,0.0,nan,0.0,0.0,0.0,0.022577334,0.0,0.0,0.0,0.0,0.0,0.0,0.0
363350507,363348595,0.0,0.0,0.0,0.9371254,0.0,0.0,0.0,0.0,0.0,0.0,0.0,0.0,0.0,0.078544095,0.0,0.0,nan,0.0,0.0,0.0,0.010876213,0.0,0.0,0.0,0.0,0.0,0.0,0.0
363850597,363848859,0.0,0.0,0.0,0.96792734,0.0,0.0,0.0,0.0,0.0,0.0,0.0,0.0,0.0,0.111247085,0.0,0.0,nan,0.0,0.0,0.0,0.064082816,0.0,0.0,0.0,0.0,0.0,0.0,0.0
364340864,364339151,0.0,0.0,0.0,0.98584825,0.0,0.0,0.0,0.0,0.0,0.0,0.0,0.0,0.0,0.12230136,0.0,0.0,nan,0.0,0.0,0.0,0.07199783,0.0,0.0,0.0,0.0,0.0,0.0,0.0
364841253,364839398,0.0,0.0,0.0,0.96627766,0.0,0.0,0.0,0.0,0.0,0.0,0.0,0.0,0.0,0.07450216,0.0,0.0,nan,0.0,0.0,0.0,0.015051664,0.0,0.0,0.0,0.0,0.0,0.0,0.0
365344831,365339649,0.0,0.0,0.0,0.9403391,0.0,0.0,0.0,0.0,0.0,0.0,0.0,0.0,0.0,0.07723705,0.0,0.0,nan,0.0,0.0,0.0,0.011793961,0.0,0.0,0.0,0.0,0.0,0.0,0.0
365845259,365839918,0.0,0.0,0.0,0.9452258,0.0,0.0,0.0,0.0,0.0,0.0,0.0,0.0,0.0,0.06825882,0.0,0.0,nan,0.0,0.0,0.0,0.1332142,0.0,0.0,0.0,0.0,0.0,0.0,0.0
366342002,366340178,0.0,0.0,0.0,0.93256545,0.0,0.0,0.0,0.0,0.0,0.0,0.0,0.0,0.0,0.08785898,0.0,0.0,nan,0.0,0.0,0.0,0.021435676,0.0,0.0,0.0,0.0,0.0,0.0,0.0
366842285,366840443,0.0,0.0,0.0,0.89897275,0.0,0.0,0.0,0.0,0.0,0.0,0.0,0.0,0.0,0.118911415,0.0,0.0,nan,0.0,0.0,0.0,0.4155406,0.0,0.0,0.0,0.0,0.0,0.0,0.0
367342493,367340707,0.0,0.0,0.0,1.0015539,0.0,0.0,0.0,0.0,0.0,0.0,0.0,0.0,0.0,0.08083542,0.0,0.0,nan,0.0,0.0,0.0,0.16411383,0.0,0.0,0.0,0.0,0.0,0.0,0.0
367846128,367840971,0.0,0.0,0.0,1.0390028,0.0,0.0,0.0,0.0,0.0,0.0,0.0,0.0,0.0,0.077909015,0.0,0.0,nan,0.0,0.0,0.0,0.106997706,0.0,0.0,0.0,0.0,0.0,0.0,0.0
368346193,368341236,0.0,0.0,0.0,1.1852984,0.0,0.0,0.0,0.0,0.0,0.0,0.0,0.0,0.0,0.07092015,0.0,0.0,nan,0.0,0.0,0.0,0.08839634,0.0,0.0,0.0,0.0,0.0,0.0,0.0
368846603,368841510,0.0,0.0,0.0,1.3944931,0.0,0.0,0.0,0.0,0.0,0.0,0.0,0.0,0.0,0.06606132,0.0,0.0,nan,0.0,0.0,0.0,0.093697965,0.0,0.0,0.0,0.0,0.0,0.0,0.0
369346929,369341762,0.0,0.0,0.0,1.6410736,0.0,0.0,0.0,0.0,0.0,0.0,0.0,0.0,0.0,0.050444696,0.0,0.0,nan,0.0,0.0,0.0,0.06794104,0.0,0.0,0.0,0.0,0.0,0.0,0.0
369847109,369842026,0.0,0.0,0.0,1.763286,0.0,0.0,0.0,0.0,0.0,0.0,0.0,0.0,0.0,0.05390676,0.0,0.0,nan,0.0,0.0,0.0,0.06057359,0.0,0.0,0.0,0.0,0.0,0.0,0.0
370347641,370342290,0.0,0.0,0.0,1.8778867,0.0,0.0,0.0,0.0,0.0,0.0,0.0,0.0,0.0,0.043684013,0.0,0.0,nan,0.0,0.0,0.0,0.043777224,0.0,0.0,0.0,0.0,0.0,0.0,0.0
370844282,370842553,0.0,0.0,0.0,1.9206514,0.0,0.0,0.0,0.0,0.0,0.0,0.0,0.0,0.0,0.03543166,0.0,0.0,nan,0.0,0.0,0.0,0.02982845,0.0,0.0,0.0,0.0,0.0,0.0,0.0
371344743,371342816,0.0,0.0,0.0,1.9347028,0.0,0.0,0.0,0.0,0.0,0.0,0.0,0.0,0.0,0.025777275,0.0,0.0,nan,0.0,0.0,0.0,0.023094682,0.0,0.0,0.0,0.0,0.0,0.0,0.0
371844817,371843082,0.0,0.0,0.0,1.9120047,0.0,0.0,0.0,0.0,0.0,0.0,0.0,0.0,0.0,0.019119952,0.0,0.0,nan,0.0,0.0,0.0,0.018189497,0.0,0.0,0.0,0.0,0.0,0.0,0.0
372348243,372343344,0.0,0.0,0.0,1.8464249,0.0,0.0,0.0,0.0,0.0,0.0,0.0,0.0,0.0,0.014459953,0.0,0.0,nan,0.0,0.0,0.0,0.0136974305,0.0,0.0,0.0,0.0,0.0,0.0,0.0
372848926,372843608,0.0,0.0,0.0,1.782854,0.0,0.0,0.0,0.0,0.0,0.0,0.0,0.0,0.0,0.014095236,0.0,0.0,nan,0.0,0.0,0.0,0.010016702,0.0,0.0,0.0,0.0,0.0,0.0,0.0
373345627,373343871,0.0,0.0,0.0,1.6600201,0.0,0.0,0.0,0.0,0.0,0.0,0.0,0.0,0.0,0.012853382,0.0,0.0,nan,0.0,0.0,0.0,0.007651488,0.0,0.0,0.0,0.0,0.0,0.0,0.0
373845940,373844135,0.0,0.0,0.0,1.5649903,0.0,0.0,0.0,0.0,0.0,0.0,0.0,0.0,0.0,0.010942982,0.0,0.0,nan,0.0,0.0,0.0,0.0051722247,0.0,0.0,0.0,0.0,0.0,0.0,0.0
374346604,374344419,0.0,0.0,0.0,1.4139177,0.0,0.0,0.0,0.0,0.0,0.0,0.0,0.0,0.0,0.010824233,0.0,0.0,nan,0.0,0.0,0.0,0.0033455873,0.0,0.0,0.0,0.0,0.0,0.0,0.0
374849842,374844662,0.0,0.0,0.0,1.3084363,0.0,0.0,0.0,0.0,0.0,0.0,0.0,0.0,0.0,0.012190453,0.0,0.0,nan,0.0,0.0,0.0,0.0045207115,0.0,0.0,0.0,0.0,0.0,0.0,0.0
375350051,375344925,0.0,0.0,0.0,1.15373,0.0,0.0,0.0,0.0,0.0,0.0,0.0,0.0,0.0,0.011119864,0.0,0.0,nan,0.0,0.0,0.0,0.002441891,0.0,0.0,0.0,0.0,0.0,0.0,0.0
375847167,375845189,0.0,0.0,0.0,1.0565566,0.0,0.0,0.0,0.0,0.0,0.0,0.0,0.0,0.0,0.0109777395,0.0,0.0,nan,0.0,0.0,0.0,0.0015548801,0.0,0.0,0.0,0.0,0.0,0.0,0.0
376347230,376345452,0.0,0.0,0.0,0.917938,0.0,0.0,0.0,0.0,0.0,0.0,0.0,0.0,0.0,0.008829991,0.0,0.0,nan,0.0,0.0,0.0,0.008564978,0.0,0.0,0.0,0.0,0.0,0.0,0.0
376850687,376845716,0.0,0.0,0.0,0.82444775,0.0,0.0,0.0,0.0,0.0,0.0,0.0,0.0,0.0,0.010784986,0.0,0.0,nan,0.0,0.0,0.0,0.013296186,0.0,0.0,0.0,0.0,0.0,0.0,0.0
377351292,377345979,0.0,0.0,0.0,0.69513845,0.0,0.0,0.0,0.0,0.0,0.0,0.0,0.0,0.0,0.008988202,0.0,0.0,nan,0.0,0.0,0.0,0.008046004,0.0,0.0,0.0,0.0,0.0,0.0,0.0
377847938,377846243,0.0,0.0,0.0,0.61777514,0.0,0.0,0.0,0.0,0.0,0.0,0.0,0.0,0.0,0.010005636,0.0,0.0,nan,0.0,0.0,0.0,0.01047229,0.0,0.0,0.0,0.0,0.0,0.0,0.0
378348506,378346506,0.0,0.0,0.0,0.5146434,0.0,0.0,0.0,0.0,0.0,0.0,0.0,0.0,0.0,0.01190055,0.0,0.0,nan,0.0,0.0,0.0,0.012038686,0.0,0.0,0.0,0.0,0.0,0.0,0.0
378848742,378846777,0.0,0.0,0.0,7.582524,0.0,0.0,0.0,0.0,0.0,0.0,0.0,0.0,0.0,0.012109061,0.0,0.0,nan,0.0,0.0,0.060389135,0.0,0.0,0.0,0.0,0.0,0.0,0.0,0.0
379348723,379347033,0.0,0.0,0.0,0.026775457,0.0,0.0,0.0,0.0,0.0,0.0,0.0,0.0,0.0,0.011876308,0.0,0.0,nan,0.0,0.0,0.05113296,0.0,0.0,0.0,0.0,0.0,0.0,0.0,0.0
379849063,379847299,0.0,0.0,0.0,0.09402874,0.0,0.0,0.0,0.0,0.0,0.0,0.0,0.0,0.0,0.009389628,0.0,0.0,nan,0.0,0.0,0.04926768,0.0,0.0,0.0,0.0,0.0,0.0,0.0,0.0
