timestamp,timestamp_sample,device_id,error_count,pressure,temperature
186837855,186837844,3997706,0,1015.36,37.53
186847904,186847893,3997706,0,1015.38,37.53
186939283,186939272,3997706,0,1015.38,37.54
187039793,187039782,3997706,0,1015.33997,37.54
187140397,187140386,3997706,0,1015.35,37.54
187241878,187241867,3997706,0,1015.35,37.54
187342410,187342396,3997706,0,1015.29,37.54
187442942,187442931,3997706,0,1015.27997,37.54
187543506,187543489,3997706,0,1015.35,37.54
187644897,187644886,3997706,0,1015.33997,37.54
187745458,187745440,3997706,0,1015.39996,37.54
187845976,187845965,3997706,0,1015.3,37.54
187947460,187947448,3997706,0,1015.33997,37.54
188047906,188047891,3997706,0,1015.33997,37.54
188148403,188148392,3997706,0,1015.36,37.54
188228797,188228786,3997706,0,1015.32,37.54
188350282,188350271,3997706,0,1015.38,37.54
188430725,188430710,3997706,0,1015.33997,37.54
188541260,188541249,3997706,0,1015.35,37.54
188632723,188632712,3997706,0,1015.37,37.54
188743297,188743286,3997706,0,1015.32,37.54
188833742,188833731,3997706,0,1015.41,37.54
188945203,188945192,3997706,0,1015.38,37.54
189035690,189035679,3997706,0,1015.39996,37.54
189146187,189146176,3997706,0,1015.38,37.54
189236642,189236631,3997706,0,1015.32,37.54
189338079,189338068,3997706,0,1015.41,37.54
189438548,189438537,3997706,0,1015.38,37.54
189549119,189549108,3997706,0,1015.37,37.54
189640435,189640424,3997706,0,1015.37,37.54
189740942,189740931,3997706,0,1015.35,37.54
189841469,189841456,3997706,0,1015.41,37.54
189941965,189941952,3997706,0,1015.38995,37.54
190043375,190043364,3997706,0,1015.37,37.54
190143901,190143890,3997706,0,1015.37,37.55
190244402,190244391,3997706,0,1015.32996,37.54
190345826,190345815,3997706,0,1015.38995,37.54
190446307,190446295,3997706,0,1015.32996,37.54
190546796,190546785,3997706,0,1015.32,37.54
190647299,190647288,3997706,0,1015.33997,37.54
190728620,190728609,3997706,0,1015.37,37.54
190839130,190839119,3997706,0,1015.38,37.54
190949710,190949699,3997706,0,1015.33997,37.54
191040110,191040099,3997706,0,1015.33997,37.54
191131515,191131504,3997706,0,1015.38995,37.54
191242032,191242021,3997706,0,1015.32,37.54
191332510,191332495,3997706,0,1015.38995,37.54
191443971,191443960,3997706,0,1015.32,37.54
191534453,191534442,3997706,0,1015.35,37.54
191644945,191644934,3997706,0,1015.36,37.55
191735451,191735440,3997706,0,1015.32,37.54
191846951,191846940,3997706,0,1015.36,37.54
191937453,191937442,3997706,0,1015.32996,37.54
192047990,192047979,3997706,0,1015.36,37.54
192139329,192139318,3997706,0,1015.32996,37.54
192239876,192239864,3997706,0,1015.38,37.54
192340353,192340342,3997706,0,1015.31,37.54
192440806,192440795,3997706,0,1015.38995,37.54
192542216,192542205,3997706,0,1015.33997,37.54
192642710,192642699,3997706,0,1015.36,37.55
192743186,192743173,3997706,0,1015.38995,37.54
192844620,192844609,3997706,0,1015.38,37.54
192945175,192945161,3997706,0,1015.38,37.54
193045670,193045659,3997706,0,1015.32,37.54
193146154,193146139,3997706,0,1015.37,37.54
193247568,193247557,3997706,0,1015.37,37.55
193337975,193337964,3997706,0,1015.35,37.54
193448538,193448523,3997706,0,1015.37,37.55
193539856,193539842,3997706,0,1015.36,37.54
193630305,193630294,3997706,0,1015.39996,37.54
193740888,193740877,3997706,0,1015.38995,37.55
193831291,193831280,3997706,0,1015.35,37.54
193942785,193942774,3997706,0,1015.38,37.55
194033216,194033205,3997706,0,1015.33997,37.55
194143777,194143766,3997706,0,1015.24,37.54
194235140,194235129,3997706,0,1015.36,37.55
194345682,194345671,3997706,0,1015.36,37.55
194436120,194436109,3997706,0,1015.37,37.55
194546695,194546683,3997706,0,1015.39996,37.55
194638035,194638024,3997706,0,1015.41,37.55
194738551,194738540,3997706,0,1015.36,37.55
194839007,194838996,3997706,0,1015.35,37.55
194939490,194939479,3997706,0,1015.42,37.55
195040928,195040917,3997706,0,1015.29,37.55
195141375,195141357,3997706,0,1015.35,37.55
195241955,195241944,3997706,0,1015.35,37.55
195343346,195343332,3997706,0,1015.32,37.55
195443813,195443802,3997706,0,1015.36,37.55
195544321,195544310,3997706,0,1015.33997,37.55
195644817,195644806,3997706,0,1015.31,37.55
195746214,195746203,3997706,0,1015.36,37.559998
195846708,195846694,3997706,0,1015.32996,37.55
195947161,195947150,3997706,0,1015.36,37.559998
196048636,196048621,3997706,0,1015.3,37.55
196129042,196129031,3997706,0,1015.32,37.55
196239591,196239580,3997706,0,1015.32996,37.55
196330008,196329997,3997706,0,1015.35,37.559998
196441526,196441515,3997706,0,1015.33997,37.559998
196531931,196531920,3997706,0,1015.35,37.55
196642504,196642490,3997706,0,1015.35,37.559998
196733888,196733877,3997706,0,1015.29,37.559998
196844359,196844348,3997706,0,1015.32,37.559998
196934854,196934840,3997706,0,1015.33997,37.559998
197045374,197045363,3997706,0,1015.25995,37.559998
197136809,197136798,3997706,0,1015.3,37.559998
197247389,197247374,3997706,0,1015.3,37.559998
197337827,197337816,3997706,0,1015.37,37.559998
197449321,197449310,3997706,0,1015.33997,37.559998
197539800,197539789,3997706,0,1015.3,37.559998
197640245,197640227,3997706,0,1015.36,37.559998
197740785,197740774,3997706,0,1015.39996,37.559998
197842194,197842179,3997706,0,1015.33997,37.559998
197942723,197942711,3997706,0,1015.35,37.57
198043180,198043166,3997706,0,1015.33997,37.57
198144592,198144581,3997706,0,1015.26996,37.559998
198245043,198245032,3997706,0,1015.32,37.57
198345620,198345609,3997706,0,1015.32996,37.559998
198446076,198446062,3997706,0,1015.31,37.559998
198547549,198547538,3997706,0,1015.36,37.57
198648103,198648092,3997706,0,1015.37,37.57
198738542,198738531,3997706,0,1015.27997,37.57
198850040,198850028,3997706,0,1015.31,37.57
198940523,198940512,3997706,0,1015.32996,37.57
199030938,199030927,3997706,0,1015.26996,37.579998
199141510,199141499,3997706,0,1015.3,37.57
199232940,199232929,3997706,0,1015.25995,37.57
199343499,199343485,3997706,0,1015.25,37.57
199433945,199433934,3997706,0,1015.32996,37.579998
199545387,199545374,3997706,0,1015.33997,37.579998
199635827,199635816,3997706,0,1015.29,37.579998
199746459,199746448,3997706,0,1015.27997,37.579998
199836878,199836866,3997706,0,1015.31,37.579998
199948315,199948304,3997706,0,1015.29,37.579998
200038799,200038788,3997706,0,1015.32996,37.59
200139249,200139238,3997706,0,1015.33997,37.59
200240672,200240661,3997706,0,1015.32,37.59
200341174,200341163,3997706,0,1015.3,37.579998
200441723,200441712,3997706,0,1015.31,37.579998
200542213,200542202,3997706,0,1015.24,37.59
200643628,200643614,3997706,0,1015.3,37.59
200744086,200744075,3997706,0,1015.27997,37.579998
200844583,200844572,3997706,0,1015.32996,37.59
200945997,200945986,3997706,0,1015.22,37.59
201046467,201046452,3997706,0,1015.3,37.59
201146947,201146936,3997706,0,1015.29,37.59
201237402,201237391,3997706,0,1015.37,37.59
201348840,201348827,3997706,0,1015.31,37.59
201439293,201439282,3997706,0,1015.26996,37.6
201529776,201529762,3997706,0,1015.37,37.59
201641249,201641238,3997706,0,1015.31,37.6
201731739,201731728,3997706,0,1015.27997,37.6
201842251,201842240,3997706,0,1015.25,37.6
201932743,201932729,3997706,0,1015.3,37.6
202044279,202044268,3997706,0,1015.32,37.61
202134729,202134718,3997706,0,1015.27997,37.6
202245247,202245236,3997706,0,1015.32996,37.61
202336646,202336635,3997706,0,1015.26996,37.61
202447140,202447128,3997706,0,1015.25995,37.6
202537616,202537605,3997706,0,1015.29,37.6
202638095,202638084,3997706,0,1015.31,37.61
202739555,202739544,3997706,0,1015.25995,37.61
202840015,202840004,3997706,0,1015.31,37.61
202940496,202940485,3997706,0,1015.29,37.61
203041926,203041915,3997706,0,1015.24,37.61
203142427,203142415,3997706,0,1015.3,37.61
203242896,203242885,3997706,0,1015.32,37.61
203343451,203343440,3997706,0,1015.26996,37.62
203444875,203444864,3997706,0,1015.3,37.62
203545321,203545310,3997706,0,1015.27997,37.62
203645852,203645841,3997706,0,1015.3,37.62
203747237,203747222,3997706,0,1015.26996,37.62
203847761,203847750,3997706,0,1015.29,37.62
203948275,203948264,3997706,0,1015.29,37.62
204028683,204028672,3997706,0,1015.3,37.62
204140145,204140134,3997706,0,1015.24,37.629997
204230640,204230629,3997706,0,1015.25995,37.629997
204341195,204341182,3997706,0,1015.27997,37.629997
204432624,204432613,3997706,0,1015.25,37.629997
204543186,204543175,3997706,0,1015.25,37.629997
204633653,204633642,3997706,0,1015.3,37.629997
204745156,204745145,3997706,0,1015.22,37.629997
204835615,204835604,3997706,0,1015.27997,37.629997
204946142,204946131,3997706,0,1015.26996,37.629997
205036616,205036602,3997706,0,1015.25995,37.64
205148062,205148051,3997706,0,1015.24,37.64
205238502,205238491,3997706,0,1015.24,37.64
205349076,205349063,3997706,0,1015.27997,37.64
205439503,205439492,3997706,0,1015.25,37.64
205540920,205540909,3997706,0,1015.3,37.64
205641409,205641395,3997706,0,1015.20996,37.649998
205741886,205741875,3997706,0,1015.3,37.649998
205843321,205843310,3997706,0,1015.25,37.64
205943872,205943861,3997706,0,1015.25995,37.649998
206044359,206044348,3997706,0,1015.24,37.649998
206144874,206144863,3997706,0,1015.26996,37.649998
206246345,206246334,3997706,0,1015.29,37.649998
206346832,206346821,3997706,0,1015.3,37.649998
206447353,206447342,3997706,0,1015.25995,37.66
206548819,206548808,3997706,0,1015.25,37.66
206639226,206639215,3997706,0,1015.32,37.66
206749815,206749801,3997706,0,1015.32996,37.66
206840233,206840215,3997706,0,1015.27997,37.66
206931616,206931605,3997706,0,1015.26996,37.66
207042191,207042180,3997706,0,1015.26996,37.67
207132655,207132644,3997706,0,1015.25,37.66
207244143,207244132,3997706,0,1015.27997,37.67
207334630,207334619,3997706,0,1015.29,37.67
207445134,207445123,3997706,0,1015.26996,37.67
207536575,207536560,3997706,0,1015.23,37.67
207647100,207647089,3997706,0,1015.27997,37.67
207737552,207737530,3997706,0,1015.31,37.68
207848081,207848070,3997706,0,1015.23,37.68
207939494,207939482,3997706,0,1015.23,37.68
208039920,208039909,3997706,0,1015.3,37.68
208140451,208140440,3997706,0,1015.25,37.68
208241857,208241846,3997706,0,1015.27997,37.68
208342311,208342296,3997706,0,1015.27997,37.68
208442828,208442817,3997706,0,1015.24,37.68
208543309,208543295,3997706,0,1015.25995,37.69
208644734,208644720,3997706,0,1015.25995,37.69
208745206,208745195,3997706,0,1015.26996,37.69
208845675,208845664,3997706,0,1015.23,37.69
208946218,208946207,3997706,0,1015.24,37.69
209047610,209047599,3997706,0,1015.20996,37.7
209148099,209148085,3997706,0,1015.22,37.69
209228531,209228520,3997706,0,1015.23,37.7
209350098,209350086,3997706,0,1015.20996,37.71
209430522,209430511,3997706,0,1015.23,37.7
209541083,209541072,3997706,0,1015.31,37.71
209631568,209631557,3997706,0,1015.26996,37.71
209742997,209742986,3997706,0,1015.22,37.71
209833503,209833492,3997706,0,1015.27997,37.71
209944004,209943993,3997706,0,1015.23,37.71
210035363,210035352,3997706,0,1015.23,37.71
210145913,210145902,3997706,0,1015.24,37.71
210236361,210236350,3997706,0,1015.19995,37.71
210346942,210346930,3997706,0,1015.19,37.719997
210438325,210438314,3997706,0,1015.20996,37.719997
210548900,210548886,3997706,0,1015.19,37.719997
210639348,210639337,3997706,0,1015.18,37.719997
210740851,210740840,3997706,0,1015.20996,37.719997
210841303,210841292,3997706,0,1015.20996,37.73
210941817,210941806,3997706,0,1015.17,37.719997
211043209,211043198,3997706,0,1015.22,37.73
211143715,211143703,3997706,0,1015.23,37.73
211244208,211244197,3997706,0,1015.20996,37.73
211344685,211344673,3997706,0,1015.16,37.73
211446120,211446109,3997706,0,1015.18,37.739998
211546622,211546611,3997706,0,1015.18,37.739998
211647120,211647109,3997706,0,1015.13,37.739998
211727554,211727543,3997706,0,1015.13,37.739998
211849055,211849043,3997706,0,1015.19,37.739998
211949537,211949526,3997706,0,1015.23,37.739998
212039987,212039976,3997706,0,1015.17,37.739998
212131339,212131328,3997706,0,1015.16,37.75
212241898,212241887,3997706,0,1015.14996,37.75
212332320,212332309,3997706,0,1015.13995,37.75
212442848,212442837,3997706,0,1015.14996,37.75
212534223,212534208,3997706,0,1015.20996,37.76
212644775,212644764,3997706,0,1015.17,37.76
212735200,212735189,3997706,0,1015.18,37.76
212846688,212846677,3997706,0,1015.17,37.76
212937103,212937092,3997706,0,1015.23,37.76
213047652,213047641,3997706,0,1015.22,37.76
213138122,213138111,3997706,0,1015.19,37.77
213239535,213239524,3997706,0,1015.14996,37.77
213340030,213340019,3997706,0,1015.13,37.77
213440495,213440484,3997706,0,1015.14996,37.77
213540994,213540983,3997706,0,1015.19995,37.77
213642395,213642383,3997706,0,1015.20996,37.77
213742894,213742883,3997706,0,1015.13995,37.77
213843376,213843362,3997706,0,1015.17,37.77
213944800,213944789,3997706,0,1015.18,37.78
214045289,214045278,3997706,0,1015.14996,37.78
214145809,214145798,3997706,0,1015.19,37.78
214246288,214246277,3997706,0,1015.19,37.79
214347792,214347781,3997706,0,1015.18,37.78
214448323,214448312,3997706,0,1015.13,37.79
214538845,214538831,3997706,0,1015.20996,37.79
214630181,214630167,3997706,0,1015.13995,37.79
214740766,214740751,3997706,0,1015.19995,37.79
214831171,214831160,3997706,0,1015.18,37.79
214942782,214942771,3997706,0,1015.19,37.79
215033219,215033208,3997706,0,1015.16,37.8
215143765,215143751,3997706,0,1015.18,37.79
215234175,215234164,3997706,0,1015.16,37.8
215345646,215345634,3997706,0,1015.17,37.8
215436106,215436095,3997706,0,1015.12,37.8
215546655,215546643,3997706,0,1015.13995,37.8
215638003,215637989,3997706,0,1015.14996,37.8
215738491,215738480,3997706,0,1015.12,37.809998
215838992,215838981,3997706,0,1015.19,37.809998
215939527,215939513,3997706,0,1015.16,37.809998
216040920,216040909,3997706,0,1015.12,37.809998
216141411,216141400,3997706,0,1015.13,37.809998
216241937,216241926,3997706,0,1015.13,37.809998
216343281,216343270,3997706,0,1015.13995,37.82
216443805,216443794,3997706,0,1015.19995,37.82
216544302,216544291,3997706,0,1015.19,37.82
216644883,216644872,3997706,0,1015.13995,37.82
216746244,216746233,3997706,0,1015.20996,37.829998
216846725,216846711,3997706,0,1015.19995,37.829998
216947212,216947201,3997706,0,1015.18,37.829998
217047719,217047708,3997706,0,1015.16,37.829998
217129002,217128991,3997706,0,1015.17,37.829998
217239583,217239572,3997706,0,1015.17,37.829998
217329999,217329988,3997706,0,1015.14996,37.829998
217441515,217441504,3997706,0,1015.19,37.829998
217531944,217531933,3997706,0,1015.13995,37.829998
217642454,217642443,3997706,0,1015.17,37.84
217732888,217732877,3997706,0,1015.18,37.829998
217844362,217844347,3997706,0,1015.17,37.829998
217934809,217934798,3997706,0,1015.12,37.84
218045386,218045373,3997706,0,1015.13995,37.84
218136768,218136757,3997706,0,1015.13,37.84
218247255,218247244,3997706,0,1015.12,37.84
218337746,218337734,3997706,0,1015.19,37.84
218448224,218448213,3997706,0,1015.20996,37.85
218539635,218539624,3997706,0,1015.19,37.85
218640120,218640105,3997706,0,1015.13995,37.84
218740643,218740629,3997706,0,1015.19995,37.85
218842063,218842052,3997706,0,1015.11,37.85
218942583,218942571,3997706,0,1015.16,37.85
219043021,219043010,3997706,0,1015.12,37.85
219143548,219143537,3997706,0,1015.12,37.85
219244968,219244957,3997706,0,1015.11,37.85
219345460,219345449,3997706,0,1015.18,37.85
219445970,219445959,3997706,0,1015.14996,37.86
219547357,219547346,3997706,0,1015.16,37.85
219647952,219647941,3997706,0,1015.19995,37.86
219738456,219738441,3997706,0,1015.17,37.86
219848959,219848948,3997706,0,1015.17,37.86
219940319,219940307,3997706,0,1015.12,37.86
220030838,220030827,3997706,0,1015.16,37.86
220141362,220141351,3997706,0,1015.14996,37.86
220232797,220232786,3997706,0,1015.12,37.86
220343329,220343318,3997706,0,1015.16,37.87
220433780,220433769,3997706,0,1015.20996,37.86
220544348,220544337,3997706,0,1015.17,37.86
220635759,220635748,3997706,0,1015.19,37.87
220746277,220746266,3997706,0,1015.17,37.87
220836758,220836747,3997706,0,1015.14996,37.87
220948216,220948205,3997706,0,1015.18,37.87
221038633,221038622,3997706,0,1015.13995,37.87
221139123,221139112,3997706,0,1015.18,37.879997
221239585,221239574,3997706,0,1015.12,37.87
221341025,221341010,3997706,0,1015.19995,37.879997
221441584,221441573,3997706,0,1015.13,37.87
221542043,221542032,3997706,0,1015.14996,37.879997
221643509,221643498,3997706,0,1015.16,37.879997
221743971,221743960,3997706,0,1015.18,37.879997
221844451,221844440,3997706,0,1015.12,37.879997
221944921,221944910,3997706,0,1015.20996,37.879997
222046389,222046373,3997706,0,1015.08997,37.89
222146889,222146877,3997706,0,1015.14996,37.89
222247371,222247357,3997706,0,1015.13,37.879997
222348863,222348852,3997706,0,1015.16,37.89
222439270,222439259,3997706,0,1015.20996,37.89
222529792,222529781,3997706,0,1015.07,37.89
222640276,222640265,3997706,0,1015.12,37.89
222731693,222731682,3997706,0,1015.13995,37.89
222842241,222842230,3997706,0,1015.16,37.89
222932722,222932711,3997706,0,1015.16,37.89
223044142,223044130,3997706,0,1015.13995,37.899998
223134620,223134609,3997706,0,1015.08997,37.899998
223245106,223245092,3997706,0,1015.08997,37.899998
223335584,223335573,3997706,0,1015.13,37.899998
223447026,223447015,3997706,0,1015.12,37.91
223537451,223537440,3997706,0,1015.11,37.899998
223648003,223647992,3997706,0,1015.16,37.91
223738457,223738446,3997706,0,1015.13995,37.91
223849912,223849894,3997706,0,1015.16,37.91
223940395,223940380,3997706,0,1015.17,37.91
224040848,224040837,3997706,0,1015.13,37.91
224142288,224142277,3997706,0,1015.1,37.91
224242816,224242805,3997706,0,1015.07996,37.91
224343281,224343270,3997706,0,1015.13995,37.91
224443799,224443788,3997706,0,1015.16,37.92
224545206,224545194,3997706,0,1015.14996,37.92
224645674,224645660,3997706,0,1015.19,37.92
224746164,224746153,3997706,0,1015.18,37.92
224847560,224847549,3997706,0,1015.13,37.92
224948070,224948056,3997706,0,1015.12,37.92
225028451,225028440,3997706,0,1015.18,37.92
225149083,225149072,3997706,0,1015.07996,37.93
225250584,225250573,3997706,0,1015.12,37.92
225341077,225341066,3997706,0,1015.14996,37.93
225431517,225431506,3997706,0,1015.1,37.93
225542977,225542966,3997706,0,1015.13995,37.93
225633387,225633374,3997706,0,1015.17,37.93
225743939,225743928,3997706,0,1015.19995,37.93
225834452,225834440,3997706,0,1015.06,37.93
225945917,225945906,3997706,0,1015.16,37.94
226036330,226036319,3997706,0,1015.18,37.94
226146908,226146894,3997706,0,1015.13995,37.94
226238254,226238239,3997706,0,1015.1,37.95
226348814,226348803,3997706,0,1015.07996,37.94
226439245,226439234,3997706,0,1015.1,37.94
226549795,226549784,3997706,0,1015.11,37.95
226641249,226641238,3997706,0,1015.13,37.95
226741786,226741775,3997706,0,1015.11,37.95
226842236,226842225,3997706,0,1015.08997,37.95
226943710,226943699,3997706,0,1015.08997,37.95
227044193,227044182,3997706,0,1015.13,37.95
227144683,227144672,3997706,0,1015.11,37.96
227245178,227245167,3997706,0,1015.07,37.95
227346636,227346619,3997706,0,1015.11,37.96
227447095,227447084,3997706,0,1015.13,37.96
227547601,227547584,3997706,0,1015.13995,37.96
227638913,227638902,3997706,0,1015.13995,37.96
227749538,227749527,3997706,0,1015.08997,37.969997
227840036,227840025,3997706,0,1015.06,37.96
227930500,227930489,3997706,0,1015.1,37.969997
228041953,228041942,3997706,0,1015.1,37.969997
228132457,228132446,3997706,0,1015.07996,37.98
228242984,228242973,3997706,0,1015.13,37.969997
228334338,228334327,3997706,0,1015.1,37.969997
228444883,228444870,3997706,0,1015.08997,37.98
228535303,228535292,3997706,0,1015.02997,37.98
228645867,228645856,3997706,0,1015.08997,37.98
228737183,228737172,3997706,0,1015.1,37.989998
228847771,228847759,3997706,0,1015.05,37.98
228938233,228938222,3997706,0,1015.01996,37.989998
229039615,229039604,3997706,0,1015.06,37.98
229140097,229140086,3997706,0,1015.1,37.989998
229240614,229240603,3997706,0,1015.07996,37.989998
229341095,229341082,3997706,0,1015.08997,38.0
229442540,229442526,3997706,0,1015.11,38.0
229542999,229542988,3997706,0,1015.07,38.0
229643543,229643532,3997706,0,1015.02997,38.0
229744994,229744983,3997706,0,1015.1,38.0
229845454,229845440,3997706,0,1015.07,38.0
229945954,229945943,3997706,0,1015.02997,38.0
230046446,230046434,3997706,0,1015.07996,38.0
230147867,230147856,3997706,0,1015.06,38.01
230228268,230228257,3997706,0,1015.14996,38.01
230348960,230348949,3997706,0,1015.07,38.01
230430248,230430237,3997706,0,1015.08997,38.01
230540809,230540798,3997706,0,1015.11,38.01
230631229,230631218,3997706,0,1015.06,38.02
230741839,230741828,3997706,0,1015.12,38.01
230833240,230833229,3997706,0,1015.06,38.02
230943853,230943842,3997706,0,1015.07996,38.02
231034290,231034279,3997706,0,1015.02997,38.02
231145817,231145806,3997706,0,1015.1,38.03
231236267,231236252,3997706,0,1015.06,38.03
231346827,231346816,3997706,0,1015.06,38.02
231437264,231437253,3997706,0,1015.06,38.03
231548729,231548715,3997706,0,1015.05,38.03
231639129,231639115,3997706,0,1015.11,38.04
231749678,231749667,3997706,0,1015.1,38.04
231841093,231841082,3997706,0,1015.00995,38.03
231941599,231941588,3997706,0,1015.04,38.04
232042093,232042081,3997706,0,1015.07,38.04
232142588,232142577,3997706,0,1015.1,38.05
232243982,232243971,3997706,0,1015.11,38.04
232344467,232344455,3997706,0,1014.98,38.04
232444918,232444907,3997706,0,1015.02997,38.05
232546373,232546362,3997706,0,1015.07,38.05
232646967,232646949,3997706,0,1015.00995,38.05
232727359,232727348,3997706,0,1015.00995,38.05
232847970,232847959,3997706,0,1015.07996,38.05
232949371,232949360,3997706,0,1014.99,38.059998
233039815,233039804,3997706,0,1015.06,38.059998
233130277,233130262,3997706,0,1015.04,38.059998
233241780,233241769,3997706,0,1015.08997,38.059998
233332178,233332163,3997706,0,1015.04,38.059998
233442743,233442732,3997706,0,1015.08997,38.059998
233533147,233533136,3997706,0,1015.05,38.07
233644636,233644622,3997706,0,1014.99,38.07
233735054,233735040,3997706,0,1015.07996,38.07
233845625,233845614,3997706,0,1015.05,38.07
233936955,233936944,3997706,0,1014.98,38.07
234047593,234047582,3997706,0,1014.95996,38.079998
234138002,234137988,3997706,0,1014.99,38.079998
234248625,234248614,3997706,0,1015.06,38.079998
234340019,234340008,3997706,0,1015.07996,38.079998
234440536,234440525,3997706,0,1015.0,38.09
234541036,234541025,3997706,0,1015.04,38.09
234642461,234642450,3997706,0,1015.07,38.09
234742937,234742926,3997706,0,1015.07996,38.09
234843451,234843440,3997706,0,1015.0,38.09
234943915,234943904,3997706,0,1015.02997,38.09
235045306,235045295,3997706,0,1015.00995,38.1
235145824,235145812,3997706,0,1015.01996,38.1
235246288,235246277,3997706,0,1015.07996,38.1
235347737,235347726,3997706,0,1015.05,38.1
235448187,235448176,3997706,0,1015.00995,38.1
235538681,235538670,3997706,0,1014.98,38.1
235629092,235629081,3997706,0,1015.01996,38.11
235740556,235740545,3997706,0,1015.02997,38.11
235831026,235831015,3997706,0,1014.97,38.11
235941634,235941623,3997706,0,1015.02997,38.11
236032038,236032027,3997706,0,1015.01996,38.11
236143508,236143494,3997706,0,1015.07,38.12
236233946,236233935,3997706,0,1015.04,38.12
236344578,236344567,3997706,0,1015.00995,38.12
236435952,236435941,3997706,0,1015.01996,38.12
236546562,236546551,3997706,0,1015.01996,38.12
236636969,236636958,3997706,0,1015.01996,38.12
236738451,236738440,3997706,0,1014.99,38.12
236838945,236838934,3997706,0,1015.05,38.129997
236939489,236939478,3997706,0,1015.02997,38.129997
237040000,237039989,3997706,0,1015.0,38.129997
237141464,237141453,3997706,0,1015.05,38.14
237241949,237241938,3997706,0,1015.04,38.129997
237342494,237342483,3997706,0,1014.98,38.14
237443870,237443855,3997706,0,1015.00995,38.14
237544333,237544315,3997706,0,1015.04,38.14
237644855,237644844,3997706,0,1015.0,38.14
237745319,237745307,3997706,0,1015.00995,38.14
237846782,237846771,3997706,0,1014.99,38.14
237947268,237947257,3997706,0,1015.02997,38.149998
238047762,238047751,3997706,0,1015.01996,38.149998
238129062,238129051,3997706,0,1015.05,38.149998
238249680,238249667,3997706,0,1015.02997,38.149998
238330048,238330037,3997706,0,1014.99,38.149998
238440607,238440596,3997706,0,1015.0,38.16
238531965,238531954,3997706,0,1015.0,38.16
238642546,238642535,3997706,0,1015.01996,38.16
238732988,238732977,3997706,0,1015.02997,38.16
238844420,238844409,3997706,0,1015.04,38.16
238934852,238934841,3997706,0,1014.94995,38.17
239045353,239045342,3997706,0,1015.00995,38.17
239135804,239135793,3997706,0,1015.0,38.17
239247248,239247237,3997706,0,1015.0,38.17
239337697,239337683,3997706,0,1015.07996,38.17
239448247,239448236,3997706,0,1015.01996,38.17
239538693,239538682,3997706,0,1014.99,38.18
239640081,239640070,3997706,0,1014.97,38.18
239740656,239740645,3997706,0,1015.04,38.18
239841119,239841108,3997706,0,1015.0,38.19
239942580,239942569,3997706,0,1014.94995,38.19
240043070,240043059,3997706,0,1014.99,38.19
240143543,240143532,3997706,0,1014.97,38.19
240244010,240243999,3997706,0,1014.98,38.19
240345402,240345391,3997706,0,1014.98,38.2
240445884,240445873,3997706,0,1014.99,38.19
240546400,240546389,3997706,0,1014.94995,38.19
240647825,240647814,3997706,0,1014.99,38.2
240748294,240748283,3997706,0,1014.99,38.21
240828754,240828743,3997706,0,1015.0,38.21
240939272,240939261,3997706,0,1015.01996,38.21
241030681,241030670,3997706,0,1014.94,38.2
241141257,241141246,3997706,0,1014.97,38.21
241231760,241231749,3997706,0,1014.95996,38.21
241343243,241343232,3997706,0,1014.95996,38.21
241433723,241433712,3997706,0,1014.92,38.21
241544208,241544194,3997706,0,1014.93,38.219997
241634685,241634674,3997706,0,1014.94,38.219997
241746164,241746153,3997706,0,1014.94995,38.219997
241836581,241836570,3997706,0,1014.99,38.219997
241947104,241947093,3997706,0,1015.0,38.23
242037565,242037554,3997706,0,1014.98,38.219997
242138948,242138937,3997706,0,1014.94,38.23
242239462,242239451,3997706,0,1014.89996,38.23
242339926,242339915,3997706,0,1015.00995,38.23
242441388,242441372,3997706,0,1014.89996,38.23
242541928,242541917,3997706,0,1014.98,38.23
242642404,242642393,3997706,0,1014.92,38.239998
242742899,242742888,3997706,0,1014.97,38.239998
242844306,242844295,3997706,0,1014.93,38.23
242944803,242944792,3997706,0,1014.94995,38.239998
243045280,243045269,3997706,0,1014.89996,38.239998
243146703,243146692,3997706,0,1014.92,38.25
243247171,243247160,3997706,0,1014.94,38.25
243347702,243347691,3997706,0,1014.94995,38.25
243448164,243448150,3997706,0,1014.93,38.25
243529511,243529500,3997706,0,1014.92,38.25
243640061,243640050,3997706,0,1014.89996,38.25
243730518,243730507,3997706,0,1014.89996,38.25
243841931,243841920,3997706,0,1014.94,38.25
243932374,243932363,3997706,0,1014.94,38.26
244042954,244042943,3997706,0,1014.92,38.26
244133386,244133370,3997706,0,1014.95996,38.26
244244803,244244792,3997706,0,1014.94995,38.27
244335248,244335237,3997706,0,1014.95996,38.27
244445807,244445796,3997706,0,1014.89996,38.27
244536240,244536229,3997706,0,1014.89996,38.27
244647729,244647718,3997706,0,1014.94,38.27
244738171,244738160,3997706,0,1014.93,38.27
244848711,244848700,3997706,0,1014.92,38.28
244940038,244940026,3997706,0,1014.95996,38.28
245040535,245040524,3997706,0,1014.91,38.27
245141056,245141045,3997706,0,1014.97,38.28
245241599,245241588,3997706,0,1014.95996,38.28
245342985,245342974,3997706,0,1014.94,38.29
245443490,245443479,3997706,0,1014.93,38.29
245543960,245543949,3997706,0,1015.0,38.29
245645412,245645401,3997706,0,1014.97,38.29
245745898,245745883,3997706,0,1014.88,38.29
245846343,245846332,3997706,0,1014.93,38.29
245946907,245946896,3997706,0,1014.88995,38.29
246028190,246028179,3997706,0,1014.88,38.29
246148758,246148747,3997706,0,1014.94,38.3
246249263,246249252,3997706,0,1014.92,38.3
246339697,246339686,3997706,0,1014.92,38.3
246431033,246431022,3997706,0,1014.89996,38.309998
246541635,246541624,3997706,0,1014.89996,38.309998
246632051,246632040,3997706,0,1014.85,38.3
246743532,246743521,3997706,0,1014.88995,38.309998
246833974,246833963,3997706,0,1014.89996,38.309998
246944538,246944527,3997706,0,1014.91,38.309998
247034980,247034966,3997706,0,1014.92,38.32
247146466,247146455,3997706,0,1014.93,38.32
247236864,247236853,3997706,0,1014.82,38.32
247347456,247347445,3997706,0,1014.88,38.32
247438836,247438825,3997706,0,1014.88,38.32
247549344,247549333,3997706,0,1014.92,38.329998
247639783,247639769,3997706,0,1014.88,38.32
247740265,247740254,3997706,0,1014.83997,38.329998
247841662,247841651,3997706,0,1014.88,38.329998
247942119,247942108,3997706,0,1014.88995,38.329998
248042649,248042638,3997706,0,1014.87,38.34
248144093,248144082,3997706,0,1014.82,38.329998
248244625,248244614,3997706,0,1014.88995,38.34
248345106,248345095,3997706,0,1014.88995,38.34
248445629,248445618,3997706,0,1014.83997,38.34
248547072,248547061,3997706,0,1014.82,38.34
248647566,248647555,3997706,0,1014.87,38.34
248748090,248748079,3997706,0,1014.82996,38.34
248839463,248839452,3997706,0,1014.88,38.35
248929893,248929881,3997706,0,1014.87,38.35
249050563,249050548,3997706,0,1014.82996,38.35
249130923,249130912,3997706,0,1014.87,38.35
249242338,249242327,3997706,0,1014.87,38.35
249332783,249332768,3997706,0,1014.86,38.36
249443346,249443335,3997706,0,1014.85,38.35
249533807,249533796,3997706,0,1014.89996,38.36
249645311,249645300,3997706,0,1014.88,38.36
249735819,249735808,3997706,0,1014.8,38.37
249846405,249846391,3997706,0,1014.86,38.36
249937792,249937781,3997706,0,1014.82996,38.37
250038228,250038217,3997706,0,1014.87,38.37
250138761,250138750,3997706,0,1014.88,38.37
250240176,250240164,3997706,0,1014.85,38.37
250340683,250340672,3997706,0,1014.81,38.37
250451217,250451206,3997706,0,1014.86,38.37
250541665,250541654,3997706,0,1014.83997,38.379997
250643066,250643055,3997706,0,1014.87,38.379997
250743582,250743571,3997706,0,1014.87,38.379997
250844037,250844023,3997706,0,1014.87,38.379997
250944596,250944576,3997706,0,1014.82996,38.379997
251046036,251046022,3997706,0,1014.88995,38.379997
251146604,251146592,3997706,0,1014.82,38.39
251247068,251247057,3997706,0,1014.86,38.39
251348566,251348555,3997706,0,1014.92,38.39
251428922,251428911,3997706,0,1014.87,38.39
251539499,251539488,3997706,0,1014.83997,38.39
251629903,251629892,3997706,0,1014.82996,38.39
251741330,251741319,3997706,0,1014.85,38.399998
251831853,251831842,3997706,0,1014.85,38.39
251942351,251942340,3997706,0,1014.81,38.399998
252033728,252033717,3997706,0,1014.82,38.39
252144268,252144257,3997706,0,1014.86,38.399998
252234719,252234708,3997706,0,1014.87,38.399998
252345260,252345249,3997706,0,1014.91,38.399998
252436669,252436657,3997706,0,1014.86,38.399998
252547178,252547167,3997706,0,1014.83997,38.399998
252637675,252637664,3997706,0,1014.81,38.399998
252749122,252749111,3997706,0,1014.83997,38.41
252839547,252839533,3997706,0,1014.83997,38.41
252940028,252940017,3997706,0,1014.83997,38.41
253040496,253040485,3997706,0,1014.82996,38.41
253141904,253141893,3997706,0,1014.83997,38.41
253242380,253242369,3997706,0,1014.8,38.42
253342889,253342878,3997706,0,1014.82996,38.42
253444359,253444345,3997706,0,1014.82,38.42
253544892,253544881,3997706,0,1014.8,38.42
253645371,253645360,3997706,0,1014.85,38.42
253745898,253745887,3997706,0,1014.81,38.42
253847203,253847192,3997706,0,1014.86,38.43
253947706,253947691,3997706,0,1014.92,38.43
254048196,254048185,3997706,0,1014.85,38.43
254149717,254149703,3997706,0,1014.82996,38.43
254240198,254240187,3997706,0,1014.81,38.43
254330685,254330671,3997706,0,1014.77997,38.43
254441169,254441158,3997706,0,1014.8,38.43
254532552,254532541,3997706,0,1014.8,38.44
254643076,254643065,3997706,0,1014.86,38.44
254733590,254733579,3997706,0,1014.77997,38.44
254845054,254845043,3997706,0,1014.82996,38.44
254935499,254935488,3997706,0,1014.86,38.44
255046026,255046011,3997706,0,1014.86,38.44
255136491,255136480,3997706,0,1014.81,38.44
255247878,255247867,3997706,0,1014.83997,38.45
255338314,255338300,3997706,0,1014.85,38.45
255438843,255438832,3997706,0,1014.82996,38.45
255539331,255539320,3997706,0,1014.85,38.45
255640797,255640786,3997706,0,1014.85,38.45
255741274,255741260,3997706,0,1014.79,38.45
255841884,255841873,3997706,0,1014.79,38.45
255943314,255943303,3997706,0,1014.81,38.46
256043780,256043769,3997706,0,1014.88995,38.46
256144288,256144277,3997706,0,1014.82996,38.46
256245780,256245766,3997706,0,1014.8,38.46
256346289,256346278,3997706,0,1014.81,38.46
256446757,256446744,3997706,0,1014.88,38.469997
256547242,256547231,3997706,0,1014.81,38.46
256648676,256648665,3997706,0,1014.83997,38.469997
256749172,256749161,3997706,0,1014.76996,38.469997
256829552,256829541,3997706,0,1014.82,38.469997
256940094,256940083,3997706,0,1014.85,38.469997
257031470,257031459,3997706,0,1014.83997,38.469997
257141971,257141960,3997706,0,1014.82,38.469997
257232458,257232444,3997706,0,1014.83997,38.48
257343878,257343867,3997706,0,1014.82,38.48
257434302,257434287,3997706,0,1014.81,38.48
257544838,257544826,3997706,0,1014.77997,38.48
257635346,257635335,3997706,0,1014.79,38.48
257746877,257746866,3997706,0,1014.8,38.489998
257837321,257837306,3997706,0,1014.83997,38.489998
257937878,257937867,3997706,0,1014.79,38.489998
258039276,258039265,3997706,0,1014.74,38.489998
258149792,258149781,3997706,0,1014.8,38.5
258240246,258240235,3997706,0,1014.76996,38.489998
258340764,258340753,3997706,0,1014.8,38.5
258442174,258442163,3997706,0,1014.8,38.5
258542634,258542623,3997706,0,1014.82,38.5
258643124,258643113,3997706,0,1014.8,38.5
258744599,258744588,3997706,0,1014.82,38.51
258845045,258845034,3997706,0,1014.76996,38.51
258945553,258945542,3997706,0,1014.76996,38.5
259046048,259046037,3997706,0,1014.87,38.51
259147489,259147477,3997706,0,1014.77997,38.51
259247989,259247978,3997706,0,1014.79,38.51
259328345,259328334,3997706,0,1014.85,38.51
259438883,259438872,3997706,0,1014.77997,38.51
259550342,259550328,3997706,0,1014.75995,38.52
259640812,259640793,3997706,0,1014.75,38.52
259731281,259731270,3997706,0,1014.76996,38.52
259842799,259842788,3997706,0,1014.75995,38.52
259933222,259933211,3997706,0,1014.8,38.52
260043756,260043742,3997706,0,1014.79,38.52
260134168,260134157,3997706,0,1014.77997,38.52
260245622,260245611,3997706,0,1014.79,38.53
260336092,260336081,3997706,0,1014.82,38.53
260446582,260446571,3997706,0,1014.77997,38.53
260538009,260537998,3997706,0,1014.74,38.53
260648552,260648541,3997706,0,1014.77997,38.53
260738964,260738952,3997706,0,1014.8,38.53
260839491,260839480,3997706,0,1014.77997,38.54
260940996,260940981,3997706,0,1014.75995,38.55
261041557,261041546,3997706,0,1014.75,38.54
261142134,261142123,3997706,0,1014.81,38.54
261243563,261243552,3997706,0,1014.75995,38.55
261344049,261344038,3997706,0,1014.76996,38.55
261444536,261444524,3997706,0,1014.8,38.55
261546025,261546005,3997706,0,1014.82,38.55
261646497,261646486,3997706,0,1014.77997,38.55
261746978,261746967,3997706,0,1014.77997,38.55
261847514,261847500,3997706,0,1014.85,38.559998
261938938,261938924,3997706,0,1014.79,38.559998
262029451,262029440,3997706,0,1014.70996,38.559998
262140008,262139997,3997706,0,1014.82,38.559998
262231346,262231332,3997706,0,1014.69995,38.559998
262341880,262341869,3997706,0,1014.82996,38.559998
262432349,262432338,3997706,0,1014.79,38.57
262542886,262542875,3997706,0,1014.79,38.57
262634202,262634191,3997706,0,1014.69995,38.57
262744766,262744755,3997706,0,1014.85,38.57
262835193,262835182,3997706,0,1014.63,38.57
262946652,262946641,3997706,0,1014.75,38.57
263037066,263037055,3997706,0,1014.62,38.579998
263147634,263147623,3997706,0,1014.69995,38.579998
263238112,263238098,3997706,0,1014.68,38.579998
263339632,263339621,3997706,0,1014.81,38.579998
263440133,263440122,3997706,0,1014.64996,38.579998
263540657,263540646,3997706,0,1014.68,38.579998
263642061,263642047,3997706,0,1014.70996,38.59
263742584,263742573,3997706,0,1014.52997,38.59
263843107,263843096,3997706,0,1014.70996,38.59
263943605,263943594,3997706,0,1014.75995,38.6
264044970,264044959,3997706,0,1014.54,38.6
264145462,264145451,3997706,0,1014.99,38.6
264245934,264245923,3997706,0,1015.33997,38.6
264347369,264347358,3997706,0,1014.52997,38.61
264447952,264447941,3997706,0,1014.69995,38.6
264548452,264548440,3997706,0,1014.69,38.61
264649014,264649003,3997706,0,1014.73,38.61
264730296,264730282,3997706,0,1014.67,38.61
264840853,264840842,3997706,0,1014.45996,38.61
264931304,264931293,3997706,0,1014.48,38.61
265042720,265042709,3997706,0,1014.04,38.62
265153279,265153268,3997706,0,1014.54,38.62
265243793,265243782,3997706,0,1014.45996,38.62
265334198,265334187,3997706,0,1014.38995,38.62
265445702,265445691,3997706,0,1014.44995,38.629997
265536108,265536097,3997706,0,1014.33997,38.629997
265646719,265646708,3997706,0,1014.33997,38.629997
265738087,265738076,3997706,0,1014.05,38.629997
265848701,265848687,3997706,0,1013.93,38.629997
265939134,265939123,3997706,0,1013.83997,38.64
266049711,266049700,3997706,0,1013.74,38.64
266141083,266141068,3997706,0,1013.75995,38.64
266251656,266251642,3997706,0,1013.67,38.64
266342089,266342078,3997706,0,1013.66,38.64
266443451,266443440,3997706,0,1013.64996,38.64
266543938,266543924,3997706,0,1013.43,38.649998
266644497,266644486,3997706,0,1013.3,38.649998
266744957,266744945,3997706,0,1013.31,38.649998
266846351,266846340,3997706,0,1013.48,38.66
266946878,266946867,3997706,0,1013.44995,38.649998
267047328,267047316,3997706,0,1013.26996,38.66
267147860,267147849,3997706,0,1013.16,38.66
267249263,267249252,3997706,0,1013.19,38.66
267339725,267339707,3997706,0,1013.08997,38.66
267450245,267450234,3997706,0,1013.17,38.67
267541638,267541627,3997706,0,1012.98,38.67
267632094,267632083,3997706,0,1012.88995,38.67
267742675,267742661,3997706,0,1013.00995,38.67
267833074,267833063,3997706,0,1012.87,38.68
267944536,267944522,3997706,0,1012.82996,38.68
268034964,268034949,3997706,0,1012.8,38.68
268145553,268145542,3997706,0,1012.72,38.68
268236899,268236888,3997706,0,1012.79,38.68
268347405,268347394,3997706,0,1012.57996,38.69
268437846,268437835,3997706,0,1012.58997,38.69
268548378,268548363,3997706,0,1012.41,38.69
268639750,268639739,3997706,0,1012.55,38.69
268740255,268740244,3997706,0,1012.51996,38.7
268840728,268840717,3997706,0,1012.29,38.7
268941259,268941244,3997706,0,1012.38,38.7
269042692,269042681,3997706,0,1012.38995,38.7
269143132,269143121,3997706,0,1012.25995,38.7
269243684,269243673,3997706,0,1012.29,38.7
269345073,269345062,3997706,0,1012.41,38.71
269445599,269445587,3997706,0,1012.33997,38.71
269546079,269546068,3997706,0,1012.14996,38.71
269646582,269646571,3997706,0,1012.12,38.71
269747972,269747961,3997706,0,1012.13,38.71
269838451,269838440,3997706,0,1012.14996,38.71
269928916,269928905,3997706,0,1012.19,38.719997
270050455,270050444,3997706,0,1012.06,38.719997
270130898,270130887,3997706,0,1012.04,38.719997
270241469,270241454,3997706,0,1012.05,38.719997
270331938,270331927,3997706,0,1011.98,38.719997
270443368,270443357,3997706,0,1011.87,38.73
270533810,270533799,3997706,0,1011.77997,38.73
270644350,270644336,3997706,0,1012.04,38.73
270735759,270735747,3997706,0,1011.98,38.73
270846242,270846231,3997706,0,1011.91,38.73
270936740,270936729,3997706,0,1012.08997,38.739998
271047250,271047239,3997706,0,1011.94,38.739998
271138639,271138628,3997706,0,1012.05,38.739998
271239125,271239114,3997706,0,1012.02997,38.739998
271339638,271339627,3997706,0,1011.88,38.739998
271441024,271441013,3997706,0,1011.88,38.739998
271541645,271541631,3997706,0,1011.93,38.739998
271642098,271642087,3997706,0,1011.77997,38.75
271742647,271742636,3997706,0,1011.68,38.75
271844075,271844064,3997706,0,1011.54,38.75
271944544,271944533,3997706,0,1011.44,38.75
272045064,272045053,3997706,0,1011.43,38.76
272146468,272146457,3997706,0,1011.48,38.76
272246938,272246927,3997706,0,1011.26996,38.76
272347496,272347485,3997706,0,1011.31,38.76
272427903,272427892,3997706,0,1011.20996,38.76
272539451,272539440,3997706,0,1011.23,38.76
272629910,272629899,3997706,0,1011.18,38.77
272740454,272740443,3997706,0,1011.25,38.77
272831802,272831791,3997706,0,1011.20996,38.77
272942403,272942391,3997706,0,1011.31,38.78
273032819,273032808,3997706,0,1011.25,38.78
273143356,273143345,3997706,0,1011.26996,38.78
273234792,273234781,3997706,0,1011.19,38.77
273345296,273345285,3997706,0,1011.20996,38.78
273435738,273435727,3997706,0,1011.1,38.78
273547205,273547194,3997706,0,1011.05,38.78
273637675,273637664,3997706,0,1010.97,38.79
273748228,273748217,3997706,0,1011.07,38.78
273838741,273838730,3997706,0,1011.11,38.79
273940136,273940122,3997706,0,1011.12,38.79
274040667,274040656,3997706,0,1011.0,38.79
274141126,274141115,3997706,0,1011.0,38.8
274242669,274242655,3997706,0,1010.94995,38.79
274343176,274343165,3997706,0,1011.1,38.8
274443731,274443720,3997706,0,1010.93,38.8
274544187,274544176,3997706,0,1010.91,38.8
274645675,274645664,3997706,0,1010.88,38.8
274746162,274746151,3997706,0,1011.01996,38.809998
274846635,274846624,3997706,0,1010.89996,38.8
274948008,274947997,3997706,0,1010.88995,38.809998
275038464,275038441,3997706,0,1010.79,38.809998
275128911,275128900,3997706,0,1010.8,38.809998
275239470,275239459,3997706,0,1010.82996,38.82
275330832,275330821,3997706,0,1010.91,38.82
275441399,275441388,3997706,0,1010.74,38.82
275531860,275531849,3997706,0,1010.75,38.82
275643282,275643271,3997706,0,1010.81,38.82
275733735,275733724,3997706,0,1010.88,38.82
275844228,275844217,3997706,0,1010.74,38.82
275934711,275934700,3997706,0,1010.89996,38.829998
276046163,276046152,3997706,0,1011.0,38.829998
276136594,276136583,3997706,0,1010.88995,38.829998
276247148,276247137,3997706,0,1010.72,38.829998
276337607,276337596,3997706,0,1010.82,38.829998
276439031,276439020,3997706,0,1010.93,38.829998
276539618,276539604,3997706,0,1010.89996,38.84
276640140,276640129,3997706,0,1010.91,38.84
276741728,276741717,3997706,0,1010.86,38.84
276842182,276842171,3997706,0,1010.92,38.85
276942724,276942713,3997706,0,1010.77997,38.85
277044102,277044091,3997706,0,1010.83997,38.84
277144592,277144581,3997706,0,1010.70996,38.85
277245083,277245072,3997706,0,1010.8,38.85
277345608,277345597,3997706,0,1010.95996,38.85
277446990,277446979,3997706,0,1010.86,38.85
277537475,277537464,3997706,0,1010.81,38.85
277647978,277647967,3997706,0,1010.89996,38.85
277739452,277739441,3997706,0,1010.73,38.85
277829893,277829882,3997706,0,1010.75995,38.86
277940500,277940489,3997706,0,1010.88,38.86
278030977,278030966,3997706,0,1010.77997,38.86
278142475,278142464,3997706,0,1010.86,38.86
278232879,278232868,3997706,0,1010.75995,38.86
278343386,278343373,3997706,0,1010.83997,38.87
278434761,278434750,3997706,0,1010.8,38.87
278545288,278545270,3997706,0,1010.94,38.87
278635777,278635766,3997706,0,1010.79,38.87
278746311,278746300,3997706,0,1010.8,38.87
278837697,278837686,3997706,0,1010.88,38.87
278938169,278938158,3997706,0,1010.73,38.879997
279038642,279038631,3997706,0,1010.70996,38.879997
279140080,279140069,3997706,0,1010.67,38.879997
279240633,279240622,3997706,0,1010.86,38.879997
279341093,279341082,3997706,0,1010.94,38.879997
279441650,279441639,3997706,0,1010.62,38.879997
279543108,279543097,3997706,0,1010.82996,38.89
279643579,279643568,3997706,0,1010.83997,38.89
279744097,279744086,3997706,0,1010.75995,38.89
279845539,279845528,3997706,0,1010.67,38.89
279945979,279945968,3997706,0,1010.82,38.89
280046546,280046535,3997706,0,1010.75995,38.89
280147002,280146991,3997706,0,1010.70996,38.89
280248380,280248369,3997706,0,1010.73,38.899998
280348901,280348890,3997706,0,1010.89996,38.899998
280449396,280449385,3997706,0,1010.75,38.899998
280529802,280529791,3997706,0,1010.77997,38.899998
280641256,280641242,3997706,0,1010.86,38.899998
280731735,280731724,3997706,0,1010.69,38.91
280842278,280842267,3997706,0,1010.82,38.899998
280933710,280933699,3997706,0,1010.82,38.899998
281044277,281044266,3997706,0,1010.83997,38.91
281134770,281134758,3997706,0,1010.98,38.91
281246269,281246258,3997706,0,1010.98,38.91
281336686,281336675,3997706,0,1010.87,38.92
281447226,281447215,3997706,0,1010.81,38.92
281537685,281537674,3997706,0,1010.88,38.91
281649171,281649160,3997706,0,1010.91,38.92
281739619,281739608,3997706,0,1010.93,38.92
281840052,281840041,3997706,0,1011.00995,38.92
281941513,281941497,3997706,0,1010.83997,38.92
282042006,282041991,3997706,0,1010.83997,38.93
282142507,282142491,3997706,0,1010.87,38.93
282242995,282242984,3997706,0,1010.98,38.93
282344461,282344450,3997706,0,1010.92,38.93
282444902,282444891,3997706,0,1011.00995,38.93
282545400,282545389,3997706,0,1010.92,38.93
282645851,282645840,3997706,0,1010.99,38.93
282747271,282747260,3997706,0,1010.99,38.93
282847795,282847780,3997706,0,1011.07,38.94
282948252,282948241,3997706,0,1010.93,38.93
283049683,283049672,3997706,0,1010.95996,38.94
283140086,283140075,3997706,0,1010.95996,38.94
283230544,283230533,3997706,0,1011.0,38.94
283351165,283351151,3997706,0,1011.13,38.94
283432472,283432461,3997706,0,1011.18,38.94
283543017,283543006,3997706,0,1011.19,38.94
283633454,283633443,3997706,0,1011.13995,38.94
283743983,283743972,3997706,0,1011.22,38.94
283835353,283835342,3997706,0,1011.16,38.95
283945882,283945871,3997706,0,1011.05,38.96
284036323,284036309,3997706,0,1010.95996,38.95
284147780,284147769,3997706,0,1011.04,38.96
284238242,284238231,3997706,0,1010.98,38.96
284348795,284348784,3997706,0,1011.06,38.96
284439250,284439239,3997706,0,1010.93,38.96
284540675,284540664,3997706,0,1011.04,38.96
284641170,284641159,3997706,0,1010.94995,38.96
284751695,284751682,3997706,0,1010.94,38.96
284843067,284843053,3997706,0,1010.93,38.969997
284943594,284943583,3997706,0,1010.88995,38.969997
285044061,285044050,3997706,0,1010.88995,38.969997
285144599,285144581,3997706,0,1010.77997,38.969997
285246001,285245990,3997706,0,1010.94,38.969997
285346463,285346448,3997706,0,1010.93,38.969997
285446958,285446947,3997706,0,1010.98,38.969997
285547458,285547447,3997706,0,1011.00995,38.98
285648872,285648854,3997706,0,1010.82,38.969997
285729274,285729256,3997706,0,1010.83997,38.98
285849860,285849849,3997706,0,1010.97,38.98
285931202,285931184,3997706,0,1010.94,38.98
286041771,286041760,3997706,0,1010.87,38.98
286152257,286152243,3997706,0,1011.0,38.98
286242726,286242715,3997706,0,1011.05,38.98
286334106,286334092,3997706,0,1010.99,38.989998
286444658,286444644,3997706,0,1011.16,38.989998
286535113,286535102,3997706,0,1011.12,38.989998
286646596,286646585,3997706,0,1011.00995,38.989998
286737015,286737004,3997706,0,1011.08997,38.989998
286847540,286847529,3997706,0,1011.00995,38.989998
286937998,286937987,3997706,0,1011.11,38.989998
287049451,287049440,3997706,0,1010.97,38.989998
287139908,287139897,3997706,0,1010.97,39.0
287250403,287250392,3997706,0,1010.88995,39.0
287340860,287340849,3997706,0,1010.87,38.989998
287442253,287442242,3997706,0,1010.91,39.0
287542764,287542753,3997706,0,1010.86,39.0
287643212,287643198,3997706,0,1010.75,39.0
287744738,287744724,3997706,0,1010.74,39.0
287845235,287845224,3997706,0,1010.6,39.0
287945813,287945801,3997706,0,1010.61,39.0
288047200,288047185,3997706,0,1010.57996,39.0
288147687,288147676,3997706,0,1010.52997,39.01
288248190,288248179,3997706,0,1010.43,39.01
288338663,288338652,3997706,0,1010.37,39.01
288450086,288450072,3997706,0,1010.26996,39.01
288540582,288540571,3997706,0,1010.19995,39.01
288631007,288630996,3997706,0,1010.25,39.02
288741583,288741572,3997706,0,1010.17,39.02
288832946,288832935,3997706,0,1010.25,39.02
288943499,288943488,3997706,0,1010.22,39.02
289033947,289033936,3997706,0,1010.23,39.02
289145360,289145349,3997706,0,1010.01996,39.02
289235831,289235820,3997706,0,1009.99,39.02
289346334,289346323,3997706,0,1009.97,39.02
289436804,289436793,3997706,0,1010.01996,39.02
289548243,289548232,3997706,0,1010.02997,39.03
289638673,289638662,3997706,0,1010.08997,39.03
289739186,289739175,3997706,0,1010.01996,39.03
289839694,289839679,3997706,0,1009.99,39.03
289941070,289941059,3997706,0,1009.94995,39.03
290041647,290041636,3997706,0,1009.88995,39.04
290142096,290142082,3997706,0,1009.99,39.03
290243561,290243550,3997706,0,1010.05,39.04
290344024,290344013,3997706,0,1010.04,39.04
290444497,290444486,3997706,0,1010.00995,39.04
290544998,290544987,3997706,0,1010.00995,39.04
290646454,290646443,3997706,0,1009.94995,39.04
290746900,290746889,3997706,0,1009.93,39.04
290847405,290847394,3997706,0,1009.77997,39.04
290948809,290948798,3997706,0,1009.74,39.05
291049279,291049268,3997706,0,1009.73,39.04
291129718,291129707,3997706,0,1009.73,39.05
291240235,291240224,3997706,0,1009.64996,39.05
291331642,291331631,3997706,0,1009.63,39.05
291442171,291442160,3997706,0,1009.57996,39.05
291532620,291532609,3997706,0,1009.49,39.059998
291644071,291644056,3997706,0,1009.33997,39.05
291734529,291734518,3997706,0,1009.17,39.05
291845031,291845020,3997706,0,1009.31,39.059998
291935562,291935550,3997706,0,1009.22,39.059998
292047019,292047008,3997706,0,1009.25,39.059998
292137456,292137445,3997706,0,1009.20996,39.059998
292237945,292237931,3997706,0,1009.1,39.059998
292338452,292338441,3997706,0,1009.12,39.059998
292449882,292449871,3997706,0,1009.07,39.07
292540321,292540310,3997706,0,1009.05,39.07
292640850,292640839,3997706,0,1008.95996,39.07
292742252,292742240,3997706,0,1009.07,39.07
292842747,292842736,3997706,0,1009.00995,39.07
292943219,292943208,3997706,0,1008.99,39.07
293043766,293043755,3997706,0,1009.07,39.07
293145105,293145094,3997706,0,1008.93,39.07
293245636,293245625,3997706,0,1008.97,39.079998
293346117,293346106,3997706,0,1008.89996,39.079998
293446586,293446569,3997706,0,1009.02997,39.079998
293548012,293547998,3997706,0,1008.8,39.079998
293628457,293628440,3997706,0,1008.85,39.079998
293739010,293738995,3997706,0,1008.81,39.079998
293830337,293830326,3997706,0,1008.63,39.079998
293940865,293940854,3997706,0,1008.57996,39.09
294031290,294031279,3997706,0,1008.56,39.09
294141876,294141865,3997706,0,1008.49,39.09
294233201,294233190,3997706,0,1008.43,39.09
294343772,294343761,3997706,0,1008.45996,39.09
294434226,294434212,3997706,0,1008.39996,39.09
294545722,294545711,3997706,0,1008.32,39.09
294636143,294636132,3997706,0,1008.29,39.09
294746677,294746662,3997706,0,1008.25,39.1
294837168,294837157,3997706,0,1008.20996,39.09
294948738,294948727,3997706,0,1008.39996,39.1
295039160,295039145,3997706,0,1008.22,39.1
295139677,295139666,3997706,0,1008.29,39.1
295241081,295241070,3997706,0,1008.32,39.1
295341562,295341551,3997706,0,1008.20996,39.11
295442067,295442056,3997706,0,1008.3,39.1
295542587,295542576,3997706,0,1008.39996,39.11
295643972,295643961,3997706,0,1008.47,39.11
295744490,295744479,3997706,0,1008.57,39.11
295844959,295844948,3997706,0,1008.51996,39.11
295946413,295946396,3997706,0,1008.5,39.11
296046907,296046896,3997706,0,1008.66,39.11
296147403,296147392,3997706,0,1008.75995,39.12
296247879,296247868,3997706,0,1008.6,39.11
296329196,296329185,3997706,0,1008.70996,39.11
296439719,296439708,3997706,0,1008.77997,39.12
296530184,296530173,3997706,0,1008.8,39.12
296640716,296640705,3997706,0,1008.85,39.12
296732063,296732045,3997706,0,1008.81,39.12
296842636,296842625,3997706,0,1009.0,39.12
296933043,296933032,3997706,0,1009.04,39.129997
297044552,297044541,3997706,0,1009.02997,39.129997
297135001,297134986,3997706,0,1009.05,39.12
297245502,297245491,3997706,0,1009.1,39.129997
297335957,297335943,3997706,0,1009.13995,39.129997
297447454,297447443,3997706,0,1009.19,39.129997
297537848,297537837,3997706,0,1009.24,39.129997
297648401,297648390,3997706,0,1009.20996,39.129997
297738833,297738822,3997706,0,1009.31,39.129997
297840219,297840208,3997706,0,1009.33997,39.14
297940785,297940772,3997706,0,1009.41,39.14
298041252,298041238,3997706,0,1009.38995,39.129997
298142694,298142683,3997706,0,1009.33997,39.14
298243165,298243154,3997706,0,1009.38995,39.14
298343629,298343618,3997706,0,1009.35,39.14
298444164,298444153,3997706,0,1009.44,39.14
298545587,298545576,3997706,0,1009.52997,39.14
298646028,298646017,3997706,0,1009.56,39.14
298746590,298746579,3997706,0,1009.58997,39.149998
298847957,298847946,3997706,0,1009.75,39.149998
298948499,298948488,3997706,0,1009.69,39.149998
299048977,299048966,3997706,0,1009.74,39.149998
299139399,299139387,3997706,0,1009.68,39.149998
299230760,299230749,3997706,0,1009.73,39.149998
299341279,299341268,3997706,0,1009.75,39.149998
299431783,299431772,3997706,0,1009.76996,39.149998
299543224,299543213,3997706,0,1009.83997,39.149998
299633688,299633677,3997706,0,1009.8,39.16
299744228,299744217,3997706,0,1009.88,39.149998
299834733,299834722,3997706,0,1009.94995,39.16
299946156,299946145,3997706,0,1010.06,39.16
300036652,300036641,3997706,0,1010.13,39.16
300147263,300147252,3997706,0,1010.27997,39.16
300238670,300238651,3997706,0,1010.31,39.16
300349159,300349148,3997706,0,1010.25995,39.16
300439622,300439611,3997706,0,1010.35,39.16
300540088,300540077,3997706,0,1010.33997,39.17
300641559,300641548,3997706,0,1010.62,39.17
300742067,300742056,3997706,0,1010.48,39.17
300842548,300842537,3997706,0,1010.61,39.17
300943968,300943957,3997706,0,1010.66,39.17
301044457,301044444,3997706,0,1010.67,39.17
301144956,301144941,3997706,0,1010.63995,39.18
301245487,301245476,3997706,0,1010.83997,39.17
301346874,301346860,3997706,0,1010.94995,39.18
301447371,301447360,3997706,0,1010.95996,39.17
301547954,301547943,3997706,0,1011.16,39.18
301649341,301649330,3997706,0,1011.13995,39.18
301729769,301729758,3997706,0,1011.13995,39.18
301850377,301850366,3997706,0,1011.38995,39.18
301950873,301950862,3997706,0,1011.38995,39.18
302042194,302042183,3997706,0,1011.63,39.18
302132641,302132626,3997706,0,1011.63,39.18
302243193,302243182,3997706,0,1011.6,39.19
302333709,302333698,3997706,0,1011.73,39.18
302445103,302445092,3997706,0,1011.74,39.19
302535579,302535568,3997706,0,1011.93,39.19
302646120,302646105,3997706,0,1011.88995,39.18
302737525,302737513,3997706,0,1012.02997,39.19
302848050,302848039,3997706,0,1012.05,39.19
302938517,302938506,3997706,0,1012.02997,39.19
303038965,303038954,3997706,0,1011.91,39.19
303140385,303140371,3997706,0,1012.22,39.19
303250908,303250897,3997706,0,1012.18,39.2
303341369,303341358,3997706,0,1012.1,39.2
303442798,303442787,3997706,0,1012.23,39.2
303543287,303543276,3997706,0,1012.19995,39.2
303643813,303643802,3997706,0,1012.18,39.2
303744270,303744259,3997706,0,1012.13,39.2
303845683,303845672,3997706,0,1012.08997,39.2
303946167,303946156,3997706,0,1012.18,39.2
304046640,304046629,3997706,0,1012.47,39.2
304147175,304147164,3997706,0,1012.29,39.2
304248580,304248569,3997706,0,1012.42,39.21
304349038,304349015,3997706,0,1012.32996,39.21
304449546,304449535,3997706,0,1012.27997,39.21
304540935,304540918,3997706,0,1012.39996,39.21
304631342,304631331,3997706,0,1012.54,39.21
304751986,304751975,3997706,0,1012.38,39.21
304832351,304832340,3997706,0,1012.44995,39.21
304943843,304943832,3997706,0,1012.32996,39.21
305034289,305034278,3997706,0,1012.32,39.21
305144839,305144827,3997706,0,1012.63995,39.21
305235280,305235265,3997706,0,1012.73,39.21
305346742,305346731,3997706,0,1012.83997,39.219997
305437151,305437137,3997706,0,1012.69,39.219997
305537688,305537677,3997706,0,1013.00995,39.219997
305639072,305639061,3997706,0,1012.94995,39.219997
305749595,305749584,3997706,0,1012.95996,39.219997
305840057,305840046,3997706,0,1013.04,39.219997
305940540,305940526,3997706,0,1013.06,39.219997
306041947,306041936,3997706,0,1012.79,39.219997
306152532,306152518,3997706,0,1012.87,39.219997
306242936,306242925,3997706,0,1013.24,39.219997
306344406,306344378,3997706,0,1013.20996,39.219997
306444907,306444896,3997706,0,1012.98,39.23
306545391,306545372,3997706,0,1013.06,39.23
306645907,306645896,3997706,0,1012.92,39.219997
306747256,306747245,3997706,0,1013.05,39.23
306847803,306847792,3997706,0,1013.0,39.23
306928158,306928147,3997706,0,1013.05,39.23
307048773,307048759,3997706,0,1013.20996,39.23
307150183,307150169,3997706,0,1012.91,39.23
307240632,307240621,3997706,0,1013.14996,39.23
307331099,307331088,3997706,0,1013.25995,39.23
307442582,307442571,3997706,0,1013.29,39.239998
307533002,307532991,3997706,0,1013.37,39.239998
307643533,307643522,3997706,0,1013.5,39.239998
307733933,307733922,3997706,0,1013.57,39.239998
307855507,307855496,3997706,0,1013.57996,39.239998
307935913,307935902,3997706,0,1013.32,39.239998
308046406,308046392,3997706,0,1013.42,39.239998
308137771,308137760,3997706,0,1013.49,39.239998
308248314,308248303,3997706,0,1013.6,39.239998
308338810,308338796,3997706,0,1013.57,39.239998
308439288,308439277,3997706,0,1013.50995,39.239998
308540752,308540741,3997706,0,1013.66,39.239998
308641250,308641239,3997706,0,1013.54,39.25
308741773,308741759,3997706,0,1013.36,39.25
308843207,308843193,3997706,0,1013.38,39.239998
308943692,308943681,3997706,0,1013.57,39.25
309044186,309044172,3997706,0,1013.47,39.25
309144757,309144746,3997706,0,1013.47,39.239998
309246103,309246092,3997706,0,1013.68,39.25
309346606,309346595,3997706,0,1013.56,39.25
309447099,309447087,3997706,0,1013.51996,39.25
309538518,309538507,3997706,0,1013.54,39.25
309649121,309649106,3997706,0,1013.63995,39.25
309739628,309739617,3997706,0,1013.72,39.25
309830044,309830033,3997706,0,1013.63995,39.25
309941514,309941499,3997706,0,1013.81,39.25
310031950,310031939,3997706,0,1013.79,39.26
310142500,310142489,3997706,0,1013.8,39.26
310232960,310232949,3997706,0,1013.72,39.26
310344454,310344443,3997706,0,1013.70996,39.26
310434899,310434888,3997706,0,1013.66,39.26
310545437,310545426,3997706,0,1013.63995,39.26
310636762,310636751,3997706,0,1013.32996,39.26
310747328,310747317,3997706,0,1013.27997,39.26
310837837,310837826,3997706,0,1013.19995,39.27
310938276,310938265,3997706,0,1013.22,39.26
311039685,311039674,3997706,0,1013.20996,39.27
311140177,311140166,3997706,0,1013.19995,39.27
311240681,311240666,3997706,0,1013.13995,39.27
311342063,311342052,3997706,0,1013.07996,39.27
311442548,311442533,3997706,0,1013.1,39.27
311543031,311543020,3997706,0,1013.25995,39.27
311643545,311643534,3997706,0,1012.93,39.27
311744924,311744913,3997706,0,1013.0,39.27
311845451,311845440,3997706,0,1012.89996,39.27
311945941,311945930,3997706,0,1012.68,39.27
312047327,312047316,3997706,0,1013.00995,39.28
312147861,312147850,3997706,0,1012.88,39.27
312248354,312248343,3997706,0,1013.1,39.27
312328817,312328806,3997706,0,1013.0,39.27
312440249,312440238,3997706,0,1013.13995,39.28
312530684,312530669,3997706,0,1013.07,39.28
312641265,312641254,3997706,0,1012.86,39.27
312731700,312731689,3997706,0,1012.93,39.28
312843204,312843193,3997706,0,1012.72,39.28
312933726,312933714,3997706,0,1012.69,39.28
313044226,313044215,3997706,0,1012.5,39.28
313135628,313135617,3997706,0,1012.45996,39.28
313246167,313246156,3997706,0,1012.49,39.29
313336586,313336572,3997706,0,1012.26996,39.29
313447151,313447140,3997706,0,1012.32,39.28
313538528,313538517,3997706,0,1012.48,39.29
313649065,313649046,3997706,0,1012.27997,39.29
313739568,313739557,3997706,0,1012.23,39.29
313840951,313840940,3997706,0,1012.38,39.29
313941458,313941447,3997706,0,1012.32996,39.29
314041946,314041935,3997706,0,1012.41,39.29
314142398,314142387,3997706,0,1012.37,39.29
314243792,314243781,3997706,0,1012.23,39.29
314344303,314344292,3997706,0,1011.95996,39.3
314444783,314444765,3997706,0,1011.89996,39.3
314546240,314546229,3997706,0,1012.02997,39.29
314646741,314646730,3997706,0,1011.86,39.29
314747193,314747182,3997706,0,1011.81,39.3
314847686,314847675,3997706,0,1011.76996,39.3
314939053,314939037,3997706,0,1011.75995,39.3
315029498,315029487,3997706,0,1011.69995,39.3
315140065,315140054,3997706,0,1011.49,39.3
315230518,315230500,3997706,0,1011.49,39.3
315341937,315341926,3997706,0,1011.5,39.3
315432374,315432363,3997706,0,1011.36,39.3
315542952,315542941,3997706,0,1011.42,39.3
315634342,315634330,3997706,0,1011.32,39.3
315744859,315744845,3997706,0,1011.24,39.3
315835345,315835334,3997706,0,1011.07996,39.309998
315945895,315945884,3997706,0,1011.14996,39.309998
316037216,316037205,3997706,0,1011.02997,39.32
316147758,316147747,3997706,0,1011.00995,39.3
316238177,316238166,3997706,0,1011.07,39.309998
316338670,316338653,3997706,0,1010.91,39.309998
316440108,316440097,3997706,0,1010.85,39.309998
316540585,316540574,3997706,0,1010.79,39.309998
316641115,316641100,3997706,0,1010.79,39.309998
316742551,316742537,3997706,0,1010.82996,39.309998
316843008,316842997,3997706,0,1010.69995,39.309998
316943544,316943533,3997706,0,1010.69995,39.309998
317043991,317043980,3997706,0,1010.61,39.309998
317145410,317145399,3997706,0,1010.69995,39.32
317245900,317245886,3997706,0,1010.68,39.32
