timestamp,timestamp_sample,vibe[0],vibe[1],vibe[2],output_tracking_error[0],output_tracking_error[1],output_tracking_error[2],control_mode_flags,filter_fault_flags,pos_horiz_accuracy,pos_vert_accuracy,mag_test_ratio,vel_test_ratio,pos_test_ratio,hgt_test_ratio,tas_test_ratio,hagl_test_ratio,beta_test_ratio,time_slip,accel_device_id,gyro_device_id,baro_device_id,mag_device_id,gps_check_fail_flags,innovation_check_flags,solution_status_flags,reset_count_vel_ne,reset_count_vel_d,reset_count_pos_ne,reset_count_pod_d,reset_count_quat,pre_flt_fail_innov_heading,pre_flt_fail_innov_vel_horiz,pre_flt_fail_innov_vel_vert,pre_flt_fail_innov_height,pre_flt_fail_mag_field_disturbed,health_flags,timeout_flags
186840043,186838176,2.03547e-08,6.1819635e-05,0.00085337897,1.2221299e-05,0.00092712906,0.003457802,1180179,0,0.2928814,0.53676337,0.0020275107,nan,nan,1.1754944e-38,0.0,0.0,0.0,0.0,2162698,2162698,3997706,1114122,32,0,229,1,0,1,0,2,0,0,0,0,0,0,0
186850580,186848181,1.9982906e-08,6.112222e-05,0.0008406223,1.0343628e-05,0.0009271077,0.0035136165,1180179,0,0.2942525,0.53168553,0.0047021112,nan,nan,1.1754944e-38,0.0,0.0,0.0,0.0,2162698,2162698,3997706,1114122,32,0,229,1,0,1,0,2,0,0,0,0,0,0,0
187040411,187038267,1.3826736e-08,4.6335073e-05,0.0006499888,1.3220202e-05,0.0014614555,0.0063894307,1180179,0,0.29319668,0.53501487,0.00091352046,nan,nan,1.1754944e-38,0.0,0.0,0.0,0.0,2162698,2162698,3997706,1114122,32,0,229,1,0,1,0,2,0,0,0,0,0,0,0
187240269,187238362,1.0877944e-08,6.0345752e-05,0.0007222815,1.4780741e-05,0.001374961,0.005942075,1180179,0,0.2934835,0.5332981,0.0015288175,nan,nan,1.1754944e-38,0.0,0.0,0.0,0.0,2162698,2162698,3997706,1114122,0,0,229,1,0,1,0,2,0,0,0,0,0,0,0
187450221,187448465,8.759191e-09,5.4098662e-05,0.00071393064,2.6341673e-05,0.0022969625,0.010613372,1180179,0,0.29511976,0.53273875,0.006349699,nan,nan,0.014727023,0.0,0.0,0.0,0.0,2162698,2162698,3997706,1114122,0,0,229,1,0,1,0,2,0,0,0,0,0,0,0
187650571,187648556,6.7425434e-09,4.3766053e-05,0.0005857491,1.5864061e-05,0.0024015715,0.011132519,1180179,0,0.29534927,0.53102607,0.002035298,nan,nan,0.0013485589,0.0,0.0,0.0,0.0,2162698,2162698,3997706,1114122,32,0,229,1,0,1,0,2,0,0,0,0,0,0,0
187840341,187838647,4.950432e-09,3.6629357e-05,0.00051752187,1.3127723e-05,0.0015566929,0.0068058386,1180179,0,0.29416725,0.53434473,0.0038957621,nan,nan,1.1754944e-38,0.0,0.0,0.0,0.0,2162698,2162698,3997706,1114122,32,0,229,1,0,1,0,2,0,0,0,0,0,0,0
188040708,188038772,4.119425e-09,3.456864e-05,0.00053736614,1.741845e-05,0.0019974867,0.00891076,1180179,0,0.29433745,0.53261286,0.0071307016,nan,nan,0.006113806,0.0,0.0,0.0,0.0,2162698,2162698,3997706,1114122,0,0,229,1,0,1,0,2,0,0,0,0,0,0,0
188240829,188238862,3.4968255e-09,3.3208347e-05,0.0005339255,8.693552e-06,0.0012701605,0.005079261,1180179,0,0.29448077,0.53088605,0.0011825479,nan,nan,1.1754944e-38,0.0,0.0,0.0,0.0,2162698,2162698,3997706,1114122,32,0,229,1,0,1,0,2,0,0,0,0,0,0,0
188440650,188438932,2.982959e-09,3.16093e-05,0.0005044141,2.5080237e-05,0.0012895061,0.0050745467,1180179,0,0.29460025,0.53537285,0.0028385827,nan,nan,1.1754944e-38,0.0,0.0,0.0,0.0,2162698,2162698,3997706,1114122,32,0,229,1,0,1,0,2,0,0,0,0,0,0,0
188641244,188639028,2.414856e-09,3.0406984e-05,0.0005030726,3.073106e-05,0.001250759,0.004910486,1180179,0,0.2946979,0.5336495,0.004611645,nan,nan,1.1754944e-38,0.0,0.0,0.0,0.0,2162698,2162698,3997706,1114122,32,0,229,1,0,1,0,2,0,0,0,0,0,0,0
188851064,188849128,4.078084e-09,3.877919e-05,0.0006607476,3.724391e-05,0.00091953017,0.0026490784,1180179,0,0.29616085,0.5330853,0.0044983346,nan,nan,1.1754944e-38,0.0,0.0,0.0,0.0,2162698,2162698,3997706,1114122,32,0,229,1,0,1,0,2,0,0,0,0,0,0,0
189041273,189039223,4.1231254e-09,4.1054824e-05,0.0007323891,4.3875723e-05,0.0007886181,0.0019059763,1180179,0,0.2948377,0.5364344,0.0062556425,nan,nan,1.1754944e-38,0.0,0.0,0.0,0.0,2162698,2162698,3997706,1114122,32,0,229,1,0,1,0,2,0,0,0,0,0,0,0
189241045,189239314,4.0422883e-09,4.6954297e-05,0.0008776947,1.7427226e-05,0.0006922632,0.0015236043,1180179,0,0.2948831,0.5346913,0.0015588246,nan,nan,1.1754944e-38,0.0,0.0,0.0,0.0,2162698,2162698,3997706,1114122,32,0,229,1,0,1,0,2,0,0,0,0,0,0,0
189441156,189439453,5.1284452e-09,5.644124e-05,0.0011340682,5.4873512e-06,0.0005787335,0.0013047763,1180179,0,0.29491672,0.53295344,0.0033567261,nan,nan,1.1754944e-38,0.0,0.0,0.0,0.0,2162698,2162698,3997706,1114122,32,0,229,1,0,1,0,2,0,0,0,0,0,0,0
189641883,189639504,9.114336e-09,7.119929e-05,0.0012632546,3.6226225e-05,0.00047046953,0.001098457,1180179,0,0.29494023,0.53122187,0.005087312,nan,nan,1.1754944e-38,0.0,0.0,0.0,0.0,2162698,2162698,3997706,1114122,32,0,229,1,0,1,0,2,0,0,0,0,0,0,0
189841293,189839599,8.304342e-09,6.547188e-05,0.0010590001,4.8384234e-05,0.0005327674,0.0012767431,1180179,0,0.29495642,0.5357155,0.00066662655,nan,nan,0.002647555,0.0,0.0,0.0,0.0,2162698,2162698,3997706,1114122,32,0,229,1,0,1,0,2,0,0,0,0,0,0,0
190041965,190039694,7.99143e-09,6.628553e-05,0.0010656517,5.660709e-05,0.00055536104,0.0011682014,1180179,0,0.29496738,0.53401375,0.005715809,nan,nan,1.1754944e-38,0.0,0.0,0.0,0.0,2162698,2162698,3997706,1114122,32,0,229,1,0,1,0,2,0,0,0,0,0,0,0
190241490,190239792,8.771072e-09,6.926215e-05,0.0011808525,5.6216068e-05,0.00043691555,0.0010802853,1180179,0,0.2949732,0.53228873,0.004899021,nan,nan,1.1754944e-38,0.0,0.0,0.0,0.0,2162698,2162698,3997706,1114122,32,0,229,1,0,1,0,2,0,0,0,0,0,0,0
190442036,190439885,2.7603082e-08,0.00011157328,0.0014294896,1.4658017e-05,5.8963997e-05,0.00041729724,1180179,0,0.29497424,0.53679883,0.0029039797,nan,nan,1.1754944e-38,0.0,0.0,0.0,0.0,2162698,2162698,3997706,1114122,32,0,229,1,0,1,0,2,0,0,0,0,0,0,0
190641762,190639980,2.1942869e-08,9.587207e-05,0.0013190428,8.208057e-06,0.00031958535,0.0009776864,1180179,0,0.29497617,0.5350498,0.0015175074,nan,nan,1.1754944e-38,0.0,0.0,0.0,0.0,2162698,2162698,3997706,1114122,32,0,229,1,0,1,0,2,0,0,0,0,0,0,0
190842161,190840115,1.803384e-08,8.416017e-05,0.0012291694,1.2301094e-05,0.0009893061,0.004631238,1180179,0,0.29497683,0.5333325,0.0043087304,nan,nan,1.1754944e-38,0.0,0.0,0.0,0.0,2162698,2162698,3997706,1114122,32,0,229,1,0,1,0,2,0,0,0,0,0,0,0
191042123,191040171,1.3632597e-08,7.414851e-05,0.0010733418,1.1457785e-05,0.00061677385,0.0029693502,1180179,0,0.29497725,0.53159356,0.00084758794,nan,nan,0.0010311616,0.0,0.0,0.0,0.0,2162698,2162698,3997706,1114122,32,0,229,1,0,1,0,2,0,0,0,0,0,0,0
191242350,191240266,9.809481e-09,6.190594e-05,0.0009206992,1.0289467e-05,0.00024986823,0.00090705947,1180179,0,0.2949779,0.53609264,0.005552928,nan,nan,1.1754944e-38,0.0,0.0,0.0,0.0,2162698,2162698,3997706,1114122,32,0,229,1,0,1,0,2,0,0,0,0,0,0,0
191442277,191440361,7.272993e-09,4.8293034e-05,0.0007476421,1.3272805e-05,0.0003769665,0.0010468486,1180179,0,0.29497975,0.5343829,0.00080112496,nan,nan,1.1754944e-38,0.0,0.0,0.0,0.0,2162698,2162698,3997706,1114122,32,0,229,1,0,1,0,2,0,0,0,0,0,0,0
191642590,191640457,5.223235e-09,3.9497394e-05,0.00062015187,1.8902685e-05,0.00066323613,0.0016962974,1180179,0,0.29498222,0.532676,0.00033605695,nan,nan,0.004637064,0.0,0.0,0.0,0.0,2162698,2162698,3997706,1114122,32,0,229,1,0,1,0,2,0,0,0,0,0,0,0
191842582,191840552,4.036012e-09,3.463221e-05,0.000583006,2.0069461e-05,0.0007666912,0.0017561034,1180179,0,0.2949857,0.5309728,0.0009278838,nan,nan,1.1754944e-38,0.0,0.0,0.0,0.0,2162698,2162698,3997706,1114122,32,0,229,1,0,1,0,2,0,0,0,0,0,0,0
192042543,192040647,4.4338435e-09,4.11965e-05,0.0007220306,2.247905e-05,0.00083410396,0.0020848946,1180179,0,0.29499057,0.53545856,0.0009104654,nan,nan,1.1754944e-38,0.0,0.0,0.0,0.0,2162698,2162698,3997706,1114122,32,0,229,1,0,1,0,2,0,0,0,0,0,0,0
192242595,192240750,4.782614e-09,4.1574298e-05,0.0007741744,3.087394e-05,0.00082770124,0.002238572,1180179,0,0.29499733,0.53373116,0.009389848,nan,nan,1.1754944e-38,0.0,0.0,0.0,0.0,2162698,2162698,3997706,1114122,32,0,229,1,0,1,0,2,0,0,0,0,0,0,0
192442766,192440836,4.9649564e-09,4.2083295e-05,0.0007589913,3.3209435e-05,0.00074627803,0.0019321074,1180179,0,0.2950065,0.5320084,0.0029927879,nan,nan,0.0009055817,0.0,0.0,0.0,0.0,2162698,2162698,3997706,1114122,32,0,229,1,0,1,0,2,0,0,0,0,0,0,0
192643023,192640933,4.792744e-09,5.227956e-05,0.001087336,4.003846e-05,0.00084099604,0.0020554743,1180179,0,0.29501644,0.53651124,0.0038717259,nan,nan,1.1754944e-38,0.0,0.0,0.0,0.0,2162698,2162698,3997706,1114122,32,0,229,1,0,1,0,2,0,0,0,0,0,0,0
192842668,192841028,5.7043422e-08,0.00011075619,0.0021486236,3.6800127e-05,0.0010548686,0.0020302895,1180179,0,0.29502514,0.5347911,0.0012803661,nan,nan,0.00077402685,0.0,0.0,0.0,0.0,2162698,2162698,3997706,1114122,32,0,229,1,0,1,0,2,0,0,0,0,0,0,0
193043169,193041124,4.1855916e-08,8.99107e-05,0.0016960135,2.0381425e-05,0.0005410984,0.0015234008,1180179,0,0.29503664,0.53310025,0.0021226655,nan,nan,1.1754944e-38,0.0,0.0,0.0,0.0,2162698,2162698,3997706,1114122,32,0,229,1,0,1,0,2,0,0,0,0,0,0,0
193243070,193241219,3.0863976e-08,6.97959e-05,0.0012942017,2.4502924e-05,0.0011718798,0.0042283805,1180179,0,0.29504848,0.5313862,0.0016086348,nan,nan,1.1754944e-38,0.0,0.0,0.0,0.0,2162698,2162698,3997706,1114122,32,0,229,1,0,1,0,2,0,0,0,0,0,0,0
193443244,193441315,2.3673651e-08,5.967664e-05,0.0010562564,3.5058107e-05,0.0010503377,0.0021251622,1180179,0,0.2950594,0.53587496,0.0028336153,nan,nan,1.1754944e-38,0.0,0.0,0.0,0.0,2162698,2162698,3997706,1114122,32,0,229,1,0,1,0,2,0,0,0,0,0,0,0
193643192,193641410,2.0993944e-08,7.196868e-05,0.0011000274,4.2168645e-05,0.0009609098,0.0019815613,1180179,0,0.2950718,0.5341627,0.001389802,nan,nan,1.1754944e-38,0.0,0.0,0.0,0.0,2162698,2162698,3997706,1114122,32,0,229,1,0,1,0,2,0,0,0,0,0,0,0
193843435,193841505,3.1071853e-08,0.00010895222,0.0015460658,5.5968074e-05,0.0009036908,0.002057888,1180179,0,0.29508394,0.53242725,0.0017071615,nan,nan,1.1754944e-38,0.0,0.0,0.0,0.0,2162698,2162698,3997706,1114122,32,0,229,1,0,1,0,2,0,0,0,0,0,0,0
194043558,194041601,3.681195e-08,0.00011323236,0.0016485094,4.4210257e-05,0.0007319882,0.001915023,1180179,0,0.2950946,0.53072304,0.0017642177,nan,nan,1.1754944e-38,0.0,0.0,0.0,0.0,2162698,2162698,3997706,1114122,32,0,229,1,0,1,0,2,0,0,0,0,0,0,0
194243700,194241696,2.8210177e-08,9.177941e-05,0.001412848,2.90983e-05,0.00072811794,0.0017230351,1180179,0,0.29510635,0.5352253,0.0025598167,nan,nan,1.1754944e-38,0.0,0.0,0.0,0.0,2162698,2162698,3997706,1114122,32,0,229,1,0,1,0,2,0,0,0,0,0,0,0
194443512,194441791,2.2499215e-08,0.000104288774,0.0015286214,3.977e-05,0.0006035025,0.0015354865,1180179,0,0.29511744,0.53349483,0.00080390245,nan,nan,1.1754944e-38,0.0,0.0,0.0,0.0,2162698,2162698,3997706,1114122,32,0,229,1,0,1,0,2,0,0,0,0,0,0,0
194643555,194641886,1.6655969e-08,9.2241346e-05,0.0013771325,5.3902866e-05,0.0005398547,0.0015108231,1180179,0,0.29512757,0.531795,0.007319147,nan,nan,1.1754944e-38,0.0,0.0,0.0,0.0,2162698,2162698,3997706,1114122,32,0,229,1,0,1,0,2,0,0,0,0,0,0,0
194843893,194841982,1.6361003e-08,0.00010774471,0.0015061104,3.9147046e-05,0.0004966494,0.0013288409,1180179,0,0.29513758,0.5362851,4.9325234e-05,nan,nan,0.00063354004,0.0,0.0,0.0,0.0,2162698,2162698,3997706,1114122,32,0,229,1,0,1,0,2,0,0,0,0,0,0,0
195043876,195042077,1.43602525e-08,0.00011023614,0.0015975569,2.6377696e-05,0.0004289108,0.0013276755,1180179,0,0.29514596,0.53455997,0.0004382196,nan,nan,1.1754944e-38,0.0,0.0,0.0,0.0,2162698,2162698,3997706,1114122,32,0,229,1,0,1,0,2,0,0,0,0,0,0,0
195244072,195242173,1.7499408e-08,0.000121303696,0.001786203,2.8275366e-05,0.0005794809,0.0024856017,1180179,0,0.29515377,0.53283817,0.0011234282,nan,nan,1.1754944e-38,0.0,0.0,0.0,0.0,2162698,2162698,3997706,1114122,32,0,229,1,0,1,0,2,0,0,0,0,0,0,0
195444278,195442275,1.3693182e-08,0.000102677055,0.0014533382,3.797299e-05,0.00026076203,0.0006996753,1180179,0,0.29516238,0.531121,0.0028059937,nan,nan,1.1754944e-38,0.0,0.0,0.0,0.0,2162698,2162698,3997706,1114122,32,0,229,1,0,1,0,2,0,0,0,0,0,0,0
195644474,195642364,1.0561577e-08,8.989808e-05,0.0013062465,3.9690774e-05,0.00025434882,0.0006694942,1180179,0,0.29516968,0.5356243,0.006441574,nan,nan,1.1754944e-38,0.0,0.0,0.0,0.0,2162698,2162698,3997706,1114122,32,0,229,1,0,1,0,2,0,0,0,0,0,0,0
195844178,195842459,9.129842e-09,8.625159e-05,0.0014172116,5.712273e-05,0.00025177668,0.0006466608,1180179,0,0.29517606,0.5339074,0.0005329761,nan,nan,1.1754944e-38,0.0,0.0,0.0,0.0,2162698,2162698,3997706,1114122,32,0,229,1,0,1,0,2,0,0,0,0,0,0,0
196044508,196042555,7.096382e-09,7.319887e-05,0.0012433041,4.6366666e-05,0.00027959706,0.00068779936,1180179,0,0.29518145,0.53219444,0.0056975535,nan,nan,1.1754944e-38,0.0,0.0,0.0,0.0,2162698,2162698,3997706,1114122,32,0,229,1,0,1,0,2,0,0,0,0,0,0,0
196244332,196242650,6.447195e-09,7.385528e-05,0.0012758977,3.9338454e-05,0.00044429375,0.0012294304,1180179,0,0.29518807,0.5367123,0.0035821416,nan,nan,0.0003329398,0.0,0.0,0.0,0.0,2162698,2162698,3997706,1114122,32,0,229,1,0,1,0,2,0,0,0,0,0,0,0
196444847,196442746,6.538057e-09,7.720431e-05,0.0012925756,3.9684222e-05,0.00040151752,0.00082896824,1180179,0,0.2951924,0.53497326,0.00094958756,nan,nan,1.1754944e-38,0.0,0.0,0.0,0.0,2162698,2162698,3997706,1114122,32,0,229,1,0,1,0,2,0,0,0,0,0,0,0
196644607,196642841,8.058928e-09,0.00010091516,0.0015730084,3.518843e-05,0.0009271905,0.003967718,1180179,0,0.2951961,0.5332391,0.00014004442,nan,nan,0.010287788,0.0,0.0,0.0,0.0,2162698,2162698,3997706,1114122,32,0,229,1,0,1,0,2,0,0,0,0,0,0,0
196845253,196842961,8.414302e-09,0.00011046621,0.0018625702,3.7761685e-05,0.0007595837,0.0031888399,1180179,0,0.2951987,0.5315098,7.671759e-05,nan,nan,0.0041244463,0.0,0.0,0.0,0.0,2162698,2162698,3997706,1114122,32,0,229,1,0,1,0,2,0,0,0,0,0,0,0
197044731,197043032,7.733978e-09,0.00010712822,0.0019358036,4.5425837e-05,0.0009935438,0.004464343,1180179,0,0.29520142,0.5360148,0.007299605,nan,nan,1.1754944e-38,0.0,0.0,0.0,0.0,2162698,2162698,3997706,1114122,32,0,229,1,0,1,0,2,0,0,0,0,0,0,0
197244740,197243128,1.42878696e-08,0.00013212961,0.0024090027,5.2384377e-05,0.0014690935,0.006846256,1180179,0,0.2952035,0.5343129,0.002757664,nan,nan,1.1754944e-38,0.0,0.0,0.0,0.0,2162698,2162698,3997706,1114122,32,0,229,1,0,1,0,2,0,0,0,0,0,0,0
197444867,197443224,1.2395787e-08,0.00012991074,0.0024067825,4.6159996e-05,0.0004983252,0.001887692,1180179,0,0.29520538,0.53258747,0.0005861483,nan,nan,1.1754944e-38,0.0,0.0,0.0,0.0,2162698,2162698,3997706,1114122,32,0,229,1,0,1,0,2,0,0,0,0,0,0,0
197645404,197643318,1.2087719e-08,0.00013581502,0.0023529492,5.502195e-05,0.00045017418,0.001080625,1180179,0,0.29520747,0.5308664,0.0057130274,nan,nan,0.0033738452,0.0,0.0,0.0,0.0,2162698,2162698,3997706,1114122,32,0,229,1,0,1,0,2,0,0,0,0,0,0,0
197845145,197843418,9.6038155e-09,0.00013329533,0.0022091635,6.7780624e-05,0.0012839271,0.0056418395,1180179,0,0.29520914,0.53535724,0.0005970954,nan,nan,0.015778765,0.0,0.0,0.0,0.0,2162698,2162698,3997706,1114122,32,0,229,1,0,1,0,2,0,0,0,0,0,0,0
198045552,198043511,7.4342656e-09,0.00011435101,0.00182839,3.5080146e-05,0.0012749344,0.0056584426,1180179,0,0.2952104,0.5336114,0.00046145092,nan,nan,0.0019381392,0.0,0.0,0.0,0.0,2162698,2162698,3997706,1114122,32,0,229,1,0,1,0,2,0,0,0,0,0,0,0
198245554,198243606,5.4391123e-09,8.65735e-05,0.0014200122,4.4125372e-05,0.0011355025,0.0049519963,1180179,0,0.29521176,0.5318974,0.0031234985,nan,nan,0.008329648,0.0,0.0,0.0,0.0,2162698,2162698,3997706,1114122,32,0,229,1,0,1,0,2,0,0,0,0,0,0,0
198445760,198443702,5.391147e-09,7.770745e-05,0.0013398518,5.6358498e-05,0.0006747545,0.0023200635,1180179,0,0.29521254,0.53640413,0.0010429415,nan,nan,0.0054615038,0.0,0.0,0.0,0.0,2162698,2162698,3997706,1114122,32,0,229,1,0,1,0,2,0,0,0,0,0,0,0
198645483,198643798,7.0357635e-09,8.505206e-05,0.0014626138,5.4499204e-05,0.0011612413,0.005013211,1180179,0,0.2952134,0.53469074,0.003371385,nan,nan,0.0011465559,0.0,0.0,0.0,0.0,2162698,2162698,3997706,1114122,32,0,229,1,0,1,0,2,0,0,0,0,0,0,0
198845845,198843893,7.645938e-09,9.3717346e-05,0.0016017494,3.696396e-05,0.0010353156,0.004330602,1180179,0,0.29521444,0.53298026,0.0031526664,nan,nan,0.0074129887,0.0,0.0,0.0,0.0,2162698,2162698,3997706,1114122,32,0,229,1,0,1,0,2,0,0,0,0,0,0,0
199045902,199044004,7.514667e-09,8.7361645e-05,0.0014822826,3.823138e-05,0.0013965385,0.0059827883,1180179,0,0.29521552,0.53124696,0.0006589908,nan,nan,1.1754944e-38,0.0,0.0,0.0,0.0,2162698,2162698,3997706,1114122,32,0,229,1,0,1,0,2,0,0,0,0,0,0,0
199246179,199244085,6.762964e-09,8.2469225e-05,0.0013326091,6.22635e-05,0.0015373505,0.006617509,1180179,0,0.29521704,0.5357391,0.00025456736,nan,nan,0.016530018,0.0,0.0,0.0,0.0,2162698,2162698,3997706,1114122,32,0,229,1,0,1,0,2,0,0,0,0,0,0,0
199445945,199444180,5.856092e-09,7.825595e-05,0.001268355,7.370959e-05,0.0011177855,0.00461973,1180179,0,0.29521805,0.5340079,0.008225766,nan,nan,0.0058600456,0.0,0.0,0.0,0.0,2162698,2162698,3997706,1114122,32,0,229,1,0,1,0,2,0,0,0,0,0,0,0
199646520,199644276,4.8217137e-09,7.414181e-05,0.0012585787,5.639548e-05,0.00081692846,0.0033285955,1180179,0,0.2952183,0.5322815,0.004273624,nan,nan,0.0036906912,0.0,0.0,0.0,0.0,2162698,2162698,3997706,1114122,32,0,229,1,0,1,0,2,0,0,0,0,0,0,0
199846398,199844378,1.0711973e-08,8.956559e-05,0.0015951192,4.667665e-05,0.0013309463,0.0060182097,1180179,0,0.2952173,0.53058565,0.005022065,nan,nan,0.012377832,0.0,0.0,0.0,0.0,2162698,2162698,3997706,1114122,32,0,229,1,0,1,0,2,0,0,0,0,0,0,0
200046486,200044470,1.08968585e-08,9.417582e-05,0.0015719407,5.105582e-05,0.0022274007,0.010255051,1180179,0,0.29521763,0.5350643,0.0063072434,nan,nan,0.018073227,0.0,0.0,0.0,0.0,2162698,2162698,3997706,1114122,32,0,229,1,0,1,0,2,0,0,0,0,0,0,0
200246283,200244564,8.887548e-09,8.425916e-05,0.0013942907,6.0864448e-05,0.0014855957,0.0067786463,1180179,0,0.29521844,0.5333433,0.0076804487,nan,nan,1.1754944e-38,0.0,0.0,0.0,0.0,2162698,2162698,3997706,1114122,32,0,229,1,0,1,0,2,0,0,0,0,0,0,0
200446756,200444692,6.4846333e-09,6.5945314e-05,0.0011213225,5.954852e-05,0.001456929,0.0064924858,1180179,0,0.29521903,0.53162587,0.00023124098,nan,nan,1.1754944e-38,0.0,0.0,0.0,0.0,2162698,2162698,3997706,1114122,32,0,229,1,0,1,0,2,0,0,0,0,0,0,0
200646397,200644756,4.864746e-09,5.8089532e-05,0.0010493597,7.276681e-05,0.0006212485,0.0013787567,1180179,0,0.29521874,0.53612036,0.004083902,nan,nan,1.1754944e-38,0.0,0.0,0.0,0.0,2162698,2162698,3997706,1114122,32,0,229,1,0,1,0,2,0,0,0,0,0,0,0
200846850,200844854,5.2037383e-09,7.2569856e-05,0.0013202701,4.3401295e-05,0.0023520484,0.010772707,1180179,0,0.29521862,0.534379,0.002173692,nan,nan,0.01504338,0.0,0.0,0.0,0.0,2162698,2162698,3997706,1114122,32,0,229,1,0,1,0,2,0,0,0,0,0,0,0
201046983,201044948,7.4295228e-09,7.665746e-05,0.0014004029,4.1247673e-05,0.0017209756,0.007700752,1180179,0,0.29521972,0.53264296,0.00049565826,nan,nan,0.018558195,0.0,0.0,0.0,0.0,2162698,2162698,3997706,1114122,32,0,229,1,0,1,0,2,0,0,0,0,0,0,0
201246926,201245043,9.51585e-09,9.738662e-05,0.0016868776,3.284531e-05,0.0012267943,0.005125527,1180179,0,0.29521868,0.53093785,0.007155295,nan,nan,0.0016045845,0.0,0.0,0.0,0.0,2162698,2162698,3997706,1114122,32,0,229,1,0,1,0,2,0,0,0,0,0,0,0
201447026,201445145,1.4872588e-08,0.00014162337,0.0021221258,3.7262667e-05,0.0008111372,0.0023826307,1180179,0,0.2952187,0.5354465,0.0027469923,nan,nan,0.008764205,0.0,0.0,0.0,0.0,2162698,2162698,3997706,1114122,32,0,229,1,0,1,0,2,0,0,0,0,0,0,0
201646936,201645236,1.6148196e-08,0.00016760826,0.002459799,4.68691e-05,0.00093154906,0.0028504722,1180179,0,0.29521927,0.5337156,0.0018009836,nan,nan,1.1754944e-38,0.0,0.0,0.0,0.0,2162698,2162698,3997706,1114122,32,0,229,1,0,1,0,2,0,0,0,0,0,0,0
201847181,201845339,1.41895855e-08,0.00014138025,0.0020058984,3.993636e-05,0.0014381469,0.006608996,1180179,0,0.29522112,0.5320152,0.00022771902,nan,nan,1.1754944e-38,0.0,0.0,0.0,0.0,2162698,2162698,3997706,1114122,32,0,229,1,0,1,0,2,0,0,0,0,0,0,0
202047092,202045428,1.41691805e-08,0.00011937765,0.0017552873,4.620699e-05,0.000948599,0.0042957487,1180179,0,0.2952197,0.53651303,0.0039250273,nan,nan,0.0054825926,0.0,0.0,0.0,0.0,2162698,2162698,3997706,1114122,32,0,229,1,0,1,0,2,0,0,0,0,0,0,0
202247318,202245524,1.3771299e-08,0.00012062021,0.0017020059,5.0385792e-05,0.0013364331,0.005865943,1180179,0,0.29521948,0.5347612,0.0048219124,nan,nan,0.0031514298,0.0,0.0,0.0,0.0,2162698,2162698,3997706,1114122,32,0,229,1,0,1,0,2,0,0,0,0,0,0,0
202447765,202445620,1.762659e-08,0.000112940645,0.0016653783,5.1642615e-05,0.0013652673,0.0058545033,1180179,0,0.29521996,0.5330416,0.0025012842,nan,nan,1.1754944e-38,0.0,0.0,0.0,0.0,2162698,2162698,3997706,1114122,32,0,229,1,0,1,0,2,0,0,0,0,0,0,0
202647671,202645716,2.168244e-08,0.00011174188,0.0016354158,5.280452e-05,0.0016244056,0.0073181256,1180179,0,0.2952214,0.53132623,0.0024754668,nan,nan,1.1754944e-38,0.0,0.0,0.0,0.0,2162698,2162698,3997706,1114122,32,0,229,1,0,1,0,2,0,0,0,0,0,0,0
202847710,202845812,2.1008752e-08,0.00011032838,0.001655549,4.2017862e-05,0.0015801628,0.007617088,1180179,0,0.29522297,0.53583825,2.4471774e-05,nan,nan,1.1754944e-38,0.0,0.0,0.0,0.0,2162698,2162698,3997706,1114122,32,0,229,1,0,1,0,2,0,0,0,0,0,0,0
203047742,203045908,1.5808268e-08,8.856211e-05,0.0013594932,3.7168244e-05,0.0015709525,0.0074889157,1180179,0,0.29522234,0.5341234,0.0020286853,nan,nan,1.1754944e-38,0.0,0.0,0.0,0.0,2162698,2162698,3997706,1114122,32,0,229,1,0,1,0,2,0,0,0,0,0,0,0
203247724,203246004,1.6956045e-08,8.403751e-05,0.0013910959,4.7657453e-05,0.0014498124,0.006895723,1180179,0,0.2952238,0.5323859,0.0021610928,nan,nan,1.1754944e-38,0.0,0.0,0.0,0.0,2162698,2162698,3997706,1114122,32,0,229,1,0,1,0,2,0,0,0,0,0,0,0
203448212,203446101,3.7549906e-08,0.00011747298,0.0013975847,4.8455986e-05,0.0013532463,0.0064961836,1180179,0,0.29522493,0.5306801,0.003055572,nan,nan,1.1754944e-38,0.0,0.0,0.0,0.0,2162698,2162698,3997706,1114122,32,0,229,1,0,1,0,2,0,0,0,0,0,0,0
203647812,203646197,2.7916004e-08,9.126265e-05,0.0010868949,4.5278302e-05,0.0012940499,0.006054228,1180179,0,0.29522544,0.5351526,0.00079747016,nan,nan,1.1754944e-38,0.0,0.0,0.0,0.0,2162698,2162698,3997706,1114122,32,0,229,1,0,1,0,2,0,0,0,0,0,0,0
203848459,203846293,1.9638707e-08,6.956196e-05,0.00081745785,3.6867226e-05,0.0012090661,0.0055769295,1180179,0,0.29522678,0.5334231,0.004020909,nan,nan,1.1754944e-38,0.0,0.0,0.0,0.0,2162698,2162698,3997706,1114122,32,0,229,1,0,1,0,2,0,0,0,0,0,0,0
204048004,204046396,1.35519524e-08,5.305555e-05,0.0006346889,4.5654768e-05,0.0011319477,0.0051206136,1180179,0,0.2952278,0.5317245,0.0021723174,nan,nan,1.1754944e-38,0.0,0.0,0.0,0.0,2162698,2162698,3997706,1114122,32,0,229,1,0,1,0,2,0,0,0,0,0,0,0
204248555,204246511,9.332686e-09,4.091942e-05,0.0005095649,5.195575e-05,0.0010667788,0.00468981,1180179,0,0.2952287,0.53621334,0.0017880135,nan,nan,1.1754944e-38,0.0,0.0,0.0,0.0,2162698,2162698,3997706,1114122,32,0,229,1,0,1,0,2,0,0,0,0,0,0,0
204448314,204446582,6.416297e-09,3.2366195e-05,0.0004387445,6.0276758e-05,0.0009843771,0.0042795353,1180179,0,0.29522964,0.5344898,0.0019136843,nan,nan,1.1754944e-38,0.0,0.0,0.0,0.0,2162698,2162698,3997706,1114122,32,0,229,1,0,1,0,2,0,0,0,0,0,0,0
204648592,204646679,4.3997437e-09,2.6189166e-05,0.00038196196,5.9970065e-05,0.00090262824,0.003894198,1180179,0,0.29523072,0.5327698,0.0020595032,nan,nan,1.1754944e-38,0.0,0.0,0.0,0.0,2162698,2162698,3997706,1114122,32,0,229,1,0,1,0,2,0,0,0,0,0,0,0
204848614,204846775,3.0516205e-09,2.18609e-05,0.0003335185,4.728667e-05,0.0008281541,0.003543258,1180179,0,0.29523158,0.5310544,0.00021615135,nan,nan,1.1754944e-38,0.0,0.0,0.0,0.0,2162698,2162698,3997706,1114122,32,0,229,1,0,1,0,2,0,0,0,0,0,0,0
205048913,205046871,2.1258866e-09,1.9482846e-05,0.00030700793,3.9505372e-05,0.0007608332,0.003218877,1180179,0,0.29523185,0.53553134,0.0010386184,nan,nan,1.1754944e-38,0.0,0.0,0.0,0.0,2162698,2162698,3997706,1114122,32,0,229,1,0,1,0,2,0,0,0,0,0,0,0
205248826,205246968,1.5176311e-09,1.784639e-05,0.00030041317,4.3041455e-05,0.0006560381,0.0026799939,1180179,0,0.29523236,0.533793,0.0011367727,nan,nan,1.1754944e-38,0.0,0.0,0.0,0.0,2162698,2162698,3997706,1114122,32,0,229,1,0,1,0,2,0,0,0,0,0,0,0
205438974,205437059,1.1618445e-09,2.0131072e-05,0.0003297147,4.5993496e-05,0.0006682341,0.0026026359,1180179,0,0.29385146,0.53093326,0.0005807368,nan,nan,1.1754944e-38,0.0,0.0,0.0,0.0,2162698,2162698,3997706,1114122,32,0,229,1,0,1,0,2,0,0,0,0,0,0,0
205648921,205647161,8.4275364e-10,1.8479686e-05,0.00029781988,6.769471e-05,0.000622676,0.0024293477,1180179,0,0.29523265,0.5366059,0.00701601,nan,nan,1.1754944e-38,0.0,0.0,0.0,0.0,2162698,2162698,3997706,1114122,32,0,229,1,0,1,0,2,0,0,0,0,0,0,0
205849174,205847257,6.474048e-10,1.7803759e-05,0.0002772632,0.00010091218,0.0030819327,0.006838088,68289043,0,0.13066797,0.5348727,3.8206123e-05,nan,nan,1.1754944e-38,0.0,0.0,0.0,0.0,2162698,2162698,3997706,1114122,32,0,229,1,0,1,0,2,0,0,0,0,0,0,0
206049039,206047354,5.2883325e-10,1.843883e-05,0.00030475846,7.473888e-05,0.0016959704,0.0039384365,68289043,0,0.1019129,0.53317004,0.00068221265,nan,nan,1.1754944e-38,0.0,0.0,0.0,0.0,2162698,2162698,3997706,1114122,32,0,229,1,0,1,0,2,0,0,0,0,0,0,0
206249619,206247450,4.2074214e-10,1.7674394e-05,0.00028609007,5.0493065e-05,0.0009643594,0.0023080315,68289043,0,0.09027399,0.53144443,0.0054766466,nan,nan,1.1754944e-38,0.0,0.0,0.0,0.0,2162698,2162698,3997706,1114122,32,0,229,1,0,1,0,2,0,0,0,0,0,0,0
206439556,206437542,3.6189107e-10,1.8636538e-05,0.00028497833,7.0207854e-05,0.00081105763,0.0017331643,68289043,0,0.084532045,0.53476346,0.001842627,nan,nan,1.1754944e-38,0.0,0.0,0.0,0.0,2162698,2162698,3997706,1114122,32,0,229,1,0,1,0,2,0,0,0,0,0,0,0
206639692,206637639,2.8617347e-10,1.7439002e-05,0.00026760873,6.375814e-05,0.0007803544,0.00036475164,68289043,0,0.08261527,0.53304505,0.00041999054,nan,nan,0.0032289121,0.0,0.0,0.0,0.0,2162698,2162698,3997706,1114122,32,0,229,1,0,1,0,2,0,0,0,0,0,0,0
206840028,206837735,4.4303303e-09,4.7801444e-05,0.0008079524,4.74096e-05,0.00028661825,0.0013939098,1180179,0,0.099404365,0.5313306,0.0021518741,nan,nan,1.1754944e-38,0.0,0.0,0.0,0.0,2162698,2162698,3997706,1114122,32,0,229,1,0,1,0,2,0,0,0,0,0,0,0
207049677,207047837,3.9006616e-09,4.4492153e-05,0.00074609666,4.9496815e-05,0.00065922213,0.001991136,1180179,0,0.12023106,0.5307957,0.0007390776,nan,nan,1.1754944e-38,0.0,0.0,0.0,0.0,2162698,2162698,3997706,1114122,32,0,229,1,0,1,0,2,0,0,0,0,0,0,0
207249873,207247935,3.5158854e-09,4.2661584e-05,0.0007445725,4.0402563e-05,0.00072262634,0.002106603,1180179,0,0.14178234,0.5352895,0.002816667,nan,nan,1.1754944e-38,0.0,0.0,0.0,0.0,2162698,2162698,3997706,1114122,32,0,229,1,0,1,0,2,0,0,0,0,0,0,0
207449769,207448031,3.0595557e-09,4.1671825e-05,0.0006969083,5.8341386e-05,0.000595329,0.0019341329,1180179,0,0.16400883,0.5335491,0.0031704956,nan,nan,1.1754944e-38,0.0,0.0,0.0,0.0,2162698,2162698,3997706,1114122,32,0,229,1,0,1,0,2,0,0,0,0,0,0,0
207640030,207638123,3.1868366e-09,4.1103525e-05,0.00063982635,4.4492765e-05,0.00039578284,0.0015885474,1180179,0,0.18451157,0.53068817,0.0033329907,nan,nan,1.1754944e-38,0.0,0.0,0.0,0.0,2162698,2162698,3997706,1114122,32,0,229,1,0,1,0,2,0,0,0,0,0,0,0
207840255,207838223,2.5439983e-09,3.513731e-05,0.0005410983,4.1798477e-05,0.00023364433,0.0011417937,1180179,0,0.20522626,0.53516155,0.0027444258,nan,nan,1.1754944e-38,0.0,0.0,0.0,0.0,2162698,2162698,3997706,1114122,32,0,229,1,0,1,0,2,0,0,0,0,0,0,0
208040349,208038316,4.7752593e-09,4.3511194e-05,0.0007229278,4.929753e-05,0.00040381856,0.00087128684,1180179,0,0.2240695,0.5334326,0.0013513871,nan,nan,1.1754944e-38,0.0,0.0,0.0,0.0,2162698,2162698,3997706,1114122,32,0,229,1,0,1,0,2,0,0,0,0,0,0,0
208240588,208238413,5.851525e-09,5.203383e-05,0.00093464094,5.7011443e-05,0.0006851012,0.0010325067,1180179,0,0.24053062,0.53173447,0.0016311306,nan,nan,1.1754944e-38,0.0,0.0,0.0,0.0,2162698,2162698,3997706,1114122,32,0,229,1,0,1,0,2,0,0,0,0,0,0,0
208450637,208448514,5.7314087e-09,4.885711e-05,0.00079058384,5.491135e-05,0.00088243675,0.001392951,1180179,0,0.2558911,0.53116363,0.0034510393,nan,nan,1.1754944e-38,0.0,0.0,0.0,0.0,2162698,2162698,3997706,1114122,32,0,229,1,0,1,0,2,0,0,0,0,0,0,0
208650342,208648616,4.9850373e-09,4.737163e-05,0.00074806914,5.4787608e-05,0.001052588,0.0018318883,1180179,0,0.26703727,0.5356612,0.002299608,nan,nan,1.1754944e-38,0.0,0.0,0.0,0.0,2162698,2162698,3997706,1114122,32,0,229,1,0,1,0,2,0,0,0,0,0,0,0
208840560,208838704,4.960362e-09,4.5510544e-05,0.0006920612,5.3492124e-05,0.0011626706,0.0021821314,1180179,0,0.27416658,0.53278124,0.0016617491,nan,nan,1.1754944e-38,0.0,0.0,0.0,0.0,2162698,2162698,3997706,1114122,32,0,229,1,0,1,0,2,0,0,0,0,0,0,0
209041004,209038803,5.1695013e-09,4.3828895e-05,0.00064937485,6.391575e-05,0.0011768839,0.0023449524,1180179,0,0.28061765,0.5310661,0.005846731,nan,nan,1.1754944e-38,0.0,0.0,0.0,0.0,2162698,2162698,3997706,1114122,32,0,229,1,0,1,0,2,0,0,0,0,0,0,0
209240704,209238897,9.307694e-09,8.3854386e-05,0.0010951109,7.5146614e-05,0.0011673725,0.0024544843,1180179,0,0.28520733,0.5355436,0.0036596986,nan,nan,1.1754944e-38,0.0,0.0,0.0,0.0,2162698,2162698,3997706,1114122,32,0,229,1,0,1,0,2,0,0,0,0,0,0,0
209441101,209438994,9.549053e-09,8.1168946e-05,0.0011348535,7.7492354e-05,0.0010374299,0.0024089066,1180179,0,0.2882908,0.53380543,0.001404004,nan,nan,1.1754944e-38,0.0,0.0,0.0,0.0,2162698,2162698,3997706,1114122,32,0,229,1,0,1,0,2,0,0,0,0,0,0,0
209640818,209639091,9.142115e-09,7.584501e-05,0.001056614,6.276324e-05,0.0010589393,0.002491628,1180179,0,0.29020038,0.53209835,0.0055586356,nan,nan,1.1754944e-38,0.0,0.0,0.0,0.0,2162698,2162698,3997706,1114122,32,0,229,1,0,1,0,2,0,0,0,0,0,0,0
209851300,209849193,6.8911694e-09,5.98792e-05,0.00093111926,5.3516706e-05,0.001075136,0.002586444,1180179,0,0.29260427,0.53154564,0.0015683952,nan,nan,1.1754944e-38,0.0,0.0,0.0,0.0,2162698,2162698,3997706,1114122,32,0,229,1,0,1,0,2,0,0,0,0,0,0,0
210041510,210039288,6.315072e-09,5.1865976e-05,0.00081959146,5.0178634e-05,0.0011436729,0.0027948048,1180179,0,0.29161376,0.5348854,0.0010098882,nan,nan,1.1754944e-38,0.0,0.0,0.0,0.0,2162698,2162698,3997706,1114122,32,0,229,1,0,1,0,2,0,0,0,0,0,0,0
210241089,210239390,7.2656388e-09,5.2265263e-05,0.0008637369,6.1506325e-05,0.0010857411,0.0026699868,1180179,0,0.29156172,0.53318256,0.0047221845,nan,nan,1.1754944e-38,0.0,0.0,0.0,0.0,2162698,2162698,3997706,1114122,32,0,229,1,0,1,0,2,0,0,0,0,0,0,0
210441833,210439479,1.3566871e-08,8.058829e-05,0.0014382862,6.8348374e-05,0.0009971908,0.0024597829,1180179,0,0.29122868,0.53145677,0.0062312623,nan,nan,1.1754944e-38,0.0,0.0,0.0,0.0,2162698,2162698,3997706,1114122,32,0,229,1,0,1,0,2,0,0,0,0,0,0,0
210641411,210639576,4.9010698e-08,0.0001341722,0.0022513333,5.5707736e-05,0.00085006753,0.0020911002,1180179,0,0.29073703,0.53593695,0.003722948,nan,nan,1.1754944e-38,0.0,0.0,0.0,0.0,2162698,2162698,3997706,1114122,32,0,229,1,0,1,0,2,0,0,0,0,0,0,0
210841877,210839673,4.3082906e-08,0.00015586232,0.002601261,4.7684687e-05,0.0007153668,0.0017945723,1180179,0,0.29017988,0.53421456,0.0014738016,nan,nan,1.1754944e-38,0.0,0.0,0.0,0.0,2162698,2162698,3997706,1114122,32,0,229,1,0,1,0,2,0,0,0,0,0,0,0
211041577,211039771,3.209262e-08,0.00013318773,0.002348227,3.6430414e-05,0.00086152693,0.0019799361,1180179,0,0.28962803,0.532496,0.006284749,nan,nan,1.1754944e-38,0.0,0.0,0.0,0.0,2162698,2162698,3997706,1114122,32,0,229,1,0,1,0,2,0,0,0,0,0,0,0
211242056,211239868,2.3201705e-08,0.00010136825,0.0018189506,3.398511e-05,0.0008503002,0.0019467614,1180179,0,0.2891282,0.53080726,0.0018534572,nan,nan,1.1754944e-38,0.0,0.0,0.0,0.0,2162698,2162698,3997706,1114122,32,0,229,1,0,1,0,2,0,0,0,0,0,0,0
211441679,211439962,1.6480747e-08,7.5812175e-05,0.0013751722,4.7432008e-05,0.0008367706,0.0019411378,1180179,0,0.2887135,0.53530085,0.0018657693,nan,nan,1.1754944e-38,0.0,0.0,0.0,0.0,2162698,2162698,3997706,1114122,32,0,229,1,0,1,0,2,0,0,0,0,0,0,0
211642024,211640062,1.1521114e-08,5.7365985e-05,0.0010579175,4.0102408e-05,0.00084534724,0.0019118058,1180179,0,0.28840446,0.5335598,0.0015248832,nan,nan,1.1754944e-38,0.0,0.0,0.0,0.0,2162698,2162698,3997706,1114122,32,0,229,1,0,1,0,2,0,0,0,0,0,0,0
211841966,211840160,7.97135e-09,4.4825072e-05,0.0008672443,5.0292503e-05,0.000899941,0.0022129398,1180179,0,0.28821006,0.53185034,0.0042508477,nan,nan,1.1754944e-38,0.0,0.0,0.0,0.0,2162698,2162698,3997706,1114122,32,0,229,1,0,1,0,2,0,0,0,0,0,0,0
212042235,212040257,5.738742e-09,3.7255304e-05,0.00074025994,4.7795e-05,0.0008284314,0.0018261807,1180179,0,0.28813112,0.5363332,0.0005102033,nan,nan,1.1754944e-38,0.0,0.0,0.0,0.0,2162698,2162698,3997706,1114122,32,0,229,1,0,1,0,2,0,0,0,0,0,0,0
212242137,212240354,6.824581e-09,4.520218e-05,0.0008359179,3.166409e-05,0.00077776477,0.0017048578,1180179,0,0.2881624,0.5345998,0.0002687692,nan,nan,1.1754944e-38,0.0,0.0,0.0,0.0,2162698,2162698,3997706,1114122,32,0,229,1,0,1,0,2,0,0,0,0,0,0,0
212442115,212440452,2.8706607e-08,9.7027376e-05,0.00221254,1.8027775e-05,0.00062705716,0.0014386104,1180179,0,0.28829592,0.5328974,0.0007525346,nan,nan,1.1754944e-38,0.0,0.0,0.0,0.0,2162698,2162698,3997706,1114122,32,0,229,1,0,1,0,2,0,0,0,0,0,0,0
212642370,212640549,3.1298125e-08,9.955639e-05,0.001973963,5.5313976e-05,0.0012495344,0.0026282975,1180179,0,0.28851557,0.53117174,0.0037039923,nan,nan,1.1754944e-38,0.0,0.0,0.0,0.0,2162698,2162698,3997706,1114122,32,0,229,1,0,1,0,2,0,0,0,0,0,0,0
212842323,212840647,2.3981721e-08,8.373475e-05,0.001574007,5.7331952e-05,0.000912605,0.002075885,1180179,0,0.28880465,0.53566855,0.005686851,nan,nan,1.1754944e-38,0.0,0.0,0.0,0.0,2162698,2162698,3997706,1114122,32,0,229,1,0,1,0,2,0,0,0,0,0,0,0
213042687,213040744,1.7863378e-08,6.619703e-05,0.0011683137,6.900476e-05,0.00081951387,0.0018534471,1180179,0,0.28915295,0.53394425,0.0072927857,nan,nan,1.1754944e-38,0.0,0.0,0.0,0.0,2162698,2162698,3997706,1114122,32,0,229,1,0,1,0,2,0,0,0,0,0,0,0
213242479,213240842,1.463093e-08,6.368166e-05,0.0010319552,5.0043676e-05,0.00062460534,0.001443262,1180179,0,0.28954068,0.53222454,0.00057483756,nan,nan,1.1754944e-38,0.0,0.0,0.0,0.0,2162698,2162698,3997706,1114122,32,0,229,1,0,1,0,2,0,0,0,0,0,0,0
213442858,213440939,1.2074718e-08,6.123673e-05,0.001002509,3.0337766e-05,0.00057590596,0.0012310401,1180179,0,0.28995356,0.53671086,0.0027159997,nan,nan,1.1754944e-38,0.0,0.0,0.0,0.0,2162698,2162698,3997706,1114122,32,0,229,1,0,1,0,2,0,0,0,0,0,0,0
213643131,213641036,8.490577e-09,4.778051e-05,0.0007816857,3.8087146e-05,0.00056577375,0.0011705717,1180179,0,0.29037648,0.53496796,0.00096315873,nan,nan,1.1754944e-38,0.0,0.0,0.0,0.0,2162698,2162698,3997706,1114122,32,0,229,1,0,1,0,2,0,0,0,0,0,0,0
213842850,213841134,9.409914e-09,4.9684255e-05,0.0008209601,4.6999034e-05,0.0005794932,0.0011821028,1180179,0,0.2907982,0.53325623,0.007925697,nan,nan,1.1754944e-38,0.0,0.0,0.0,0.0,2162698,2162698,3997706,1114122,32,0,229,1,0,1,0,2,0,0,0,0,0,0,0
214043464,214041234,8.527351e-09,4.5266373e-05,0.0007191957,5.026853e-05,0.00064387696,0.0013148739,1180179,0,0.29120725,0.5315474,0.002250215,nan,nan,1.1754944e-38,0.0,0.0,0.0,0.0,2162698,2162698,3997706,1114122,32,0,229,1,0,1,0,2,0,0,0,0,0,0,0
214243078,214241332,8.382993e-09,4.790504e-05,0.0006542029,6.211506e-05,0.00065601495,0.0013688334,1180179,0,0.2915964,0.53604764,0.0038639556,nan,nan,1.1754944e-38,0.0,0.0,0.0,0.0,2162698,2162698,3997706,1114122,32,0,229,1,0,1,0,2,0,0,0,0,0,0,0
214443444,214441437,6.6296857e-09,4.7578116e-05,0.0006575095,5.0447008e-05,0.0007483443,0.0015413347,1180179,0,0.29195905,0.5343404,0.0009310328,nan,nan,1.1754944e-38,0.0,0.0,0.0,0.0,2162698,2162698,3997706,1114122,32,0,229,1,0,1,0,2,0,0,0,0,0,0,0
214643555,214641568,6.2935177e-09,4.762051e-05,0.0007043208,4.2472075e-05,0.0007907481,0.0016559461,1180179,0,0.29228988,0.5326102,0.0010006583,nan,nan,1.1754944e-38,0.0,0.0,0.0,0.0,2162698,2162698,3997706,1114122,32,0,229,1,0,1,0,2,0,0,0,0,0,0,0
214843779,214841622,7.026761e-09,6.271685e-05,0.0008504734,6.5133376e-05,0.0010836342,0.0023372292,1180179,0,0.29258627,0.53088486,0.0057759606,nan,nan,1.1754944e-38,0.0,0.0,0.0,0.0,2162698,2162698,3997706,1114122,32,0,229,1,0,1,0,2,0,0,0,0,0,0,0
215043483,215041719,5.9811556e-09,5.5610595e-05,0.0008124765,5.6465855e-05,0.0011465553,0.00254877,1180179,0,0.29284722,0.5353728,0.0011613081,nan,nan,1.1754944e-38,0.0,0.0,0.0,0.0,2162698,2162698,3997706,1114122,32,0,229,1,0,1,0,2,0,0,0,0,0,0,0
215243697,215241817,8.912914e-09,6.404751e-05,0.00093073596,5.741239e-05,0.0010497257,0.0023081976,1180179,0,0.293072,0.5336502,0.00017931916,nan,nan,1.1754944e-38,0.0,0.0,0.0,0.0,2162698,2162698,3997706,1114122,32,0,229,1,0,1,0,2,0,0,0,0,0,0,0
215443532,215441915,8.350597e-09,5.9566417e-05,0.0008935677,5.8573063e-05,0.000955374,0.002168892,1180179,0,0.2932602,0.53195745,0.0022721651,nan,nan,1.1754944e-38,0.0,0.0,0.0,0.0,2162698,2162698,3997706,1114122,32,0,229,1,0,1,0,2,0,0,0,0,0,0,0
215643890,215642017,1.00143325e-08,6.0147828e-05,0.0008814596,6.14392e-05,0.0008087478,0.0018327751,1180179,0,0.2934155,0.5364608,0.00049156253,nan,nan,1.1754944e-38,0.0,0.0,0.0,0.0,2162698,2162698,3997706,1114122,32,0,229,1,0,1,0,2,0,0,0,0,0,0,0
215843782,215842115,9.426921e-09,7.091103e-05,0.0010215342,6.703687e-05,0.0007313405,0.0016737449,1180179,0,0.29354018,0.534716,0.0017088009,nan,nan,1.1754944e-38,0.0,0.0,0.0,0.0,2162698,2162698,3997706,1114122,32,0,229,1,0,1,0,2,0,0,0,0,0,0,0
216044138,216042211,1.0512211e-08,6.400296e-05,0.00090808887,8.633249e-05,0.00084928516,0.0019492285,1180179,0,0.29363564,0.53300285,0.003492678,nan,nan,1.1754944e-38,0.0,0.0,0.0,0.0,2162698,2162698,3997706,1114122,32,0,229,1,0,1,0,2,0,0,0,0,0,0,0
216244248,216242305,1.1468971e-08,7.1648654e-05,0.0009775845,7.4827934e-05,0.0010525862,0.0024061487,1180179,0,0.2937064,0.5312673,0.010018922,nan,nan,1.1754944e-38,0.0,0.0,0.0,0.0,2162698,2162698,3997706,1114122,32,0,229,1,0,1,0,2,0,0,0,0,0,0,0
216444569,216442418,1.0133296e-08,6.353037e-05,0.0009851162,7.8037185e-05,0.0012290213,0.0028549458,1180179,0,0.2937562,0.53575826,0.0040306174,nan,nan,1.1754944e-38,0.0,0.0,0.0,0.0,2162698,2162698,3997706,1114122,32,0,229,1,0,1,0,2,0,0,0,0,0,0,0
216644419,216642501,3.0204674e-08,0.00011788392,0.0017409102,6.8271285e-05,0.0014467876,0.0032561284,1180179,0,0.2937881,0.53405213,0.004676834,nan,nan,1.1754944e-38,0.0,0.0,0.0,0.0,2162698,2162698,3997706,1114122,32,0,229,1,0,1,0,2,0,0,0,0,0,0,0
216844192,216842599,2.4997794e-08,0.000105574785,0.001683967,6.7360335e-05,0.0015668955,0.0035269957,1180179,0,0.2938047,0.5323489,0.0036388484,nan,nan,1.1754944e-38,0.0,0.0,0.0,0.0,2162698,2162698,3997706,1114122,32,0,229,1,0,1,0,2,0,0,0,0,0,0,0
217044743,217042708,1.7832045e-08,8.682925e-05,0.0014351368,6.377638e-05,0.0016290597,0.003753784,1180179,0,0.29380965,0.5306487,0.0019696858,nan,nan,1.1754944e-38,0.0,0.0,0.0,0.0,2162698,2162698,3997706,1114122,32,0,229,1,0,1,0,2,0,0,0,0,0,0,0
217244487,217242794,1.5245401e-08,9.2083246e-05,0.001680434,7.045078e-05,0.0016873636,0.0038857418,1180179,0,0.29380563,0.53512543,0.002547157,nan,nan,1.1754944e-38,0.0,0.0,0.0,0.0,2162698,2162698,3997706,1114122,32,0,229,1,0,1,0,2,0,0,0,0,0,0,0
217445129,217442915,1.5849508e-08,8.8343295e-05,0.0017900047,8.076483e-05,0.0018094988,0.0039653145,1180179,0,0.29379588,0.53340065,0.0034135457,nan,nan,1.1754944e-38,0.0,0.0,0.0,0.0,2162698,2162698,3997706,1114122,32,0,229,1,0,1,0,2,0,0,0,0,0,0,0
217644944,217642990,1.4091216e-08,7.65459e-05,0.0015364707,7.545731e-05,0.0018101732,0.004088004,1180179,0,0.2937807,0.5316799,0.00455274,nan,nan,1.1754944e-38,0.0,0.0,0.0,0.0,2162698,2162698,3997706,1114122,32,0,229,1,0,1,0,2,0,0,0,0,0,0,0
217844948,217843088,1.2475606e-08,7.200332e-05,0.0013804213,7.7967416e-05,0.0018707506,0.0041903406,1180179,0,0.29376286,0.53617346,0.0035904478,nan,nan,1.1754944e-38,0.0,0.0,0.0,0.0,2162698,2162698,3997706,1114122,32,0,229,1,0,1,0,2,0,0,0,0,0,0,0
218045172,218043185,9.075386e-09,5.9652568e-05,0.0011794697,7.445416e-05,0.0019353022,0.0042768037,1180179,0,0.2937432,0.5344555,0.0026422753,nan,nan,1.1754944e-38,0.0,0.0,0.0,0.0,2162698,2162698,3997706,1114122,32,0,229,1,0,1,0,2,0,0,0,0,0,0,0
218244896,218243290,6.991463e-09,5.3952503e-05,0.0010167989,7.0487076e-05,0.0019151439,0.0042595486,1180179,0,0.29372334,0.5327674,0.0012397722,nan,nan,1.1754944e-38,0.0,0.0,0.0,0.0,2162698,2162698,3997706,1114122,32,0,229,1,0,1,0,2,0,0,0,0,0,0,0
218445538,218443389,1.1551199e-08,8.310632e-05,0.0014826572,7.2120776e-05,0.0018651421,0.004167679,1180179,0,0.29370522,0.531055,0.0025178844,nan,nan,1.1754944e-38,0.0,0.0,0.0,0.0,2162698,2162698,3997706,1114122,32,0,229,1,0,1,0,2,0,0,0,0,0,0,0
218645096,218643479,1.4362644e-08,0.0001006231,0.0016368482,8.0670405e-05,0.0018382382,0.0040535764,1180179,0,0.2936886,0.53556067,0.002127788,nan,nan,1.1754944e-38,0.0,0.0,0.0,0.0,2162698,2162698,3997706,1114122,32,0,229,1,0,1,0,2,0,0,0,0,0,0,0
218845722,218843607,1.4457273e-08,9.7155564e-05,0.0015200294,7.176269e-05,0.0018182293,0.003942471,1180179,0,0.2936743,0.5338229,0.0011495117,nan,nan,1.1754944e-38,0.0,0.0,0.0,0.0,2162698,2162698,3997706,1114122,32,0,229,1,0,1,0,2,0,0,0,0,0,0,0
219045426,219043675,1.2054831e-08,9.80729e-05,0.0014754512,7.121297e-05,0.001703515,0.003683501,1180179,0,0.2936637,0.5321161,0.00069507665,nan,nan,1.1754944e-38,0.0,0.0,0.0,0.0,2162698,2162698,3997706,1114122,32,0,229,1,0,1,0,2,0,0,0,0,0,0,0
219245936,219243773,1.0555537e-08,7.838346e-05,0.0012635809,6.8800065e-05,0.0016217041,0.0035558476,1180179,0,0.29365432,0.53661114,0.0021098547,nan,nan,1.1754944e-38,0.0,0.0,0.0,0.0,2162698,2162698,3997706,1114122,32,0,229,1,0,1,0,2,0,0,0,0,0,0,0
219445623,219443871,1.0692369e-08,8.6185595e-05,0.0012501174,7.436588e-05,0.0016691308,0.00359419,1180179,0,0.29364854,0.5348798,0.0005685283,nan,nan,1.1754944e-38,0.0,0.0,0.0,0.0,2162698,2162698,3997706,1114122,32,0,229,1,0,1,0,2,0,0,0,0,0,0,0
219645945,219643969,2.0616834e-08,0.00010552969,0.0015299551,7.083418e-05,0.0015986628,0.0034347002,1180179,0,0.29364657,0.5331787,0.0036893687,nan,nan,1.1754944e-38,0.0,0.0,0.0,0.0,2162698,2162698,3997706,1114122,32,0,229,1,0,1,0,2,0,0,0,0,0,0,0
219845942,219844072,3.4107458e-08,0.00013029957,0.0019020775,7.5655145e-05,0.0015562468,0.0035049957,1180179,0,0.2936462,0.5314545,0.004342393,nan,nan,1.1754944e-38,0.0,0.0,0.0,0.0,2162698,2162698,3997706,1114122,32,0,229,1,0,1,0,2,0,0,0,0,0,0,0
220045921,220044165,2.8269758e-08,0.0001069561,0.0015321561,8.593381e-05,0.0022513063,0.004987104,1180179,0,0.29364908,0.5359625,0.003136892,nan,nan,1.1754944e-38,0.0,0.0,0.0,0.0,2162698,2162698,3997706,1114122,32,0,229,1,0,1,0,2,0,0,0,0,0,0,0
220246337,220244262,2.1768475e-08,8.734022e-05,0.0011716302,8.051694e-05,0.0020392966,0.004296573,1180179,0,0.29365534,0.53423995,0.00051884976,nan,nan,1.1754944e-38,0.0,0.0,0.0,0.0,2162698,2162698,3997706,1114122,32,0,229,1,0,1,0,2,0,0,0,0,0,0,0
220446002,220444361,1.6147329e-08,6.993998e-05,0.0009179469,8.184439e-05,0.001945966,0.0042072143,1180179,0,0.2936612,0.532495,0.001612651,nan,nan,1.1754944e-38,0.0,0.0,0.0,0.0,2162698,2162698,3997706,1114122,32,0,229,1,0,1,0,2,0,0,0,0,0,0,0
220646727,220644459,1.2882739e-08,7.253344e-05,0.0009862122,7.6159784e-05,0.0017659274,0.0038815099,1180179,0,0.29367036,0.5307822,0.00030151548,nan,nan,1.1754944e-38,0.0,0.0,0.0,0.0,2162698,2162698,3997706,1114122,32,0,229,1,0,1,0,2,0,0,0,0,0,0,0
220846213,220844557,9.420195e-09,6.0020277e-05,0.00085453957,7.377817e-05,0.001582402,0.0034745762,1180179,0,0.29368028,0.53527856,0.00013795409,nan,nan,1.1754944e-38,0.0,0.0,0.0,0.0,2162698,2162698,3997706,1114122,32,0,229,1,0,1,0,2,0,0,0,0,0,0,0
221046576,221044659,1.1187713e-08,9.4744544e-05,0.0011310088,7.250302e-05,0.0014309051,0.0030568186,1180179,0,0.2936916,0.5335672,0.0003435393,nan,nan,1.1754944e-38,0.0,0.0,0.0,0.0,2162698,2162698,3997706,1114122,32,0,229,1,0,1,0,2,0,0,0,0,0,0,0
221246461,221244763,1.4090061e-08,0.00012448407,0.0014291713,6.90726e-05,0.0012029577,0.0025434252,1180179,0,0.29370308,0.5318591,0.004034282,nan,nan,1.1754944e-38,0.0,0.0,0.0,0.0,2162698,2162698,3997706,1114122,32,0,229,1,0,1,0,2,0,0,0,0,0,0,0
221446811,221444851,1.4706542e-08,0.00010248979,0.0012484944,7.371859e-05,0.0013653293,0.0028732044,1180179,0,0.2937139,0.53634334,0.0015384634,nan,nan,1.1754944e-38,0.0,0.0,0.0,0.0,2162698,2162698,3997706,1114122,32,0,229,1,0,1,0,2,0,0,0,0,0,0,0
221646756,221644949,1.27817374e-08,8.2250306e-05,0.0010040352,6.9124406e-05,0.00097134395,0.001931649,1180179,0,0.2937277,0.5346114,0.0046201535,nan,nan,1.1754944e-38,0.0,0.0,0.0,0.0,2162698,2162698,3997706,1114122,0,0,229,1,0,1,0,2,0,0,0,0,0,0,0
221847029,221845048,9.348129e-09,6.155063e-05,0.00075894437,6.337652e-05,0.00083125575,0.0016007719,1180179,0,0.2937399,0.53288335,0.003969515,nan,nan,1.1754944e-38,0.0,0.0,0.0,0.0,2162698,2162698,3997706,1114122,32,0,229,1,0,1,0,2,0,0,0,0,0,0,0
222047083,222045146,6.504033e-09,4.5502245e-05,0.0006080976,6.445487e-05,0.0007771416,0.0014998051,1180179,0,0.29375237,0.5311606,0.0010505469,nan,nan,1.1754944e-38,0.0,0.0,0.0,0.0,2162698,2162698,3997706,1114122,32,0,229,1,0,1,0,2,0,0,0,0,0,0,0
222246953,222245244,4.6293636e-09,3.7164224e-05,0.0005262177,6.7519395e-05,0.0007777916,0.0015176632,1180179,0,0.29376423,0.53566,4.7301786e-05,nan,nan,1.1754944e-38,0.0,0.0,0.0,0.0,2162698,2162698,3997706,1114122,32,0,229,1,0,1,0,2,0,0,0,0,0,0,0
222447397,222445346,4.388771e-09,4.8794576e-05,0.0006530384,6.846666e-05,0.0007663286,0.0015096465,1180179,0,0.29377547,0.53396535,0.0040951553,nan,nan,1.1754944e-38,0.0,0.0,0.0,0.0,2162698,2162698,3997706,1114122,32,0,229,1,0,1,0,2,0,0,0,0,0,0,0
222647243,222645474,5.9666507e-09,5.1174662e-05,0.00074258615,7.284938e-05,0.0007649353,0.0015260634,1180179,0,0.2937852,0.5322464,0.0024693138,nan,nan,1.1754944e-38,0.0,0.0,0.0,0.0,2162698,2162698,3997706,1114122,32,0,229,1,0,1,0,2,0,0,0,0,0,0,0
222847562,222845539,2.5172465e-08,0.000103901846,0.0013492006,6.6839144e-05,0.0008231489,0.0016098414,1180179,0,0.29379478,0.5367607,0.001590146,nan,nan,1.1754944e-38,0.0,0.0,0.0,0.0,2162698,2162698,3997706,1114122,32,0,229,1,0,1,0,2,0,0,0,0,0,0,0
223047558,223045641,2.4270875e-08,9.701843e-05,0.0011493978,6.812581e-05,0.00093227,0.0019401088,1180179,0,0.29380336,0.5350167,0.003825948,nan,nan,1.1754944e-38,0.0,0.0,0.0,0.0,2162698,2162698,3997706,1114122,32,0,229,1,0,1,0,2,0,0,0,0,0,0,0
223247386,223245736,1.7198053e-08,7.7052115e-05,0.00096343,6.636233e-05,0.0008930486,0.001689123,1180179,0,0.2938128,0.53330386,0.0021841484,nan,nan,1.1754944e-38,0.0,0.0,0.0,0.0,2162698,2162698,3997706,1114122,32,0,229,1,0,1,0,2,0,0,0,0,0,0,0
223448108,223445835,1.3191759e-08,7.428792e-05,0.001081901,6.723527e-05,0.0008594965,0.0016895297,1180179,0,0.29382002,0.5315687,0.00028606312,nan,nan,1.1754944e-38,0.0,0.0,0.0,0.0,2162698,2162698,3997706,1114122,32,0,229,1,0,1,0,2,0,0,0,0,0,0,0
223647601,223645933,9.997662e-09,6.5002205e-05,0.0010046754,6.818666e-05,0.0008541279,0.0017267888,1180179,0,0.2938264,0.5360703,0.0007387706,nan,nan,1.1754944e-38,0.0,0.0,0.0,0.0,2162698,2162698,3997706,1114122,32,0,229,1,0,1,0,2,0,0,0,0,0,0,0
223847956,223846032,9.140094e-09,6.908576e-05,0.0011887699,8.158771e-05,0.00090189604,0.0018189688,1180179,0,0.293832,0.53436345,0.004705039,nan,nan,1.1754944e-38,0.0,0.0,0.0,0.0,2162698,2162698,3997706,1114122,32,0,229,1,0,1,0,2,0,0,0,0,0,0,0
224047809,224046131,8.158149e-09,5.6872428e-05,0.0009825593,7.8529156e-05,0.00095219543,0.0019491338,1180179,0,0.29383716,0.53263354,0.0034319947,nan,nan,1.1754944e-38,0.0,0.0,0.0,0.0,2162698,2162698,3997706,1114122,32,0,229,1,0,1,0,2,0,0,0,0,0,0,0
224248337,224246228,1.3404376e-08,7.281298e-05,0.0011039457,6.893105e-05,0.00095588405,0.0019142731,1180179,0,0.29384333,0.53093404,0.004503654,nan,nan,1.1754944e-38,0.0,0.0,0.0,0.0,2162698,2162698,3997706,1114122,32,0,229,1,0,1,0,2,0,0,0,0,0,0,0
224448125,224446327,2.937476e-08,0.00012888799,0.0019380287,6.916935e-05,0.0009387957,0.0019139503,1180179,0,0.29384866,0.53542185,0.0011663394,nan,nan,1.1754944e-38,0.0,0.0,0.0,0.0,2162698,2162698,3997706,1114122,32,0,229,1,0,1,0,2,0,0,0,0,0,0,0
224648111,224646426,3.1939926e-08,0.00011956216,0.0018232139,7.292855e-05,0.00078516366,0.0015671616,1180179,0,0.2938547,0.53367126,0.002993568,nan,nan,1.1754944e-38,0.0,0.0,0.0,0.0,2162698,2162698,3997706,1114122,32,0,229,1,0,1,0,2,0,0,0,0,0,0,0
224848637,224846525,3.9719573e-08,0.00013314595,0.0020385603,8.239498e-05,0.00057064847,0.0011226682,1180179,0,0.2938595,0.5319528,0.00016810476,nan,nan,1.1754944e-38,0.0,0.0,0.0,0.0,2162698,2162698,3997706,1114122,32,0,229,1,0,1,0,2,0,0,0,0,0,0,0
225039068,225036622,5.4912963e-08,0.00014432507,0.0020521008,7.1141505e-05,0.0005111612,0.001011575,1180179,0,0.29248786,0.5352955,0.00087758456,nan,nan,1.1754944e-38,0.0,0.0,0.0,0.0,2162698,2162698,3997706,1114122,32,0,229,1,0,1,0,2,0,0,0,0,0,0,0
225248541,225246722,1.8578413e-07,0.00026928214,0.0028897193,8.206637e-05,0.0003286596,0.00038327946,1180179,0,0.29386348,0.5347409,0.011079482,nan,nan,1.1754944e-38,0.0,0.0,0.0,0.0,2162698,2162698,3997706,1114122,32,0,229,1,0,1,0,2,0,0,0,0,0,0,0
225448451,225446822,2.385437e-07,0.00029361172,0.0036890018,0.00013882223,0.00052350125,0.0011581328,1180179,0,0.29386306,0.5330275,0.0056365733,nan,nan,1.1754944e-38,0.0,0.0,0.0,0.0,2162698,2162698,3997706,1114122,32,0,229,1,0,1,0,2,0,0,0,0,0,0,0
225649016,225646923,1.9780722e-07,0.00031702584,0.0041126017,0.000104318904,0.0010548629,0.001969457,1180179,0,0.29386416,0.5313176,0.001560999,nan,nan,1.1754944e-38,0.0,0.0,0.0,0.0,2162698,2162698,3997706,1114122,32,0,229,1,0,1,0,2,0,0,0,0,0,0,0
225848899,225847018,1.4483568e-07,0.0002700152,0.003685937,9.896553e-05,0.0013976917,0.0028163726,1180179,0,0.29386505,0.53580785,0.008501066,nan,nan,1.1754944e-38,0.0,0.0,0.0,0.0,2162698,2162698,3997706,1114122,32,0,229,1,0,1,0,2,0,0,0,0,0,0,0
226049086,226047117,9.849549e-08,0.00019033714,0.0026785033,0.00011723046,0.0017380369,0.003693283,1180179,0,0.29386598,0.5340724,0.0046404777,nan,nan,1.1754944e-38,0.0,0.0,0.0,0.0,2162698,2162698,3997706,1114122,32,0,229,1,0,1,0,2,0,0,0,0,0,0,0
226240040,226237215,6.761764e-08,0.00013470791,0.0019554168,0.00012614147,0.0022542044,0.004866035,1180179,0,0.29249212,0.53118896,0.0058377986,nan,nan,1.1754944e-38,0.0,0.0,0.0,0.0,2162698,2162698,3997706,1114122,32,0,229,1,0,1,0,2,0,0,0,0,0,0,0
226439775,226437310,4.5468727e-08,9.4222414e-05,0.0014017009,0.000112255875,0.0025507063,0.005569346,1180179,0,0.2924928,0.5356859,0.0058252346,nan,nan,1.1754944e-38,0.0,0.0,0.0,0.0,2162698,2162698,3997706,1114122,32,0,229,1,0,1,0,2,0,0,0,0,0,0,0
226649050,226647413,2.9969144e-08,6.5468936e-05,0.000995826,0.000106242,0.0026012736,0.005737027,1180179,0,0.29386777,0.5351471,0.0022646068,nan,nan,1.1754944e-38,0.0,0.0,0.0,0.0,2162698,2162698,3997706,1114122,32,0,229,1,0,1,0,2,0,0,0,0,0,0,0
226849419,226847512,2.1300512e-08,5.2689946e-05,0.0007909608,0.00011323857,0.0027838773,0.0061750775,1180179,0,0.29386806,0.5334211,0.004042443,nan,nan,1.1754944e-38,0.0,0.0,0.0,0.0,2162698,2162698,3997706,1114122,32,0,229,1,0,1,0,2,0,0,0,0,0,0,0
227049494,227047611,1.6877774e-08,4.9937913e-05,0.0007457294,0.00011723414,0.0029466301,0.0065572346,1180179,0,0.29386777,0.53169894,0.00834431,nan,nan,1.1754944e-38,0.0,0.0,0.0,0.0,2162698,2162698,3997706,1114122,32,0,229,1,0,1,0,2,0,0,0,0,0,0,0
227249828,227247710,1.3435757e-08,5.333532e-05,0.00082202005,0.00013619078,0.0030910452,0.006845379,1180179,0,0.29386786,0.5361916,0.0016668733,nan,nan,1.1754944e-38,0.0,0.0,0.0,0.0,2162698,2162698,3997706,1114122,32,0,229,1,0,1,0,2,0,0,0,0,0,0,0
227440352,227437804,1.1224587e-08,5.13622e-05,0.00083830097,0.00014363354,0.0034324324,0.007548482,1180179,0,0.29249284,0.5333142,0.008769961,nan,nan,1.1754944e-38,0.0,0.0,0.0,0.0,2162698,2162698,3997706,1114122,32,0,229,1,0,1,0,2,0,0,0,0,0,0,0
227640292,227637903,8.669151e-09,4.197839e-05,0.00073471176,0.00013515676,0.003476598,0.0076657278,1180179,0,0.29249153,0.5315762,0.008564242,nan,nan,1.1754944e-38,0.0,0.0,0.0,0.0,2162698,2162698,3997706,1114122,32,0,229,1,0,1,0,2,0,0,0,0,0,0,0
227840165,227838002,1.1806692e-08,4.8858055e-05,0.0009269256,0.00013743348,0.0035279267,0.0078118336,1180179,0,0.29248983,0.5360755,0.004044603,nan,nan,1.1754944e-38,0.0,0.0,0.0,0.0,2162698,2162698,3997706,1114122,32,0,229,1,0,1,0,2,0,0,0,0,0,0,0
228049758,228048106,1.008723e-08,4.7594807e-05,0.0008514936,0.00013863506,0.0033792716,0.007505262,1180179,0,0.29386237,0.5355263,0.0013546692,nan,nan,1.1754944e-38,0.0,0.0,0.0,0.0,2162698,2162698,3997706,1114122,32,0,229,1,0,1,0,2,0,0,0,0,0,0,0
228249877,228248205,7.463761e-09,4.0876017e-05,0.0007869092,0.00013008986,0.0032890127,0.007209959,1180179,0,0.2938619,0.5338157,0.00411752,nan,nan,1.1754944e-38,0.0,0.0,0.0,0.0,2162698,2162698,3997706,1114122,32,0,229,1,0,1,0,2,0,0,0,0,0,0,0
228449994,228448304,8.4678335e-09,4.5107216e-05,0.0008491862,0.00014177068,0.0031877644,0.00694269,1180179,0,0.29386088,0.53210855,0.003571326,nan,nan,1.1754944e-38,0.0,0.0,0.0,0.0,2162698,2162698,3997706,1114122,32,0,229,1,0,1,0,2,0,0,0,0,0,0,0
228640735,228638398,8.969999e-09,4.2756652e-05,0.000787541,0.00013566184,0.0032937727,0.007268072,1180179,0,0.29248622,0.5354406,0.010053757,nan,nan,1.1754944e-38,0.0,0.0,0.0,0.0,2162698,2162698,3997706,1114122,32,0,229,1,0,1,0,2,0,0,0,0,0,0,0
228840603,228838498,1.0411953e-08,4.3551583e-05,0.000753,0.00013193401,0.003075577,0.0067033237,1180179,0,0.29248625,0.53371257,0.004213805,nan,nan,1.1754944e-38,0.0,0.0,0.0,0.0,2162698,2162698,3997706,1114122,32,0,229,1,0,1,0,2,0,0,0,0,0,0,0
229040848,229038597,9.935177e-09,4.1990093e-05,0.0007094293,0.00012793363,0.0029742057,0.0063547245,1180179,0,0.29248708,0.53198886,0.004236864,nan,nan,1.1754944e-38,0.0,0.0,0.0,0.0,2162698,2162698,3997706,1114122,32,0,229,1,0,1,0,2,0,0,0,0,0,0,0
229241060,229238696,1.0784278e-08,4.253571e-05,0.0007979338,0.00012452122,0.0027831963,0.006184882,1180179,0,0.2924889,0.5364897,0.003173201,nan,nan,1.1754944e-38,0.0,0.0,0.0,0.0,2162698,2162698,3997706,1114122,32,0,229,1,0,1,0,2,0,0,0,0,0,0,0
229450731,229448800,1.1966075e-08,4.218015e-05,0.0008216241,0.00011982129,0.0025747444,0.005479102,1180179,0,0.29386616,0.5359286,0.0046576727,nan,nan,0.0019418022,0.0,0.0,0.0,0.0,2162698,2162698,3997706,1114122,32,0,229,1,0,1,0,2,0,0,0,0,0,0,0
229650563,229648903,1.3483821e-08,5.912038e-05,0.00103823,0.00013222758,0.0028126584,0.0069060805,1180179,0,0.2938682,0.53420645,0.0008895146,nan,nan,1.1754944e-38,0.0,0.0,0.0,0.0,2162698,2162698,3997706,1114122,32,0,229,1,0,1,0,2,0,0,0,0,0,0,0
229841347,229838993,1.1401084e-08,5.743543e-05,0.0010477549,0.00013127743,0.0037342964,0.011768281,1180179,0,0.29249555,0.5313347,0.0038948427,nan,nan,0.0197011,0.0,0.0,0.0,0.0,2162698,2162698,3997706,1114122,32,0,229,1,0,1,0,2,0,0,0,0,0,0,0
230041253,230039093,1.26103545e-08,7.27607e-05,0.0012276217,0.00012725135,0.003963814,0.014433908,1180179,0,0.29249734,0.5358212,0.0004401859,nan,nan,0.012859154,0.0,0.0,0.0,0.0,2162698,2162698,3997706,1114122,32,0,229,1,0,1,0,2,0,0,0,0,0,0,0
230241747,230239192,1.0625912e-08,6.0900875e-05,0.0010214334,0.000121765544,0.0037987854,0.01498607,1180179,0,0.29249793,0.5340819,0.0084240055,nan,nan,0.01184243,0.0,0.0,0.0,0.0,2162698,2162698,3997706,1114122,32,0,229,1,0,1,0,2,0,0,0,0,0,0,0
230441506,230439291,9.01151e-09,5.5054858e-05,0.0009310631,0.00011304234,0.0060494253,0.02744652,1180179,0,0.29249948,0.53234816,0.0033470355,nan,nan,0.02429995,0.0,0.0,0.0,0.0,2162698,2162698,3997706,1114122,32,0,229,1,0,1,0,2,0,0,0,0,0,0,0
230642206,230639393,7.2754625e-09,4.635531e-05,0.00080605666,0.000104015955,0.005907999,0.027582878,1180179,0,0.29250032,0.5306459,0.0032974053,nan,nan,0.022529867,0.0,0.0,0.0,0.0,2162698,2162698,3997706,1114122,32,0,229,1,0,1,0,2,0,0,0,0,0,0,0
230851109,230849496,9.350053e-09,5.1045965e-05,0.0009576481,9.472256e-05,0.0039061604,0.018642068,1180179,0,0.29387498,0.5363091,0.0022180895,nan,nan,0.017738825,0.0,0.0,0.0,0.0,2162698,2162698,3997706,1114122,32,0,229,1,0,1,0,2,0,0,0,0,0,0,0
231041805,231039590,1.175138e-08,7.307634e-05,0.001753688,9.417811e-05,0.005933334,0.02832914,1180179,0,0.2925009,0.533419,0.0070289797,nan,nan,0.021464825,0.0,0.0,0.0,0.0,2162698,2162698,3997706,1114122,32,0,229,1,0,1,0,2,0,0,0,0,0,0,0
231242439,231239689,1.6104199e-08,9.166162e-05,0.0020362814,8.600304e-05,0.0058355313,0.028033998,1180179,0,0.2925016,0.53169477,0.0028254355,nan,nan,0.013692239,0.0,0.0,0.0,0.0,2162698,2162698,3997706,1114122,32,0,229,1,0,1,0,2,0,0,0,0,0,0,0
231442006,231439788,1.5743241e-08,0.00011729729,0.0028811223,8.104103e-05,0.0045762276,0.022192117,1180179,0,0.2925007,0.5361854,0.0049801124,nan,nan,0.022688827,0.0,0.0,0.0,0.0,2162698,2162698,3997706,1114122,32,0,229,1,0,1,0,2,0,0,0,0,0,0,0
231642470,231639888,1.6271215e-08,0.000111665344,0.0028278779,8.146687e-05,0.0049525155,0.023895836,1180179,0,0.29249918,0.53446424,0.007601967,nan,nan,0.016780088,0.0,0.0,0.0,0.0,2162698,2162698,3997706,1114122,32,0,229,1,0,1,0,2,0,0,0,0,0,0,0
231842247,231839987,1.5368562e-08,8.592596e-05,0.0020729438,7.350774e-05,0.006222064,0.029707167,1180179,0,0.29249758,0.5327212,0.0008925598,nan,nan,0.026264057,0.0,0.0,0.0,0.0,2162698,2162698,3997706,1114122,32,0,229,1,0,1,0,2,0,0,0,0,0,0,0
232042793,232040087,1.07242135e-08,6.331939e-05,0.0014832156,6.660245e-05,0.006550683,0.03118211,1180179,0,0.29249564,0.5310097,0.0042616045,nan,nan,0.022084367,0.0,0.0,0.0,0.0,2162698,2162698,3997706,1114122,32,0,229,1,0,1,0,2,0,0,0,0,0,0,0
232242248,232240186,8.623084e-09,5.4227217e-05,0.001204475,6.5705186e-05,0.005023791,0.023977764,1180179,0,0.2924928,0.5355148,0.00022447381,nan,nan,0.023420446,0.0,0.0,0.0,0.0,2162698,2162698,3997706,1114122,32,0,229,1,0,1,0,2,0,0,0,0,0,0,0
232442748,232440286,1.42973695e-08,7.623463e-05,0.0017566882,6.934116e-05,0.0058915797,0.028014285,1180179,0,0.29248938,0.5338035,0.00034851235,nan,nan,0.02498499,0.0,0.0,0.0,0.0,2162698,2162698,3997706,1114122,32,0,229,1,0,1,0,2,0,0,0,0,0,0,0
232642452,232640392,1.0589553e-08,7.108757e-05,0.0015357657,7.001887e-05,0.0050606932,0.023909627,1180179,0,0.29248607,0.532096,0.00035471618,nan,nan,0.02814715,0.0,0.0,0.0,0.0,2162698,2162698,3997706,1114122,32,0,229,1,0,1,0,2,0,0,0,0,0,0,0
232842863,232840485,1.0752895e-08,9.6139156e-05,0.0020987245,7.120264e-05,0.003406388,0.015907234,1180179,0,0.292482,0.53658974,0.003636364,nan,nan,0.019486751,0.0,0.0,0.0,0.0,2162698,2162698,3997706,1114122,32,0,229,1,0,1,0,2,0,0,0,0,0,0,0
233042649,233040584,1.4889697e-08,0.0001278607,0.0023244496,7.292852e-05,0.0037660133,0.017415421,1180179,0,0.2924787,0.53485787,0.0014937691,nan,nan,0.025941618,0.0,0.0,0.0,0.0,2162698,2162698,3997706,1114122,32,0,229,1,0,1,0,2,0,0,0,0,0,0,0
233243285,233240685,1.4249381e-08,0.0001354641,0.0023139932,7.003827e-05,0.005262064,0.02428221,1180179,0,0.2924759,0.5331305,0.005693728,nan,nan,0.02804765,0.0,0.0,0.0,0.0,2162698,2162698,3997706,1114122,32,0,229,1,0,1,0,2,0,0,0,0,0,0,0
233443175,233440784,1.2505891e-08,0.00014740837,0.0023642983,7.285361e-05,0.006485264,0.030040957,1180179,0,0.29247305,0.53140783,0.005024802,nan,nan,0.034958627,0.0,0.0,0.0,0.0,2162698,2162698,3997706,1114122,32,0,229,1,0,1,0,2,0,0,0,0,0,0,0
233643291,233640883,1.7064904e-08,0.00017591014,0.0022429274,7.4681804e-05,0.0043967175,0.020196432,1180179,0,0.2924707,0.5359158,0.0015496612,nan,nan,0.029335072,0.0,0.0,0.0,0.0,2162698,2162698,3997706,1114122,32,0,229,1,0,1,0,2,0,0,0,0,0,0,0
233843096,233840983,1.9997387e-08,0.00022790262,0.0023936632,7.554663e-05,0.0049283765,0.022757223,1180179,0,0.29246804,0.53419447,0.006337458,nan,nan,0.028438183,0.0,0.0,0.0,0.0,2162698,2162698,3997706,1114122,32,0,229,1,0,1,0,2,0,0,0,0,0,0,0
234043518,234041108,1.5424193e-08,0.00017993106,0.0020154575,7.821247e-05,0.004765633,0.021797108,1180179,0,0.29246527,0.5324772,0.0036959983,nan,nan,0.021667903,0.0,0.0,0.0,0.0,2162698,2162698,3997706,1114122,32,0,229,1,0,1,0,2,0,0,0,0,0,0,0
234243663,234241189,1.11447624e-08,0.00014409622,0.001727126,7.771569e-05,0.003879809,0.017161528,1180179,0,0.29246354,0.53076416,0.0042952765,nan,nan,0.022458216,0.0,0.0,0.0,0.0,2162698,2162698,3997706,1114122,32,0,229,1,0,1,0,2,0,0,0,0,0,0,0
234443239,234441286,1.4099721e-08,0.00017892834,0.0020469364,8.259435e-05,0.0020589025,0.007142329,1180179,0,0.2924619,0.53523266,0.0027715578,nan,nan,0.022211822,0.0,0.0,0.0,0.0,2162698,2162698,3997706,1114122,32,0,229,1,0,1,0,2,0,0,0,0,0,0,0
234643492,234641390,1.4387318e-08,0.00016132876,0.0018259641,8.3467894e-05,0.002978215,0.012066946,1180179,0,0.29246086,0.5334966,0.0073525975,nan,nan,0.024565402,0.0,0.0,0.0,0.0,2162698,2162698,3997706,1114122,32,0,229,1,0,1,0,2,0,0,0,0,0,0,0
