timestamp,time_utc_usec,device_id,lat,lon,alt,alt_ellipsoid,s_variance_m_s,c_variance_rad,eph,epv,hdop,vdop,noise_per_ms,jamming_indicator,vel_m_s,vel_n_m_s,vel_e_m_s,vel_d_m_s,cog_rad,timestamp_time_relative,heading,heading_offset,automatic_gain_control,fix_type,jamming_state,vel_ned_valid,satellites_used
186711152,1643451316400122,11010077,386219394,-91534543,45094,93319,1.024,0.72724813,3.0300002,3.8090003,0.88,1.12,94,17,0.059000004,-0.035,-0.048,-0.126,5.1194463,0,nan,0.0,3276,3,0,1,10
186905063,1643451316600122,11010077,386219393,-91534546,45119,93345,1.0250001,0.7272869,3.042,3.8160002,0.88,1.12,94,17,0.185,0.12900001,-0.132,0.081,5.1194463,0,nan,0.0,3276,3,0,1,10
187700798,1643451317400122,11010077,386219384,-91534546,45384,93610,1.189,0.7274464,3.0830002,3.8490002,0.88,1.12,94,19,0.679,0.57100004,-0.36800003,0.28500003,5.1194463,0,nan,0.0,2652,3,0,1,10
188709438,1643451318400122,11010077,386219380,-91534574,44718,92944,1.143,0.72767013,3.177,3.933,0.88,1.12,94,25,0.010000001,0.006,0.008,1.3850001,5.1194463,0,nan,0.0,2652,3,0,1,10
189712247,1643451319400122,11010077,386219326,-91534618,44073,92299,1.6810001,0.6774104,3.351,4.092,0.88,1.12,94,15,1.6110001,-1.4230001,-0.75600004,-0.291,4.3212667,0,nan,0.0,2262,3,0,1,10
190707455,1643451320400122,11010077,386219299,-91534624,44725,92951,1.4870001,0.7454713,3.5470002,4.275,0.88,1.12,94,19,0.294,-0.22100002,0.19500001,-0.14500001,4.02846,0,nan,0.0,2418,3,0,1,10
191706885,1643451321400122,11010077,386219304,-91534598,45343,93569,1.5040001,0.74573904,3.7240002,4.485,0.88,1.12,93,24,0.21300001,-0.16600001,0.134,-0.44700003,4.02846,0,nan,0.0,2496,3,0,1,10
192703807,1643451322400122,11010077,386219331,-91534557,45653,93879,1.6990001,0.7460328,3.8760002,4.691,0.88,1.12,87,14,0.80600005,0.70600003,0.39000002,0.638,4.02846,0,nan,0.0,2262,3,0,1,10
193703539,1643451323400122,11010077,386219313,-91534557,45412,93638,1.1630001,0.74628687,3.992,4.9040003,0.88,1.12,87,29,0.53000003,0.036000002,-0.52900004,0.085,4.02846,0,nan,0.0,2262,3,0,1,10
194704512,1643451324400123,11010077,386219310,-91534540,45325,93551,1.7670001,0.74655145,4.1270003,5.116,0.88,1.12,87,20,0.57900006,0.559,-0.15100001,1.056,4.02846,0,nan,0.0,2262,3,0,1,10
195714649,1643451325400123,11010077,386219312,-91534556,45083,93308,1.4530001,0.7468435,4.2900004,5.333,0.88,1.12,83,17,1.028,0.43600002,-0.93100005,0.36400002,4.02846,0,nan,0.0,2262,3,0,1,10
196699442,1643451326400123,11010077,386219306,-91534622,45938,94164,1.715,0.74712145,4.4360003,5.517,0.88,1.12,83,20,1.1240001,-0.85600007,-0.72800004,-0.305,4.02846,0,nan,0.0,2262,3,0,1,10
197705992,1643451327400123,11010077,386219337,-91534715,47247,95473,2.151,0.64694345,4.5950003,5.703,0.88,1.12,77,23,2.147,2.0440001,-0.65900004,-0.58100003,5.139219,0,nan,0.0,2262,3,0,1,10
198701600,1643451328400123,11010077,386219421,-91534773,47124,95350,2.275,0.64733875,4.7530003,5.9030004,0.88,1.12,77,13,1.3620001,1.266,-0.50100005,0.97,5.139219,0,nan,0.0,2262,3,0,1,10
199706542,1643451329400123,11010077,386219503,-91534764,47017,95243,1.6040001,0.64776236,4.953,6.0920005,0.88,1.12,77,27,0.698,0.31500003,-0.623,-0.13000001,5.139219,0,nan,0.0,2262,3,0,1,10
200695458,1643451330400123,11010077,386219547,-91534799,48314,96539,2.0300002,0.64813393,5.1200004,6.2980003,0.88,1.12,77,20,0.93600005,0.934,-0.053000003,-0.177,5.139219,0,nan,0.0,2262,3,0,1,10
201707456,1643451331400123,11010077,386219567,-91534787,48227,96453,1.9530001,0.6485333,5.2400002,6.465,0.88,1.12,77,22,0.65300006,0.62600005,-0.18800001,-0.23200001,5.139219,0,nan,0.0,2262,3,0,1,10
202706420,1643451332400123,11010077,386219624,-91534772,48574,96800,1.393,0.6489132,5.3650002,6.6110005,0.88,1.12,77,20,0.29200003,0.275,-0.097,-0.73700005,5.139219,0,nan,0.0,2262,3,0,1,10
203699458,1643451333400123,11010077,386219606,-91534756,48903,97129,1.217,0.6492339,5.418,6.708,0.88,1.12,77,20,0.23700002,0.16800001,0.16700001,-0.50200003,5.139219,0,nan,0.0,2262,3,0,1,10
204703414,1643451334400123,11010077,386219609,-91534710,48142,96368,1.365,0.64954454,5.4160004,6.7570004,0.88,1.12,77,13,0.51000005,0.44300002,-0.254,-0.559,5.139219,0,nan,0.0,2262,3,0,1,10
205709045,1643451335400124,11010077,386219510,-91534684,48022,96247,1.5430001,0.76871645,5.4020004,6.7730002,0.88,1.12,77,28,0.56700003,-0.56600004,-0.038000003,0.344,4.122195,0,nan,0.0,2262,3,0,1,10
206708446,1643451336400124,11010077,386219460,-91534660,45898,94124,1.631,0.7689811,5.3830004,6.755,0.88,1.12,77,20,0.901,0.717,0.545,-0.134,4.122195,0,nan,0.0,2262,3,0,1,10
207705528,1643451337400124,11010077,386219417,-91534624,45601,93827,1.886,0.5005899,5.333,6.727,0.88,1.12,77,19,2.282,2.2010002,-0.60200006,0.837,5.4526544,0,nan,0.0,2262,3,0,1,10
208705163,1643451338400124,11010077,386219460,-91534622,45374,93600,1.8590001,0.6588192,5.3230004,6.7070003,0.88,1.12,77,20,1.0760001,-1.001,-0.39400002,-0.014,5.682695,0,nan,0.0,2262,3,0,1,10
209708427,1643451339400124,11010077,386219397,-91534579,44803,93029,1.8210001,0.65919894,5.3310003,6.689,0.88,1.12,77,22,0.60400003,0.425,0.42900002,1.041,5.682695,0,nan,0.0,2262,3,0,1,10
210706455,1643451340400124,11010077,386219366,-91534538,43823,92048,1.3100001,0.65949327,5.3040004,6.6260004,0.88,1.12,77,16,0.081,0.013,0.080000006,0.58000004,5.682695,0,nan,0.0,2262,3,0,1,10
211704461,1643451341400124,11010077,386219325,-91534536,43451,91677,1.416,0.6597623,5.2320004,6.5400004,0.88,1.12,77,20,0.46400002,-0.441,-0.141,-0.059000004,5.682695,0,nan,0.0,2262,3,0,1,10
212706979,1643451342400124,11010077,386219284,-91534549,43124,91349,1.4940001,0.66004056,5.144,6.4500003,0.88,1.12,77,20,0.43800002,0.36200002,-0.246,0.4,5.682695,0,nan,0.0,2262,3,0,1,10
213703082,1643451343400124,11010077,386219313,-91534545,43380,91606,1.7850001,0.66034967,5.1390004,6.4030004,0.88,1.12,77,20,0.64000005,0.634,0.08800001,0.734,5.682695,0,nan,0.0,2340,3,0,1,10
214707991,1643451344400124,11010077,386219295,-91534505,42881,91106,1.3520001,0.6606289,5.151,6.3690004,0.88,1.12,77,20,0.42800003,0.009000001,0.42800003,0.605,5.682695,0,nan,0.0,2496,3,0,1,10
215710826,1643451345400124,11010077,386219307,-91534513,42842,91067,1.702,0.6609403,5.1710005,6.3620005,0.88,1.12,72,13,0.91,0.864,0.28500003,0.503,5.682695,0,nan,0.0,2340,3,0,1,10
216708972,1643451346400125,11010077,386219342,-91534538,42772,90997,1.1370001,0.7605527,5.163,6.3750005,0.88,1.12,77,24,0.29700002,-0.097,-0.28100002,0.048,5.867846,0,nan,0.0,2496,3,0,1,10
217707415,1643451347400125,11010077,386219338,-91534529,42725,90951,1.3970001,0.76080126,5.1390004,6.3650002,1.03,1.16,77,17,0.21100001,-0.123,-0.172,-0.093,5.867846,0,nan,0.0,2340,3,0,1,9
218705535,1643451348400125,11010077,386219325,-91534516,42936,91162,1.033,0.7610444,5.129,6.3220005,1.03,1.16,77,25,0.29900002,0.112,-0.277,-0.18300001,5.867846,0,nan,0.0,2340,3,0,1,9
219709409,1643451349400125,11010077,386219301,-91534543,43144,91370,1.5970001,0.76129913,5.129,6.2840004,1.03,1.16,77,31,0.85600007,-0.69100004,-0.505,-1.0760001,5.867846,0,nan,0.0,2496,3,0,1,9
220706902,1643451350400125,11010077,386219266,-91534541,43404,91629,1.144,0.7615496,5.11,6.2060003,1.03,1.16,77,22,0.35000002,-0.349,0.019000001,0.30600002,5.867846,0,nan,0.0,2262,3,0,1,9
221712418,1643451351400125,11010077,386219259,-91534536,43676,91902,1.3130001,0.76179254,5.064,6.1380005,1.0699999,1.16,77,14,0.41700003,-0.416,0.032,0.051000003,5.867846,0,nan,0.0,2262,3,0,1,8
222707322,1643451352400125,11010077,386219261,-91534543,43745,91970,1.3110001,0.7620402,5.018,6.116,1.0699999,1.16,82,16,0.034,-0.033,-0.010000001,-0.23700002,5.867846,0,nan,0.0,2262,3,0,1,8
223711415,1643451353400125,11010077,386219301,-91534541,43766,91992,1.715,0.7623303,5.017,6.1190004,0.95,1.15,82,22,0.44700003,0.42900002,0.124000005,0.49600002,5.867846,0,nan,0.0,2262,3,0,1,10
224708851,1643451354400125,11010077,386219339,-91534569,44688,92914,1.5120001,0.76258516,5.025,6.1330004,0.95,1.15,82,23,0.112,-0.112,0.003,-0.298,5.867846,0,nan,0.0,2262,3,0,1,10
225714419,1643451355400125,11010077,386219382,-91534590,45131,93357,1.9030001,0.7628533,5.025,6.1330004,0.95,1.15,82,22,0.4,-0.35200003,-0.18900001,-0.10300001,5.867846,0,nan,0.0,2262,3,0,1,10
226705409,1643451356400125,11010077,386219363,-91534591,45516,93741,1.503,0.76315445,5.0420003,6.1530004,0.95,1.15,82,28,0.49600002,-0.32500002,-0.374,-0.23700002,5.867846,0,nan,0.0,2262,3,0,1,10
227720410,1643451357400126,11010077,386219423,-91534596,45596,93822,1.4610001,0.76111186,5.045,6.144,0.95,1.15,76,26,0.22900002,0.158,0.16600001,0.509,6.1444025,0,nan,0.0,2262,3,0,1,10
228716419,1643451358400126,11010077,386219473,-91534607,46101,94327,1.4950001,0.7613851,5.0230002,6.1510005,0.84,1.11,77,23,0.615,-0.53400004,0.30600002,-0.316,6.1444025,0,nan,0.0,2262,3,0,1,11
229714454,1643451359400126,11010077,386219597,-91534630,47185,95411,1.6,0.7616612,4.997,6.117,0.84,1.11,76,23,0.952,0.86800003,0.39100003,0.18800001,6.1444025,0,nan,0.0,2262,3,0,1,11
230715884,1643451360400126,11010077,386219756,-91534634,48173,96399,1.218,0.7619423,4.972,6.0800004,0.84,1.11,76,22,0.50200003,0.057000004,0.499,0.448,6.1444025,0,nan,0.0,2262,3,0,1,11
231712545,1643451361400126,11010077,386219848,-91534659,48859,97085,1.2600001,0.76220185,4.9760003,6.0950003,0.88,1.12,76,31,1.052,0.744,-0.744,-0.303,6.1444025,0,nan,0.0,2262,3,0,1,10
232713414,1643451362400126,11010077,386219888,-91534681,50008,98234,1.8410001,0.7625075,5.004,6.1410003,0.88,1.12,76,20,0.72900003,-0.726,-0.07,-0.90700006,6.1444025,0,nan,0.0,2262,3,0,1,10
233708503,1643451363400126,11010077,386219898,-91534687,50287,98512,1.241,0.76279503,5.044,6.234,1.0,1.42,76,19,0.275,-0.20700002,0.18,0.407,6.1444025,0,nan,0.0,2184,3,0,1,9
234713367,1643451364400126,11010077,386220003,-91534699,50735,98961,1.575,0.7631059,5.084,6.347,1.0,1.42,76,26,0.582,0.48900002,0.316,0.020000001,6.1444025,0,nan,0.0,2496,3,0,1,9
235711584,1643451365400126,11010077,386220068,-91534744,52638,100863,1.6650001,0.7633459,5.124,6.452,0.96,1.42,76,25,0.223,-0.178,0.133,-0.94600004,6.1444025,0,nan,0.0,2496,3,0,1,10
236715420,1643451366400126,11010077,386220156,-91534767,52810,101036,1.1680001,0.76364017,5.169,6.5540004,0.96,1.42,76,22,0.34500003,0.32000002,-0.128,-0.36,6.1444025,0,nan,0.0,2340,3,0,1,10
237711701,1643451367400126,11010077,386220230,-91534803,54400,102626,1.5320001,0.6726925,5.15,6.5720005,0.84,1.11,77,20,1.9180001,1.5460001,1.136,-1.0550001,0.29621658,0,nan,0.0,2418,3,0,1,11
238710452,1643451368400127,11010077,386220248,-91534889,55533,103759,1.5660001,0.6729998,5.1870003,6.6120005,1.03,1.16,76,20,0.58000004,-0.31300002,-0.48900002,-0.66200006,0.29621658,0,nan,0.0,2262,3,0,1,9
239710456,1643451369400127,11010077,386220243,-91534917,55872,104098,1.1620001,0.6733279,5.287,6.6570005,1.03,1.16,76,13,0.56600004,0.068,-0.56200004,-0.19100001,0.29621658,0,nan,0.0,2262,3,0,1,9
240713512,1643451370400127,11010077,386220279,-91534938,56137,104363,1.2880001,0.67365414,5.306,6.6870003,0.88,1.12,76,20,0.25300002,0.079,-0.24100001,-0.48200002,0.29621658,0,nan,0.0,2262,3,0,1,10
241715417,1643451371400127,11010077,386220299,-91534963,56532,104758,1.085,0.6739357,5.2570004,6.6780005,0.88,1.12,76,20,0.15,0.076000005,-0.12900001,-0.054,0.29621658,0,nan,0.0,2262,3,0,1,10
242717189,1643451372400127,11010077,386220303,-91534980,56386,104612,1.595,0.6742552,5.1870003,6.669,0.88,1.12,76,20,0.648,0.647,0.039,0.84700006,0.29621658,0,nan,0.0,2262,3,0,1,10
243718534,1643451373400127,11010077,386220276,-91535019,56531,104757,1.207,0.6745402,5.123,6.6730003,0.88,1.12,76,20,0.64400005,-0.21800001,-0.606,-0.178,0.29621658,0,nan,0.0,2262,3,0,1,10
244722807,1643451374400127,11010077,386220292,-91535064,56819,105045,1.5430001,0.6748289,5.07,6.6710005,0.88,1.12,76,25,0.335,0.31100002,0.123,0.344,0.29621658,0,nan,0.0,2262,3,0,1,10
245722421,1643451375400127,11010077,386220229,-91535046,56664,104889,1.36,0.6750844,4.998,6.6460004,0.84,1.11,76,13,0.201,0.14,-0.14400001,0.50100005,0.29621658,0,nan,0.0,2262,3,0,1,11
246714489,1643451376400127,11010077,386220180,-91535017,57459,105685,0.998,0.67537975,4.933,6.6390004,0.84,1.11,76,22,1.261,-0.187,1.248,-0.10700001,0.29621658,0,nan,0.0,2262,3,0,1,11
247714437,1643451377400127,11010077,386220131,-91534946,56818,105044,1.2160001,0.6756271,4.8430004,6.623,0.84,1.11,76,19,0.134,0.058000002,0.12100001,0.261,0.29621658,0,nan,0.0,2262,3,0,1,11
248714993,1643451378400127,11010077,386220123,-91534927,57071,105296,1.1880001,0.6758592,4.7380004,6.5990005,0.84,1.11,76,17,0.177,0.105000004,0.142,0.30400002,0.29621658,0,nan,0.0,2262,3,0,1,11
249718426,1643451379400128,11010077,386220097,-91534915,57451,105677,1.166,0.67609215,4.6520004,6.5690002,0.84,1.11,76,20,0.19100001,0.19100001,-0.0050000004,-0.347,0.29621658,0,nan,0.0,2262,3,0,1,11
250717412,1643451380400128,11010077,386220077,-91534842,56960,105186,1.1470001,0.6763177,4.5880003,6.5470004,0.95,1.15,76,26,0.284,0.079,0.273,0.377,0.29621658,0,nan,0.0,2262,3,0,1,10
251716442,1643451381400128,11010077,386220002,-91534796,56728,104954,1.054,0.67655087,4.5600004,6.5620003,0.95,1.15,76,18,0.25100002,-0.087000005,0.23600002,0.106000006,0.29621658,0,nan,0.0,2262,3,0,1,10
252710417,1643451382400128,11010077,386219971,-91534758,56221,104447,1.184,0.6767872,4.533,6.5530005,0.95,1.15,76,26,0.41000003,-0.39200002,-0.119,0.07300001,0.29621658,0,nan,0.0,2262,3,0,1,10
253714690,1643451383400128,11010077,386219924,-91534730,56061,104287,1.172,0.6770118,4.505,6.504,0.95,1.15,76,19,0.15200001,0.149,-0.025,0.21700001,0.29621658,0,nan,0.0,2262,3,0,1,10
254709449,1643451384400128,11010077,386219865,-91534718,55575,103801,1.1,0.67723936,4.486,6.4960003,0.95,1.15,76,19,0.503,-0.4,-0.305,0.264,0.29621658,0,nan,0.0,2262,3,0,1,10
255713970,1643451385400128,11010077,386219818,-91534701,55889,104114,1.166,0.6774647,4.459,6.4620004,0.95,1.15,76,20,0.33400002,-0.20700002,-0.26200002,-0.47000003,0.29621658,0,nan,0.0,2262,3,0,1,10
256709069,1643451386400128,11010077,386219767,-91534700,55562,103788,1.113,0.6776792,4.421,6.418,0.95,1.15,76,32,0.18800001,-0.162,0.095000006,-0.16800001,0.29621658,0,nan,0.0,2262,3,0,1,10
257711815,1643451387400128,11010077,386219735,-91534672,55947,104172,1.067,0.6779106,4.393,6.4080005,0.95,1.15,76,17,0.342,0.004,0.342,0.22600001,0.29621658,0,nan,0.0,2262,3,0,1,10
258715542,1643451388400128,11010077,386219725,-91534648,54994,103220,1.192,0.6781445,4.3910003,6.426,1.03,1.16,76,26,0.407,0.26000002,0.31300002,0.0050000004,0.29621658,0,nan,0.0,2262,3,0,1,9
259714444,1643451389400128,11010077,386219723,-91534623,54428,102654,1.256,0.6783868,4.4030004,6.445,0.95,1.15,76,18,0.16100001,0.16100001,0.013,0.046000004,0.29621658,0,nan,0.0,2262,3,0,1,10
260711635,1643451390400129,11010077,386219694,-91534611,54635,102861,1.215,0.67861927,4.392,6.458,0.95,1.15,76,22,0.17,0.16800001,-0.028,-0.33400002,0.29621658,0,nan,0.0,2262,3,0,1,10
261711746,1643451391400129,11010077,386219650,-91534574,54254,102480,1.064,0.678843,4.379,6.499,0.95,1.15,76,20,0.23400001,-0.032,-0.23200001,0.035,0.29621658,0,nan,0.0,2262,3,0,1,10
262714455,1643451392400129,11010077,386219594,-91534555,53016,101242,1.343,0.67909294,4.367,6.5410004,0.95,1.15,76,22,1.0300001,1.0220001,0.134,0.726,0.29621658,0,nan,0.0,2262,3,0,1,10
263712801,1643451393400129,11010077,386219839,-91534474,53067,101292,1.3100001,0.20066085,4.3700004,6.576,0.95,1.15,76,16,5.169,5.1670003,0.143,0.31100002,0.10746289,0,nan,0.0,2262,3,0,1,10
264716448,1643451394400129,11010077,386220456,-91534863,56132,104358,1.516,0.11447108,4.408,6.5820003,0.84,1.11,76,20,11.077001,9.527,-5.65,-1.8610001,5.7478843,0,nan,0.0,2106,3,0,1,11
265707434,1643451395400129,11010077,386221468,-91535542,58757,106983,1.7780001,0.085352875,4.445,6.498,0.84,1.11,71,18,14.548,13.286,-5.9280005,-3.7350001,5.8635073,0,nan,0.0,2262,3,0,1,11
266723338,1643451396400129,11010077,386222631,-91536359,61922,110148,1.6980001,0.081304245,4.598,6.5260005,0.84,1.11,71,24,15.977001,13.7960005,-8.059,-4.7570004,5.7544785,0,nan,0.0,2106,3,0,1,11
267718445,1643451397400129,11010077,386223843,-91537181,66522,114748,1.6560001,0.10798876,4.676,6.545,0.84,1.11,71,12,15.623001,14.343,-6.1930003,-5.2770004,5.875626,0,nan,0.0,2106,3,0,1,11
268724426,1643451398400129,11010077,386225108,-91537848,69357,117583,1.7160001,0.0880269,4.789,6.6570005,0.84,1.11,71,32,15.099001,14.059001,-5.5080004,-1.9490001,5.9098005,0,nan,0.0,2106,3,0,1,11
269719423,1643451399400129,11010077,386226208,-91538467,71692,119919,1.547,0.11144451,4.8490005,6.702,0.84,1.11,71,13,13.152,12.422001,-4.3190002,-3.078,5.948557,0,nan,0.0,2106,3,0,1,11
270719422,1643451400400129,11010077,386227423,-91538897,71796,120022,1.5860001,0.082999304,4.9080005,6.748,0.84,1.11,71,37,14.718,14.463,-2.7270002,-1.7210001,6.0968475,0,nan,0.0,2418,3,0,1,11
271720429,1643451401400130,11010077,386228588,-91538924,73918,122144,1.8650001,0.09663643,4.9240003,6.7530003,0.84,1.11,71,10,14.097001,14.056001,1.065,-3.7990003,0.07565007,0,nan,0.0,2496,3,0,1,11
272719446,1643451402400130,11010077,386229778,-91538251,75735,123962,2.3070002,0.09682981,5.0730004,6.8050003,0.84,1.11,80,44,14.380001,12.706,6.7320004,-0.90400004,0.48721004,0,nan,0.0,2496,3,0,1,11
273723429,1643451403400130,11010077,386230585,-91537342,76252,124479,1.8040001,0.15466148,5.21,6.8410006,0.84,1.11,80,23,10.399,5.992,8.499001,-2.3330002,0.9567327,0,nan,0.0,2106,3,0,1,11
274716425,1643451404400130,11010077,386231077,-91536134,77804,126030,1.445,0.138236,5.1980004,6.971,0.84,1.23,75,41,11.379001,2.2080002,11.163,-0.97900003,1.3754699,0,nan,0.0,2418,3,0,1,10
275718740,1643451405400130,11010077,386231074,-91534635,79541,127768,1.47,0.104098946,5.155,7.182,0.91999996,1.43,75,32,14.443001,-2.486,14.228001,-1.4070001,1.7437907,0,nan,0.0,2418,3,0,1,9
276722448,1643451406400130,11010077,386230511,-91533016,79637,127864,1.5940001,0.09001605,5.1470003,7.3540006,0.91999996,1.43,75,35,15.9210005,-8.464001,13.484,-0.947,2.131319,0,nan,0.0,2106,3,0,1,9
277719801,1643451407400130,11010077,386229486,-91531535,80425,128652,1.3230001,0.089149326,5.1520004,7.4750004,0.91999996,1.43,81,19,17.422,-12.211,12.426001,-1.235,2.3474739,0,nan,0.0,2496,3,0,1,9
278719370,1643451408400130,11010077,386228384,-91530164,81581,129808,1.789,0.1229108,5.188,7.6320004,0.91999996,1.43,81,44,16.629002,-11.904,11.611001,0.42400002,2.3686452,0,nan,0.0,2496,3,0,1,9
279721676,1643451409400130,11010077,386227180,-91528922,84765,132991,1.7310001,0.113931246,5.2980003,7.7710004,0.84,1.11,80,34,16.710001,-13.595,9.716001,-1.1190001,2.5210645,0,nan,0.0,2496,3,0,1,11
280722494,1643451410400130,11010077,386225915,-91527726,87430,135656,1.6910001,0.109742984,5.3760004,7.8010006,0.88,1.12,80,42,18.12,-14.356001,11.057,-3.124,2.485265,0,nan,0.0,2340,3,0,1,10
281722036,1643451411400130,11010077,386224443,-91526506,90026,138252,1.881,0.09576831,5.451,7.8450003,0.88,1.12,80,16,19.598001,-16.964,9.812,-0.98300004,2.617211,0,nan,0.0,2262,3,0,1,10
282720507,1643451412400131,11010077,386222702,-91525533,90902,139128,1.9240001,0.087376416,5.5660005,7.905,0.88,1.12,75,25,21.409,-20.27,6.8900003,-0.754,2.8139272,0,nan,0.0,2262,3,0,1,10
283732034,1643451413400131,11010077,386220890,-91524902,90883,139108,1.549,0.07510361,5.6080003,7.9150004,0.84,1.11,75,13,20.099,-18.946001,6.7110004,-1.702,2.8011758,0,nan,0.0,2262,3,0,1,11
284722416,1643451414400131,11010077,386219223,-91524241,91448,139674,1.325,0.07541829,5.5530005,7.7910004,0.84,1.11,75,37,18.754002,-17.624,6.4100003,-2.9910002,2.7927468,0,nan,0.0,2262,3,0,1,11
285724483,1643451415400131,11010077,386217657,-91523529,90900,139126,1.376,0.07071725,5.465,7.61,0.84,1.11,75,26,18.033,-16.428001,7.439,-0.019000001,2.7163856,0,nan,0.0,2262,3,0,1,11
286723453,1643451416400131,11010077,386216203,-91522582,90448,138674,1.2190001,0.07291078,5.3700004,7.426,0.84,1.11,75,42,17.319,-13.733001,10.553,-0.75500005,2.486402,0,nan,0.0,2574,3,0,1,11
287721579,1643451417400131,11010077,386215144,-91521350,91366,139591,1.1060001,0.083900414,5.228,7.2900004,0.84,1.11,75,29,14.718,-9.434,11.297001,-5.0480003,2.2665553,0,nan,0.0,2496,3,0,1,11
288715521,1643451418400131,11010077,386214262,-91520202,94558,142783,1.154,0.09816551,5.124,7.2120004,0.84,1.11,75,47,13.082001,-8.961,9.531,-3.4650002,2.3253577,0,nan,0.0,2496,3,0,1,11
289721606,1643451419400131,11010077,386213401,-91519172,96302,144528,1.2320001,0.10515032,5.0470004,7.1120005,0.84,1.11,75,30,12.551001,-8.9140005,8.836,-1.445,2.3605664,0,nan,0.0,2418,3,0,1,11
290720424,1643451420400131,11010077,386212402,-91518147,96616,144842,1.3110001,0.083512604,5.0,7.044,0.84,1.11,75,67,15.234001,-12.286,9.008,-1.6840001,2.5089247,0,nan,0.0,2496,3,0,1,11
291717314,1643451421400131,11010077,386211096,-91517393,99138,147363,1.2900001,0.066968106,4.9700003,6.9810004,0.84,1.11,75,17,17.853,-16.977001,5.5260005,-4.175,2.8269196,0,nan,0.0,2496,3,0,1,11
292717918,1643451422400131,11010077,386209460,-91517177,102234,150460,1.6320001,0.052207686,4.973,6.931,0.84,1.11,75,19,20.173,-20.128,-1.3590001,-2.1720002,3.2090333,0,nan,0.0,2262,3,0,1,11
293719456,1643451423400132,11010077,386207660,-91517769,103268,151493,1.8560001,0.05449162,4.979,6.8830004,0.84,1.11,75,32,20.742,-19.708,-6.4690003,-3.545,3.45874,0,nan,0.0,2496,3,0,1,11
294716440,1643451424400132,11010077,386205939,-91518763,104367,152592,1.414,0.050824687,4.9570003,6.867,0.84,1.11,75,43,20.973001,-17.970001,-10.815001,-0.665,3.6833436,0,nan,0.0,2496,3,0,1,11
295718393,1643451425400132,11010077,386204440,-91520230,102288,150513,1.7010001,0.0681935,4.9560003,6.8980002,0.84,1.11,75,13,19.096,-12.530001,-14.410001,3.6550002,3.9966524,0,nan,0.0,2028,3,0,1,11
296728623,1643451426400132,11010077,386203412,-91522459,97386,145611,1.4380001,0.08458319,5.045,6.978,0.84,1.11,75,62,22.782001,-6.13,-21.942001,3.7970002,4.439941,0,nan,0.0,2496,3,0,1,11
297721419,1643451427400132,11010077,386203298,-91525023,93193,141418,1.506,0.0752209,5.1390004,7.0480003,0.84,1.11,75,12,22.374,3.801,-22.048,3.8860002,4.883104,0,nan,0.0,2496,3,0,1,11
298719896,1643451428400132,11010077,386203897,-91527048,88439,136663,1.4050001,0.09691831,5.1460004,7.1040006,0.84,1.11,75,24,16.889,8.158,-14.788001,2.677,5.216531,0,nan,0.0,2496,3,0,1,11
299718570,1643451429400132,11010077,386204969,-91528279,83255,131479,1.577,0.100115575,5.2070003,7.0290003,0.84,1.11,75,19,15.226001,12.407001,-8.826,4.984,5.6648593,0,nan,0.0,2496,3,0,1,11
300722414,1643451430400132,11010077,386206227,-91529139,79079,127303,1.5070001,0.06394048,5.181,6.8120003,0.84,1.11,75,38,18.203001,16.024,-8.635,5.4080005,5.7889357,0,nan,0.0,2496,3,0,1,11
301722426,1643451431400132,11010077,386207614,-91529912,74022,122247,1.514,0.07519175,5.1450005,6.6390004,0.84,1.11,75,34,16.323,14.634001,-7.2320004,5.7180004,5.8241587,0,nan,0.0,2496,3,0,1,11
302718525,1643451432400132,11010077,386208904,-91530327,68436,116661,1.802,0.07703552,5.2060003,6.609,0.84,1.11,75,36,16.416,16.413,-0.323,4.8700004,6.263537,0,nan,0.0,2496,3,0,1,11
303722552,1643451433400132,11010077,386210460,-91530241,65451,113676,1.411,0.07270972,5.197,6.6520004,0.95,1.15,75,31,17.729,17.720001,0.58400005,1.23,0.03295932,0,nan,0.0,2496,3,0,1,10
304711622,1643451434400133,11010077,386211990,-91530346,63420,111645,1.45,0.07106527,5.1850004,6.6990004,0.95,1.15,75,28,16.751001,16.637001,-1.9560001,2.693,6.1661496,0,nan,0.0,2496,3,0,1,10
305718458,1643451435400133,11010077,386213546,-91530549,59589,107814,1.3750001,0.066747844,5.149,6.715,0.95,1.15,75,33,18.183,18.183,-0.035,4.585,6.281275,0,nan,0.0,2496,3,0,1,10
306715070,1643451436400133,11010077,386215048,-91530844,58005,106230,1.475,0.08164039,5.1400003,6.7460003,0.95,1.15,75,38,16.783,16.256,-4.1730003,1.302,6.0318804,0,nan,0.0,2496,3,0,1,10
307725785,1643451437400133,11010077,386216389,-91531611,56736,104961,1.4330001,0.07156181,5.1330004,6.715,0.84,1.11,75,35,16.646,14.775001,-7.668,1.394,5.8044343,0,nan,0.0,2496,3,0,1,11
308716492,1643451438400133,11010077,386217824,-91532305,56303,104529,1.2490001,0.059095453,5.058,6.6150002,0.84,1.11,75,34,17.506,16.284,-6.4240003,0.9110001,5.9074574,0,nan,0.0,2496,3,0,1,11
309720455,1643451439400133,11010077,386219251,-91533093,55881,104107,1.2240001,0.0642152,4.9870005,6.5490003,0.84,1.11,75,33,15.952001,14.352,-6.9630003,0.781,5.831467,0,nan,0.0,2496,3,0,1,11
310720456,1643451440400133,11010077,386220686,-91533841,57697,105923,1.8930001,0.09170554,4.971,6.5000005,0.84,1.11,75,59,16.611,15.710001,-5.3970003,-3.051,5.952291,0,nan,0.0,2496,3,0,1,11
311724412,1643451441400133,11010077,386221984,-91534594,61021,109247,1.5220001,0.08464742,5.0360003,6.5220003,0.84,1.11,75,28,15.170001,13.251,-7.385,-2.753,5.7747493,0,nan,0.0,2496,3,0,1,11
312717276,1643451442400133,11010077,386223234,-91535460,62565,110791,1.5910001,0.08313771,5.038,6.5390005,0.84,1.11,74,63,16.001001,14.778001,-6.1340003,-1.5610001,5.889728,0,nan,0.0,2340,3,0,1,11
313722438,1643451443400133,11010077,386224377,-91535728,66229,114455,1.743,0.10365964,5.102,6.577,0.84,1.11,74,61,11.584001,11.577001,0.40100002,-1.8340001,0.03465927,0,nan,0.0,2262,3,0,1,11
314728557,1643451444400133,11010077,386225590,-91535647,68816,117042,1.5020001,0.088859424,5.1060004,6.576,0.84,1.11,74,52,12.802001,12.703001,1.5890001,-3.5700002,0.12440968,0,nan,0.0,2418,3,0,1,11
315721413,1643451445400134,11010077,386226661,-91535521,74628,122855,1.5020001,0.09540528,5.0740004,6.53,0.84,1.11,73,30,11.078,10.915001,1.8930001,-5.3320003,0.17171822,0,nan,0.0,2418,3,0,1,11
316718439,1643451446400134,11010077,386227570,-91535155,78451,126677,1.5640001,0.102657296,5.064,6.451,0.84,1.11,73,50,9.589001,8.6640005,4.109,-3.4110003,0.4428703,0,nan,0.0,2340,3,0,1,11
317719474,1643451447400134,11010077,386228323,-91534590,80100,128326,1.552,0.13121699,5.0870004,6.4280005,0.84,1.11,74,77,10.019,7.8890004,6.176,-1.3340001,0.6642522,0,nan,0.0,2418,3,0,1,11
318719456,1643451448400134,11010077,386228958,-91533859,81240,129467,1.636,0.15644607,5.1330004,6.479,0.84,1.11,73,44,9.767,4.9040003,8.4470005,-0.497,1.0448158,0,nan,0.0,2106,3,0,1,11
319719413,1643451449400134,11010077,386229120,-91532746,81234,129460,1.639,0.1160061,5.089,6.5590005,0.96,1.4,73,35,11.945001,-1.452,11.856001,0.293,1.6926509,0,nan,0.0,2496,3,0,1,10
320721696,1643451450400134,11010077,386228700,-91531386,82267,130494,1.473,0.11492574,5.018,6.6940002,0.96,1.4,73,43,13.97,-5.5420003,12.823001,-0.314,1.9787636,0,nan,0.0,2574,3,0,1,10
321733442,1643451451400134,11010077,386228046,-91529997,83144,131371,1.5830001,0.11756677,5.0360003,6.8680005,0.96,1.4,74,25,15.786001,-6.2070003,14.515,-2.334,1.9748651,0,nan,0.0,2496,3,0,1,10
322727424,1643451452400134,11010077,386227533,-91528438,84456,132683,1.4720001,0.12913865,5.1200004,7.0070004,0.84,1.11,74,53,13.997001,-5.997,12.648001,-0.80700004,2.0135295,0,nan,0.0,2340,3,0,1,11
323721613,1643451453400134,11010077,386227015,-91526962,86776,135002,1.5760001,0.108157,5.1250005,7.0940003,0.91999996,1.38,74,42,13.858001,-6.1540003,12.417001,-4.261,2.0309346,0,nan,0.0,2262,3,0,1,9
324724457,1643451454400134,11010077,386226349,-91525541,89274,137500,1.646,0.09046565,5.1340003,7.195,0.91999996,1.38,79,58,15.428,-7.7070003,13.365001,-1.743,2.0938947,0,nan,0.0,2184,3,0,1,9
325727413,1643451455400134,11010077,386225442,-91524131,90005,138232,1.562,0.110069185,5.2510004,7.4070005,0.91999996,1.38,79,88,16.926,-12.677001,11.215,-0.60800004,2.4173224,0,nan,0.0,2340,3,0,1,9
326719450,1643451456400135,11010077,386224263,-91522917,90137,138363,1.2270001,0.10440786,5.313,7.6000004,0.91999996,1.43,79,37,17.627,-14.408001,10.154,-1.682,2.5276752,0,nan,0.0,2340,3,0,1,9
327720413,1643451457400135,11010077,386222833,-91521856,89976,138203,1.4990001,0.08999475,5.3840003,7.7920003,0.91999996,1.43,79,22,19.317001,-17.016,9.143001,-0.716,2.648538,0,nan,0.0,2184,3,0,1,9
328722588,1643451458400135,11010077,386221281,-91520906,90174,138400,1.9290001,0.10175426,5.544,8.052,0.91999996,1.43,79,19,19.826,-18.183,7.9020004,0.814,2.731642,0,nan,0.0,2418,3,0,1,9
329721418,1643451459400135,11010077,386219406,-91520069,90598,138824,1.646,0.0847305,5.578,8.314,0.91999996,1.43,78,49,22.432001,-20.742,8.54,-0.522,2.751038,0,nan,0.0,2574,3,0,1,9
330717996,1643451460400135,11010077,386217642,-91519113,93037,141263,1.9940001,0.09405736,5.677,8.607,0.91999996,1.43,78,24,21.009,-17.787,11.179001,-1.4080001,2.5804975,0,nan,0.0,2574,3,0,1,9
331718517,1643451461400135,11010077,386216206,-91517738,96072,144298,1.404,0.08872451,5.7240005,8.72,0.96999997,1.48,78,53,18.559,-12.927001,13.317,-0.246,2.3413348,0,nan,0.0,2418,3,0,1,8
332718806,1643451462400135,11010077,386215025,-91516238,97648,145873,1.3640001,0.07623668,5.65,8.606,0.96999997,1.48,78,20,18.406,-12.926001,13.103001,-1.5270001,2.3493936,0,nan,0.0,2028,3,0,1,8
333716596,1643451463400135,11010077,386213792,-91514809,98734,146959,1.264,0.08765585,5.589,8.485001,0.96999997,1.3199999,78,31,18.513,-15.337001,10.369,-1.8440001,2.5470989,0,nan,0.0,2496,3,0,1,9
334729108,1643451464400135,11010077,386212386,-91513627,100012,148237,1.416,0.07847017,5.5260005,8.426001,0.96999997,1.3199999,78,41,17.515001,-14.0130005,10.508,-1.6630001,2.4981441,0,nan,0.0,2262,3,0,1,9
335719559,1643451465400135,11010077,386211388,-91512247,101313,149538,1.4610001,0.0947136,5.477,8.334001,0.96999997,1.3199999,78,33,16.392,-9.851001,13.102,0.61300004,2.2154546,0,nan,0.0,2262,3,0,1,9
336724446,1643451466400135,11010077,386210870,-91510645,101330,149555,1.927,0.1048887,5.537,8.293,0.96999997,1.3199999,78,26,15.0060005,-3.1430001,14.674001,-0.071,1.7818164,0,nan,0.0,2262,3,0,1,9
337729445,1643451467400136,11010077,386210397,-91509008,103167,151392,1.557,0.09442615,5.543,8.261001,0.91999996,1.29,72,67,15.496,-6.807,13.9210005,-2.138,2.0255785,0,nan,0.0,2262,3,0,1,10
338732031,1643451468400136,11010077,386209580,-91507405,106733,154958,1.4360001,0.084921435,5.497,8.196,0.91999996,1.29,72,19,17.135,-10.0720005,13.863001,-5.1590004,2.1990972,0,nan,0.0,2106,3,0,1,10
339722530,1643451469400136,11010077,386208502,-91506070,111124,159349,1.3800001,0.09550825,5.4900002,8.125,1.01,1.29,72,24,17.805,-13.982,11.023001,-5.2990003,2.473978,0,nan,0.0,2496,3,0,1,9
340723062,1643451470400136,11010077,386207147,-91504862,113340,161565,1.4640001,0.11275124,5.5280004,8.066,1.01,1.29,72,21,19.975,-17.255001,10.063001,-2.02,2.6136198,0,nan,0.0,2496,3,0,1,9
341729478,1643451471400136,11010077,386205474,-91503828,113674,161899,1.3770001,0.102713145,5.616,8.067,1.01,1.29,72,54,21.671001,-19.958,8.444,-0.70900005,2.7413478,0,nan,0.0,2418,3,0,1,9
342726412,1643451472400136,11010077,386203651,-91503089,112373,160598,2.289,0.08257659,5.6520004,8.101001,1.02,1.41,72,14,23.285002,-23.152,2.4770002,-0.344,3.0349915,0,nan,0.0,2262,3,0,1,9
343723931,1643451473400136,11010077,386201443,-91503385,113067,161292,2.536,0.06597048,5.76,8.22,1.02,1.41,72,52,25.131,-24.311,-6.3640003,1.4870001,3.3976293,0,nan,0.0,2262,3,0,1,9
344734454,1643451474400136,11010077,386199407,-91504879,113784,162009,2.618,0.049625468,5.788,8.286,1.02,1.41,72,33,26.504002,-20.007002,-17.384,-2.443,3.8569565,0,nan,0.0,2652,3,0,1,9
345719450,1643451475400136,11010077,386197883,-91507130,114800,163025,2.22,0.06737041,5.9100003,8.403001,0.91999996,1.29,72,31,26.279001,-14.135,-22.153002,1.3410001,4.1444483,0,nan,0.0,2418,3,0,1,10
346723438,1643451476400136,11010077,386196774,-91509332,116121,164345,1.9540001,0.08676119,5.9620004,8.448,0.91999996,1.29,82,31,21.529001,-8.829,-19.635,4.722,4.2898035,0,nan,0.0,2262,3,0,1,10
347725915,1643451477400136,11010077,386196765,-91511894,109116,157340,2.371,0.08863166,6.111,8.64,1.23,1.81,82,32,21.871,4.4700003,-21.409,5.2460003,4.91824,0,nan,0.0,2262,3,0,1,8
348719461,1643451478400137,11010077,386197391,-91514420,101024,149248,2.148,0.06748909,6.2050004,9.004001,1.23,1.81,76,14,21.669,6.4030004,-20.701,3.9940002,5.0123467,0,nan,0.0,2262,3,0,1,8
349716498,1643451479400137,11010077,386198100,-91516955,92746,140971,2.1790001,0.06331094,6.2980003,9.328,1.23,1.81,76,28,22.267,7.038,-21.125002,7.1600003,5.0339584,0,nan,0.0,2262,3,0,1,8
350731417,1643451480400137,11010077,386198978,-91519427,81880,130104,2.3820002,0.06367136,6.387,9.609,1.23,1.68,76,17,22.825,10.538,-20.246,9.172001,5.1923075,0,nan,0.0,2418,3,0,1,9
351728896,1643451481400137,11010077,386200109,-91521781,71679,119904,2.1620002,0.06464367,6.5360003,9.819,1.23,1.68,76,31,23.252,13.7960005,-18.716002,6.1070004,5.347579,0,nan,0.0,2262,3,0,1,9
352723443,1643451482400137,11010077,386201330,-91523485,67628,115852,2.151,0.08580981,6.6330004,9.851001,1.23,1.68,76,18,19.041,12.364,-14.4800005,3.2240002,5.419122,0,nan,0.0,2184,3,0,1,9
353723549,1643451483400137,11010077,386202547,-91524875,66901,115126,2.2510002,0.09378788,6.7650003,9.847,1.23,1.68,76,30,18.323,14.025001,-11.791,-0.080000006,5.5840893,0,nan,0.0,2184,3,0,1,9
354730773,1643451484400137,11010077,386203721,-91526066,68207,116432,1.9290001,0.12098517,6.6800003,9.691,0.91999996,1.29,76,21,15.570001,12.172001,-9.709001,0.74100006,5.60986,0,nan,0.0,2184,3,0,1,10
355724413,1643451485400137,11010077,386204816,-91527167,64273,112497,2.2180002,0.1423391,6.6400003,9.552,0.91999996,1.29,76,41,14.512001,11.207001,-9.22,5.6970005,5.5947638,0,nan,0.0,2028,3,0,1,10
356721749,1643451486400137,11010077,386205999,-91527978,58482,106707,1.6850001,0.104201384,6.557,9.305,0.91999996,1.29,76,22,16.647001,15.347001,-6.4470005,5.491,5.885482,0,nan,0.0,2028,3,0,1,10
357731191,1643451487400137,11010077,386207328,-91528654,55698,103923,1.6240001,0.1228134,6.512,9.235001,0.91999996,1.29,76,32,15.527,14.691001,-5.024,2.3950002,5.953691,0,nan,0.0,2106,3,0,1,10
358722980,1643451488400138,11010077,386208717,-91529027,53560,101785,1.6530001,0.10850363,6.4420004,9.242001,0.91999996,1.29,76,15,15.615001,15.245001,-3.3790002,1.9240001,6.0650444,0,nan,0.0,2106,3,0,1,10
359722994,1643451489400138,11010077,386210060,-91529560,51063,99288,1.593,0.105837286,6.32,9.1310005,0.91999996,1.29,76,27,14.917001,14.239,-4.446,3.068,5.980538,0,nan,0.0,2106,3,0,1,10
360725454,1643451490400138,11010077,386211364,-91530130,47342,95567,1.6660001,0.097530045,6.221,9.049001,0.91999996,1.29,76,15,15.156001,14.281001,-5.0740004,2.8030002,5.9417787,0,nan,0.0,2106,3,0,1,10
361733411,1643451491400138,11010077,386212646,-91530830,46394,94619,1.6270001,0.08984169,6.1380005,8.973001,0.91999996,1.29,76,61,15.662001,14.018001,-6.985,1.08,5.820926,0,nan,0.0,2106,3,0,1,10
362724815,1643451492400138,11010077,386213954,-91531563,45898,94124,1.5990001,0.09864008,6.0800004,8.926001,0.91999996,1.29,76,22,14.992001,14.178,-4.8710003,0.162,5.9522467,0,nan,0.0,2106,3,0,1,10
363724506,1643451493400138,11010077,386215232,-91532114,47357,95583,1.547,0.11425833,5.986,8.844001,0.91999996,1.29,70,52,15.332001,14.974001,-3.292,-1.7070001,6.0667944,0,nan,0.0,2652,3,0,1,10
364726056,1643451494400138,11010077,386216527,-91532574,47607,95833,1.6580001,0.1286826,5.979,8.864,0.91999996,1.29,70,21,13.279,12.369,-4.8310003,0.9620001,5.9108047,0,nan,0.0,2262,3,0,1,10
365725532,1643451495400138,11010077,386217702,-91532920,47303,95529,1.7010001,0.12885207,5.9670005,8.873,0.91999996,1.29,70,25,12.721001,12.718,-0.24200001,0.31,6.2641206,0,nan,0.0,2106,3,0,1,10
366732584,1643451496400138,11010077,386218682,-91532992,47355,95581,1.4490001,0.20915031,5.9040003,8.809,0.91999996,1.29,70,26,8.012,8.003,-0.36600003,-0.81900007,6.2374616,0,nan,0.0,2496,3,0,1,10
367724905,1643451497400138,11010077,386218856,-91533040,47268,95494,1.4480001,0.4694796,5.6270003,8.362,0.91999996,1.29,70,36,0.643,-0.64100003,-0.054,-0.91800004,6.1895523,0,nan,0.0,2262,3,0,1,10
368726951,1643451498400138,11010077,386218876,-91532977,46690,94916,0.96400005,0.62768584,5.038,7.1250005,0.84,1.11,76,19,0.72800004,0.18900001,0.703,0.34800002,0.27152035,0,nan,0.0,2886,3,0,1,11
369716453,1643451499400139,11010077,386218878,-91532965,46969,95195,1.0810001,0.62796074,4.793,6.668,0.84,1.11,86,31,0.08800001,-0.021000002,-0.085,0.34,0.27152035,0,nan,0.0,2886,3,0,1,11
370722462,1643451500400139,11010077,386218876,-91532886,47452,95678,1.079,0.62817013,4.5530005,6.1380005,0.84,1.11,86,30,0.15100001,0.15100001,-0.001,0.091000006,0.27152035,0,nan,0.0,2886,3,0,1,11
371725023,1643451501400139,11010077,386218890,-91532844,47232,95458,1.0500001,0.6283717,4.4100003,5.8760004,0.84,1.11,86,16,0.20500001,0.142,-0.148,0.22700001,0.27152035,0,nan,0.0,2730,3,0,1,11
372725623,1643451502400139,11010077,386218914,-91532820,47695,95921,1.2110001,0.62862223,4.314,5.7580004,0.84,1.11,86,22,0.15,-0.14600001,-0.038000003,-0.187,0.27152035,0,nan,0.0,2730,3,0,1,11
373729588,1643451503400139,11010077,386218940,-91532809,47599,95825,0.9250001,0.6288624,4.203,5.59,0.84,1.11,86,24,0.065000005,-0.004,0.064,0.08800001,0.27152035,0,nan,0.0,2730,3,0,1,11
374721964,1643451504400139,11010077,386218943,-91532784,47192,95418,1.057,0.629087,4.0880003,5.399,0.84,1.11,86,24,0.60700005,-0.606,-0.031000001,-0.040000003,0.27152035,0,nan,0.0,2730,3,0,1,11
375725437,1643451505400139,11010077,386218941,-91532782,47523,95749,0.55,0.62928474,3.9320002,5.181,0.84,1.11,86,38,0.87500006,-0.093,-0.87000006,-0.35900003,0.27152035,0,nan,0.0,2964,3,0,1,11
376732267,1643451506400139,11010077,386218968,-91532795,47473,95699,1.026,0.62946886,3.778,5.0030003,0.84,1.11,87,33,0.14600001,-0.105000004,-0.102000006,-0.31300002,0.27152035,0,nan,0.0,2808,3,0,1,11
377732774,1643451507400139,11010077,386218975,-91532786,47686,95911,1.3610001,0.62970304,3.729,4.971,0.84,1.11,92,22,0.068,-0.040000003,0.055000003,-0.18200001,0.27152035,0,nan,0.0,2808,3,0,1,11
378732412,1643451508400139,11010077,386218981,-91532761,48100,96326,1.2110001,0.62998056,3.7460003,4.998,0.84,1.11,92,31,0.14400001,-0.09200001,0.11100001,-0.38900003,0.27152035,0,nan,0.0,2808,3,0,1,11
379730423,1643451509400139,11010077,386219003,-91532752,48307,96533,1.1420001,0.6302158,3.742,4.939,0.84,1.11,92,33,0.62100005,-0.62100005,0.026,-0.67200005,0.27152035,0,nan,0.0,2808,3,0,1,11
380725425,1643451510400140,11010077,386218994,-91532763,48645,96871,0.98100007,0.6304487,3.726,4.868,0.84,1.11,92,22,0.076000005,-0.047000002,0.060000002,-0.30800003,0.27152035,0,nan,0.0,2652,3,0,1,11
