timestamp,timestamp_sample,device_id,x,y,z,temperature,error_count,is_external
186806642,186806619,1114122,0.61752,0.39392,0.031519998,38.125,0,0
186816691,186816672,1114122,0.61855996,0.3956,0.03328,38.125,0,0
187815076,187815056,1114122,0.62064,0.39376,0.03528,38.25,0,0
188815109,188815077,1114122,0.62031996,0.39192,0.035439998,38.25,0,0
189811123,189811105,1114122,0.61976,0.3904,0.03104,38.125,0,0
190808631,190808606,1114122,0.62207997,0.39608,0.03336,38.25,0,0
191809039,191809018,1114122,0.62008,0.39295998,0.03512,38.25,0,0
192816974,192816956,1114122,0.62288,0.39944,0.0296,38.25,0,0
193814985,193814963,1114122,0.62296,0.40015998,0.03456,38.25,0,0
194815490,194815465,1114122,0.62064,0.39496,0.035919998,38.25,0,0
195811874,195811855,1114122,0.62048,0.39519998,0.03616,38.25,0,0
196808913,196808892,1114122,0.62112,0.39712,0.034959998,38.25,0,0
197811853,197811834,1114122,0.62,0.39951998,0.03464,38.125,0,0
198812777,198812759,1114122,0.61968,0.39632,0.03328,38.25,0,0
199815329,199815310,1114122,0.62071997,0.39648,0.035839997,38.25,0,0
200811977,200811959,1114122,0.61904,0.3976,0.0328,38.375,0,0
201811307,201811286,1114122,0.62031996,0.39624,0.03056,38.125,0,0
202816792,202816770,1114122,0.61943996,0.39655998,0.03424,38.375,0,0
203814742,203814724,1114122,0.61824,0.3956,0.03264,38.375,0,0
204815216,204815198,1114122,0.6196,0.39512,0.03168,38.375,0,0
205815743,205815717,1114122,0.62048,0.39543998,0.035919998,38.25,0,0
206813785,206813767,1114122,0.62016,0.396,0.03408,38.375,0,0
207811674,207811656,1114122,0.61943996,0.39367998,0.033919998,38.375,0,0
208807734,208807716,1114122,0.62031996,0.39608,0.03424,38.375,0,0
209817651,209817632,1114122,0.61855996,0.3956,0.03096,38.25,0,0
210815659,210815634,1114122,0.61888,0.39336,0.033999998,38.25,0,0
211813870,211813852,1114122,0.61991996,0.39528,0.035439998,38.25,0,0
212814534,212814516,1114122,0.61943996,0.3928,0.03552,38.5,0,0
213812126,213812105,1114122,0.61904,0.39567998,0.035359997,38.375,0,0
214807617,214807598,1114122,0.62264,0.40087998,0.03416,38.5,0,0
215815605,215815583,1114122,0.62336,0.40559998,0.03528,38.5,0,0
216815026,216815006,1114122,0.622,0.40383998,0.03408,38.625,0,0
217814060,217814042,1114122,0.62136,0.39912,0.0332,38.5,0,0
218813174,218813156,1114122,0.62119997,0.39968,0.03288,38.375,0,0
219813827,219813808,1114122,0.62079996,0.3936,0.0336,38.5,0,0
220809227,220809209,1114122,0.61952,0.39104,0.034399997,38.5,0,0
221808492,221808473,1114122,0.62056,0.39183998,0.033999998,38.625,0,0
222814720,222814702,1114122,0.62,0.392,0.03456,38.5,0,0
223812221,223812202,1114122,0.62,0.39207998,0.0348,38.5,0,0
224808673,224808655,1114122,0.62512,0.40456,0.033999998,38.5,0,0
225815667,225815646,1114122,0.62119997,0.40344,0.03432,38.625,0,0
226814177,226814159,1114122,0.62152,0.4032,0.03608,38.625,0,0
227811518,227811500,1114122,0.61991996,0.40056,0.035359997,38.625,0,0
228812324,228812305,1114122,0.62056,0.40096,0.034879997,38.5,0,0
229812977,229812956,1114122,0.61935997,0.39312,0.03376,38.75,0,0
230809429,230809411,1114122,0.61864,0.39376,0.034959998,38.5,0,0
231809020,231809002,1114122,0.62031996,0.39679998,0.03432,38.625,0,0
232812823,232812804,1114122,0.61991996,0.396,0.034959998,38.625,0,0
233810324,233810306,1114122,0.62064,0.39727998,0.031119999,38.625,0,0
234812472,234812452,1114122,0.62071997,0.39648,0.03512,38.625,0,0
235810570,235810552,1114122,0.6188,0.3956,0.032959998,38.75,0,0
236812270,236812252,1114122,0.61784,0.39455998,0.03352,38.625,0,0
237811491,237811472,1114122,0.6192,0.39567998,0.03456,38.875,0,0
238814441,238814417,1114122,0.61943996,0.39424,0.030159999,38.75,0,0
239812472,239812451,1114122,0.61895996,0.39584,0.03368,38.75,0,0
240810670,240810652,1114122,0.61864,0.39624,0.035439998,38.625,0,0
241811321,241811303,1114122,0.62056,0.39608,0.0356,38.875,0,0
242813042,242813023,1114122,0.61928,0.39431998,0.03144,38.75,0,0
243809521,243809503,1114122,0.61968,0.39295998,0.03472,38.875,0,0
244818530,244818508,1114122,0.61904,0.39384,0.033999998,38.875,0,0
245807983,245807962,1114122,0.62008,0.39624,0.03384,38.875,0,0
246809326,246809308,1114122,0.62024,0.39679998,0.03456,38.875,0,0
247809974,247809956,1114122,0.61904,0.39488,0.034959998,38.875,0,0
248808535,248808517,1114122,0.6196,0.39552,0.0348,38.875,0,0
249807514,249807493,1114122,0.61895996,0.39696,0.03424,39.0,0,0
250814031,250814010,1114122,0.61847997,0.39536,0.03336,38.875,0,0
251813508,251813489,1114122,0.61895996,0.39503998,0.03208,39.0,0,0
252812174,252812156,1114122,0.62104,0.39448,0.0352,39.0,0,0
253809670,253809652,1114122,0.6188,0.3928,0.0312,39.0,0,0
254810022,254809994,1114122,0.61912,0.39552,0.034959998,38.875,0,0
255808874,255808856,1114122,0.6204,0.39584,0.03432,39.0,0,0
256814778,256814760,1114122,0.6204,0.39519998,0.0336,38.875,0,0
257812274,257812256,1114122,0.61888,0.39455998,0.034399997,39.0,0,0
258809774,258809756,1114122,0.6192,0.39488,0.03376,39.0,0,0
259811503,259811484,1114122,0.61784,0.39407998,0.0332,39.125,0,0
260816323,260816305,1114122,0.61888,0.39472,0.033919998,39.0,0,0
261806140,261806122,1114122,0.62119997,0.39815998,0.03168,39.0,0,0
262816637,262816615,1114122,0.63023996,0.37087998,0.02312,39.125,0,0
263807165,263807140,1114122,0.654,0.62167996,-0.00576,39.25,0,0
264811578,264811560,1114122,0.6092,0.56624,0.03048,39.125,0,0
265820693,265820667,1114122,0.53288,0.40544,0.06808,39.125,0,0
266809726,266809708,1114122,0.59168,0.61351997,0.02488,39.25,0,0
267807230,267807209,1114122,0.56696,0.54416,0.05456,39.125,0,0
268816283,268816265,1114122,0.59712,0.46607998,0.048079997,39.25,0,0
269813777,269813758,1114122,0.64151996,0.5312,0.01512,39.25,0,0
270813370,270813351,1114122,0.62408,0.50712,0.027759999,39.25,0,0
271814050,271814032,1114122,0.51448,0.51504,0.072799996,39.25,0,0
272811820,272811802,1114122,0.54288,0.31063998,0.051599998,39.25,0,0
273807988,273807967,1114122,0.49023998,0.32279998,0.06816,39.375,0,0
274807825,274807803,1114122,0.43783998,0.39144,0.08664,39.25,0,0
275814527,275814509,1114122,0.37072,0.38264,0.09208,39.25,0,0
276812023,276812005,1114122,0.28368,0.33712,0.0712,39.375,0,0
277809381,277809355,1114122,0.24039999,0.18168,0.007999999,39.375,0,0
278812454,278812436,1114122,0.23991999,0.23504,0.03576,39.5,0,0
279819227,279819208,1114122,0.24919999,0.22671999,0.03432,39.375,0,0
280808512,280808488,1114122,0.24776,0.31928,0.05816,39.375,0,0
281807922,281807904,1114122,0.2156,0.42615998,0.05528,39.375,0,0
282820128,282820109,1114122,0.18871999,0.24655999,0.01776,39.375,0,0
283810031,283810007,1114122,0.13983999,0.22727999,-0.021359999,39.375,0,0
284818281,284818263,1114122,0.14007999,0.18536,-0.03944,39.375,0,0
285821082,285821061,1114122,0.19272,0.06968,-0.10176,39.5,0,0
286809121,286809102,1114122,0.19999999,0.06808,-0.0972,39.5,0,0
287810777,287810758,1114122,0.20592,0.15168,-0.02248,39.5,0,0
288810115,288810097,1114122,0.24608,0.16056,0.00055999996,39.5,0,0
289808183,289808158,1114122,0.28847998,0.24136,0.042719997,39.5,0,0
290808712,290808693,1114122,0.18864,0.3232,0.0332,39.5,0,0
291816742,291816723,1114122,0.1092,0.46616,-0.022799999,39.5,0,0
292815070,292815052,1114122,0.122559994,0.59496,-0.057439998,39.625,0,0
293810314,293810296,1114122,0.07936,0.58599997,-0.10864,39.625,0,0
294808314,294808295,1114122,0.17712,0.76544,-0.1836,39.625,0,0
295806523,295806505,1114122,0.37408,0.87336,-0.3136,39.625,0,0
296814530,296814505,1114122,0.55584,0.85928,-0.27288,39.75,0,0
297810974,297810956,1114122,0.68,0.76168,-0.1864,39.75,0,0
298808495,298808472,1114122,0.72672,0.67039996,-0.14536,39.625,0,0
299810899,299810877,1114122,0.73767996,0.40848,-0.082959995,39.5,0,0
300811874,300811856,1114122,0.74152,0.49368,-0.0884,39.625,0,0
301820922,301820903,1114122,0.73719996,0.50224,-0.081439994,39.625,0,0
302820052,302820034,1114122,0.69696,0.3728,-0.039359998,39.75,0,0
303808574,303808555,1114122,0.64912,0.24183999,-0.051599998,39.75,0,0
304816077,304816050,1114122,0.70247996,0.55215997,-0.045199998,39.75,0,0
305813027,305813009,1114122,0.66719997,0.30047998,-0.03808,39.625,0,0
306812620,306812601,1114122,0.66376,0.29744,-0.0348,39.75,0,0
307818524,307818506,1114122,0.68175995,0.49168,-0.01152,39.75,0,0
308805698,308805680,1114122,0.66552,0.42503998,0.00144,39.75,0,0
309811443,309811414,1114122,0.63056,0.46767998,0.029439999,39.75,0,0
310811710,310811692,1114122,0.54232,0.37232,0.0652,39.75,0,0
311815881,311815863,1114122,0.61256,0.53568,0.03376,39.75,0,0
312815266,312815247,1114122,0.56992,0.63967997,0.01712,39.75,0,0
313814036,313814017,1114122,0.6096,0.44704,0.03992,39.75,0,0
314811353,314811334,1114122,0.5308,0.32167998,0.0528,39.75,0,0
315810073,315810052,1114122,0.56,0.496,0.06056,39.75,0,0
316808624,316808605,1114122,0.54624,0.37304,0.06288,39.75,0,0
317808222,317808204,1114122,0.55175996,0.41656,0.06528,39.875,0,0
318815980,318815959,1114122,0.49311998,0.37943998,0.07888,39.875,0,0
319814777,319814759,1114122,0.408,0.45176,0.093279995,39.625,0,0
320810173,320810152,1114122,0.32568,0.24975999,0.056879997,39.75,0,0
321812933,321812906,1114122,0.26552,0.084479995,-0.056879997,39.75,0,0
322813068,322813049,1114122,0.26712,0.1708,0.00976,39.875,0,0
323811133,323811111,1114122,0.26696,0.21744,0.03432,39.875,0,0
324819171,324819151,1114122,0.31423998,0.278,0.059759997,39.875,0,0
325812385,325812356,1114122,0.21951999,0.31688,0.04408,39.875,0,0
326813023,326813005,1114122,0.1848,0.29936,0.02608,39.75,0,0
327811574,327811556,1114122,0.20223999,0.48,0.04008,39.875,0,0
328810144,328810126,1114122,0.17656,0.27967998,0.0196,40.0,0,0
329807624,329807606,1114122,0.118719995,0.13944,-0.09792,39.875,0,0
330810391,330810358,1114122,0.19048,0.08456,-0.0892,39.875,0,0
331810404,331810385,1114122,0.2024,0.08744,-0.077599995,39.875,0,0
332808528,332808506,1114122,0.2444,0.29031998,0.051039997,39.875,0,0
333815492,333815474,1114122,0.16375999,0.24632,-0.0023999999,39.875,0,0
334810882,334810864,1114122,0.14231999,0.01936,-0.2828,39.875,0,0
335812574,335812556,1114122,0.31256,-0.01376,-0.19192,40.0,0,0
336811125,336811106,1114122,0.3996,0.22304,0.04752,39.875,0,0
337807590,337807566,1114122,0.32152,0.26496,0.057839997,40.0,0,0
338814524,338814506,1114122,0.22512,0.26544,0.03288,39.875,0,0
339814624,339814603,1114122,0.18936,0.35391998,0.033999998,40.125,0,0
340813725,340813706,1114122,0.18776,0.36424,0.03256,39.875,0,0
341814388,341814360,1114122,0.16792,0.46927997,0.01952,40.0,0,0
342815020,342815002,1114122,0.20704,0.70808,-0.07048,40.0,0,0
343806727,343806709,1114122,0.21424,0.73384,-0.097119994,40.0,0,0
344814774,344814752,1114122,0.27168,0.82736,-0.19408,40.0,0,0
345812813,345812792,1114122,0.45104,0.86351997,-0.40376,40.0,0,0
346813320,346813302,1114122,0.6356,0.82192,-0.29544,40.0,0,0
347813839,347813820,1114122,0.68152,0.67983997,-0.08328,40.0,0,0
348812631,348812613,1114122,0.6888,0.57207996,-0.03472,40.0,0,0
349811177,349811156,1114122,0.71264,0.6464,-0.107999995,39.875,0,0
350816024,350816006,1114122,0.7144,0.66911995,-0.13,40.0,0,0
351814582,351814556,1114122,0.70688,0.63144,-0.09056,40.0,0,0
352814178,352814159,1114122,0.67359996,0.55432,-0.01856,40.0,0,0
353807004,353806986,1114122,0.68704,0.52511996,-0.02472,40.0,0,0
354815491,354815473,1114122,0.73591995,0.47919998,-0.082159996,40.0,0,0
355818069,355818050,1114122,0.76111996,0.47,-0.12336,39.875,0,0
356814693,356814674,1114122,0.71959996,0.47055998,-0.05288,40.0,0,0
357811630,357811612,1114122,0.6576,0.38048,0.0,40.0,0,0
358812195,358812174,1114122,0.65823996,0.26712,-0.045599997,40.0,0,0
359818734,359818706,1114122,0.71063995,0.44215998,-0.04688,40.125,0,0
360815756,360815734,1114122,0.67304,0.34976,-0.022,39.875,0,0
361812677,361812658,1114122,0.66503996,0.5768,-0.0144,40.0,0,0
362815440,362815411,1114122,0.64592,0.57648,-0.00432,39.875,0,0
363810834,363810813,1114122,0.65392,0.32904,-0.01256,40.0,0,0
364810429,364810410,1114122,0.67736,0.5196,-0.013599999,39.875,0,0
365808974,365808952,1114122,0.6004,0.2836,0.0139999995,39.875,0,0
366818905,366818887,1114122,0.103999995,0.33703998,0.01024,40.0,0,0
367815544,367815526,1114122,0.24992,0.70592,-0.01848,40.0,0,0
368814945,368814927,1114122,0.15079999,0.52832,0.02664,39.875,0,0
369811574,369811556,1114122,0.12792,0.44728,0.03304,40.0,0,0
370810997,370810978,1114122,0.12816,0.45192,0.03384,40.0,0,0
371806592,371806573,1114122,0.12663999,0.45064,0.0288,39.875,0,0
372812523,372812505,1114122,0.12743999,0.45119998,0.032959998,40.0,0,0
373812571,373812553,1114122,0.12784,0.45128,0.033439998,40.0,0,0
374811677,374811659,1114122,0.13024,0.4612,0.0316,40.0,0,0
375812328,375812309,1114122,0.12088,0.5592,-0.00968,39.875,0,0
376811928,376811909,1114122,0.17799999,0.6004,0.0119199995,40.0,0,0
377812570,377812552,1114122,0.19367999,0.59512,0.02192,39.875,0,0
378811127,378811106,1114122,0.19408,0.59832,0.025039999,40.125,0,0
379808625,379808606,1114122,0.19632,0.59968,0.02368,40.0,0,0
380817682,380817660,1114122,0.19615999,0.60407996,0.0208,40.0,0,0
