timestamp,time_utc_usec,lat,lon,alt,alt_ellipsoid,s_variance_m_s,c_variance_rad,eph,epv,hdop,vdop,noise_per_ms,jamming_indicator,vel_m_s,vel_n_m_s,vel_e_m_s,vel_d_m_s,cog_rad,timestamp_time_relative,heading,heading_offset,fix_type,jamming_state,vel_ned_valid,satellites_used,selected
186711152,1643451316400122,386219394,-91534543,45094,93319,1.024,0.72724813,3.0300002,3.8090003,0.88,1.12,94,17,0.059000004,-0.035,-0.048,-0.126,5.1194463,0,nan,0.0,3,0,1,10,0
186905063,1643451316600122,386219393,-91534546,45119,93345,1.0250001,0.7272869,3.042,3.8160002,0.88,1.12,94,17,0.185,0.12900001,-0.132,0.081,5.1194463,0,nan,0.0,3,0,1,10,0
187105456,1643451316800122,386219392,-91534551,45143,93369,0.989,0.7273242,3.0560002,3.8240001,0.88,1.12,94,17,0.10300001,-0.028,-0.09900001,-0.048,5.1194463,0,nan,0.0,3,0,1,10,0
187308501,1643451317000122,386219387,-91534547,45325,93551,0.95900005,0.72736037,3.0660002,3.8320003,0.88,1.12,94,19,0.35700002,-0.21400002,0.28500003,-0.109000005,5.1194463,0,nan,0.0,3,0,1,10,0
187504916,1643451317200122,386219381,-91534543,45437,93662,1.092,0.72740155,3.0740001,3.841,0.88,1.12,94,19,0.337,-0.193,0.27600002,-0.328,5.1194463,0,nan,0.0,3,0,1,10,0
187700798,1643451317400122,386219384,-91534546,45384,93610,1.189,0.7274464,3.0830002,3.8490002,0.88,1.12,94,19,0.679,0.57100004,-0.36800003,0.28500003,5.1194463,0,nan,0.0,3,0,1,10,0
187907537,1643451317600122,386219382,-91534558,45305,93530,0.99600005,0.72748387,3.095,3.8610003,0.88,1.12,94,19,0.67800003,-0.44400004,-0.512,0.30900002,5.1194463,0,nan,0.0,3,0,1,10,0
188110576,1643451317800122,386219376,-91534567,45215,93441,1.0860001,0.7275249,3.114,3.8790002,0.88,1.12,94,19,0.133,-0.08400001,-0.10300001,0.55600005,5.1194463,0,nan,0.0,3,0,1,10,0
188308468,1643451318000122,386219381,-91534570,45030,93256,1.268,0.7275728,3.134,3.8960001,0.88,1.12,94,25,0.53300005,0.53300005,-0.024,0.96700007,5.1194463,0,nan,0.0,3,0,1,10,0
188511417,1643451318200122,386219382,-91534572,44973,93199,1.2040001,0.727618,3.153,3.9140003,0.88,1.12,94,25,0.37,-0.36800003,-0.028,0.147,5.1194463,0,nan,0.0,3,0,1,10,0
188709438,1643451318400122,386219380,-91534574,44718,92944,1.143,0.72767013,3.177,3.933,0.88,1.12,94,25,0.010000001,0.006,0.008,1.3850001,5.1194463,0,nan,0.0,3,0,1,10,0
188911290,1643451318600122,386219379,-91534578,44492,92717,1.3570001,0.72772133,3.206,3.9600003,0.88,1.12,94,25,0.28300002,-0.021000002,-0.282,1.1240001,5.1194463,0,nan,0.0,3,0,1,10,0
189111003,1643451318800122,386219374,-91534585,44297,92523,1.314,0.72777086,3.2380002,3.9910002,0.88,1.12,94,25,0.407,-0.32900003,-0.24000001,1.131,5.1194463,0,nan,0.0,3,0,1,10,0
189311409,1643451319000122,386219365,-91534597,44157,92383,1.503,0.7278274,3.2730002,4.025,0.88,1.12,94,15,0.799,-0.42400002,-0.67700005,0.40800002,5.1194463,0,nan,0.0,3,0,1,10,0
189511222,1643451319200122,386219350,-91534605,44090,92316,1.7210001,0.72789216,3.3130002,4.0600004,0.88,1.12,94,15,0.91600007,-0.90900004,-0.115,0.078,5.1194463,0,nan,0.0,3,0,1,10,0
189712247,1643451319400122,386219326,-91534618,44073,92299,1.6810001,0.6774104,3.351,4.092,0.88,1.12,94,15,1.6110001,-1.4230001,-0.75600004,-0.291,4.3212667,0,nan,0.0,3,0,1,10,0
189906443,1643451319600122,386219302,-91534637,44184,92410,1.7240001,0.7452575,3.3850002,4.125,0.88,1.12,94,15,1.534,-1.322,-0.77900004,-0.079,4.02846,0,nan,0.0,3,0,1,10,0
190105454,1643451319800122,386219292,-91534639,44200,92425,1.312,0.74530584,3.426,4.1660004,0.88,1.12,94,15,0.453,-0.22700001,0.39200002,-0.020000001,4.02846,0,nan,0.0,3,0,1,10,0
190301943,1643451320000122,386219289,-91534635,44421,92647,1.322,0.74535453,3.4710002,4.202,0.88,1.12,94,19,0.192,-0.078,0.17600001,-0.101,4.02846,0,nan,0.0,3,0,1,10,0
190506686,1643451320200122,386219298,-91534629,44618,92844,1.687,0.74541646,3.5100002,4.2380004,0.88,1.12,94,19,0.81100005,0.66,0.47200003,0.46,4.02846,0,nan,0.0,3,0,1,10,0
190707455,1643451320400122,386219299,-91534624,44725,92951,1.4870001,0.7454713,3.5470002,4.275,0.88,1.12,94,19,0.294,-0.22100002,0.19500001,-0.14500001,4.02846,0,nan,0.0,3,0,1,10,0
190908772,1643451320600122,386219300,-91534617,44944,93170,1.4870001,0.7455259,3.5870001,4.316,0.88,1.12,94,19,0.507,0.171,0.47700003,-0.384,4.02846,0,nan,0.0,3,0,1,10,0
191110420,1643451320800122,386219302,-91534606,45020,93246,1.4280001,0.7455784,3.624,4.361,0.88,1.12,94,19,0.549,0.105000004,0.53900003,-0.319,4.02846,0,nan,0.0,3,0,1,10,0
191312335,1643451321000122,386219306,-91534600,45069,93295,1.7270001,0.745642,3.6590002,4.4040003,0.88,1.12,93,24,0.337,0.30200002,0.149,0.23,4.02846,0,nan,0.0,3,0,1,10,0
191507207,1643451321200122,386219307,-91534599,45188,93414,1.136,0.7456837,3.6920002,4.4440002,0.88,1.12,93,24,0.142,-0.068,0.125,0.019000001,4.02846,0,nan,0.0,3,0,1,10,0
191706885,1643451321400122,386219304,-91534598,45343,93569,1.5040001,0.74573904,3.7240002,4.485,0.88,1.12,93,24,0.21300001,-0.16600001,0.134,-0.44700003,4.02846,0,nan,0.0,3,0,1,10,0
191907078,1643451321600122,386219310,-91534595,45444,93670,1.8090001,0.7458055,3.7560003,4.524,0.88,1.12,93,24,0.54700005,0.51900005,0.171,0.28300002,4.02846,0,nan,0.0,3,0,1,10,0
192103450,1643451321800122,386219316,-91534585,45362,93588,1.6430001,0.74586594,3.7890003,4.564,0.88,1.12,93,24,0.66300005,0.35900003,0.558,-0.029000001,4.02846,0,nan,0.0,3,0,1,10,0
192309457,1643451322000122,386219317,-91534577,45607,93833,1.4300001,0.74591863,3.821,4.605,0.88,1.12,87,14,0.423,-0.083000004,0.41400003,-0.92200005,4.02846,0,nan,0.0,3,0,1,10,0
192507585,1643451322200122,386219321,-91534567,45753,93979,1.4070001,0.7459703,3.8500001,4.6480002,0.88,1.12,87,14,0.647,0.347,0.546,-0.075,4.02846,0,nan,0.0,3,0,1,10,0
192703807,1643451322400122,386219331,-91534557,45653,93879,1.6990001,0.7460328,3.8760002,4.691,0.88,1.12,87,14,0.80600005,0.70600003,0.39000002,0.638,4.02846,0,nan,0.0,3,0,1,10,0
192897548,1643451322600122,386219327,-91534554,45396,93622,1.6250001,0.7460925,3.897,4.7310004,0.88,1.12,87,14,0.081,0.07700001,-0.027,0.23300001,4.02846,0,nan,0.0,3,0,1,10,0
193103537,1643451322800122,386219325,-91534547,45496,93722,1.199,0.7461365,3.92,4.7770004,0.88,1.12,87,14,0.74,-0.289,0.68100005,-0.054,4.02846,0,nan,0.0,3,0,1,10,0
193307744,1643451323000122,386219318,-91534543,45518,93744,1.7070001,0.74619925,3.943,4.82,0.88,1.12,87,29,0.36400002,-0.333,-0.14600001,-0.22500001,4.02846,0,nan,0.0,3,0,1,10,0
193504450,1643451323200122,386219314,-91534547,45470,93695,1.2210001,0.74624413,3.9670002,4.8620005,0.88,1.12,87,29,0.172,-0.013,-0.171,0.16900001,4.02846,0,nan,0.0,3,0,1,10,0
193703539,1643451323400122,386219313,-91534557,45412,93638,1.1630001,0.74628687,3.992,4.9040003,0.88,1.12,87,29,0.53000003,0.036000002,-0.52900004,0.085,4.02846,0,nan,0.0,3,0,1,10,0
193905422,1643451323600122,386219310,-91534564,45377,93603,1.172,0.74632984,4.0150003,4.945,0.88,1.12,87,29,0.13900001,-0.08400001,-0.11100001,0.11000001,4.02846,0,nan,0.0,3,0,1,10,0
194104454,1643451323800122,386219314,-91534556,45471,93697,1.4360001,0.7463827,4.04,4.986,0.88,1.12,87,29,0.83800006,0.35500002,0.75900006,0.18800001,4.02846,0,nan,0.0,3,0,1,10,0
194308421,1643451324000123,386219314,-91534546,45529,93755,1.3310001,0.7464315,4.0690002,5.0270004,0.88,1.12,87,20,0.223,-0.053000003,0.216,-0.164,4.02846,0,nan,0.0,3,0,1,10,0
194507467,1643451324200123,386219306,-91534541,45468,93694,1.496,0.74648654,4.097,5.0730004,0.88,1.12,87,20,0.453,-0.38000003,0.246,0.039,4.02846,0,nan,0.0,3,0,1,10,0
194704512,1643451324400123,386219310,-91534540,45325,93551,1.7670001,0.74655145,4.1270003,5.116,0.88,1.12,87,20,0.57900006,0.559,-0.15100001,1.056,4.02846,0,nan,0.0,3,0,1,10,0
194907458,1643451324600123,386219315,-91534539,45221,93447,1.6570001,0.7466124,4.158,5.156,0.88,1.12,87,20,0.342,0.282,0.193,0.697,4.02846,0,nan,0.0,3,0,1,10,0
195104449,1643451324800123,386219306,-91534540,45071,93297,1.4660001,0.74666613,4.189,5.1980004,0.88,1.12,87,20,0.64100003,-0.63000005,-0.119,0.42600003,4.02846,0,nan,0.0,3,0,1,10,0
195311415,1643451325000123,386219302,-91534543,45134,93360,1.539,0.7467227,4.221,5.242,0.88,1.12,83,17,0.135,-0.036000002,-0.13000001,-0.14600001,4.02846,0,nan,0.0,3,0,1,10,0
195504408,1643451325200123,386219305,-91534543,45084,93309,1.835,0.74679005,4.255,5.289,0.88,1.12,83,17,0.411,0.41000003,0.029000001,-0.097,4.02846,0,nan,0.0,3,0,1,10,0
195714649,1643451325400123,386219312,-91534556,45083,93308,1.4530001,0.7468435,4.2900004,5.333,0.88,1.12,83,17,1.028,0.43600002,-0.93100005,0.36400002,4.02846,0,nan,0.0,3,0,1,10,0
195908913,1643451325600123,386219321,-91534572,45200,93426,1.3410001,0.7468927,4.3170004,5.368,0.88,1.12,83,17,0.684,0.38700002,-0.564,0.022000002,4.02846,0,nan,0.0,3,0,1,10,0
196110412,1643451325800123,386219324,-91534584,45231,93457,1.2800001,0.74693966,4.347,5.406,0.88,1.12,83,17,0.441,-0.030000001,-0.44000003,0.028,4.02846,0,nan,0.0,3,0,1,10,0
196309243,1643451326000123,386219321,-91534594,45505,93731,1.646,0.74700004,4.379,5.4420004,0.88,1.12,83,20,0.60400003,-0.38000003,-0.47000003,-0.32200003,4.02846,0,nan,0.0,3,0,1,10,0
196499447,1643451326200123,386219318,-91534606,45776,94002,1.595,0.74705863,4.407,5.478,0.88,1.12,83,20,0.674,-0.367,-0.565,-0.45000002,4.02846,0,nan,0.0,3,0,1,10,0
196699442,1643451326400123,386219306,-91534622,45938,94164,1.715,0.74712145,4.4360003,5.517,0.88,1.12,83,20,1.1240001,-0.85600007,-0.72800004,-0.305,4.02846,0,nan,0.0,3,0,1,10,0
196903417,1643451326600123,386219290,-91534646,46065,94290,1.5830001,0.7471817,4.4680004,5.5550003,0.88,1.12,83,20,1.565,-0.92100006,-1.2650001,-0.48800004,4.02846,0,nan,0.0,3,0,1,10,0
197103412,1643451326800123,386219282,-91534670,46253,94479,1.447,0.74723476,4.5,5.5920005,0.88,1.12,83,20,0.89000005,-0.282,-0.84400004,-0.22100002,4.02846,0,nan,0.0,3,0,1,10,0
197303448,1643451327000123,386219284,-91534685,46663,94889,1.4610001,0.74728835,4.5290003,5.629,0.88,1.12,77,23,0.513,0.079,-0.50600004,-1.1880001,4.02846,0,nan,0.0,3,0,1,10,0
197505413,1643451327200123,386219301,-91534700,46898,95124,1.6190001,0.7473615,4.558,5.668,0.88,1.12,77,23,1.4990001,1.3290001,-0.693,-1.314,4.02846,0,nan,0.0,3,0,1,10,0
197705992,1643451327400123,386219337,-91534715,47247,95473,2.151,0.64694345,4.5950003,5.703,0.88,1.12,77,23,2.147,2.0440001,-0.65900004,-0.58100003,5.139219,0,nan,0.0,3,0,1,10,0
197905379,1643451327600123,386219362,-91534737,47120,95345,1.8290001,0.64702094,4.6320004,5.7460003,0.88,1.12,77,23,1.8110001,1.363,-1.192,0.0,5.139219,0,nan,0.0,3,0,1,10,0
198095496,1643451327800123,386219383,-91534754,47055,95281,1.8110001,0.6470977,4.663,5.7850003,0.88,1.12,77,23,1.2290001,1.1010001,-0.546,0.46400002,5.139219,0,nan,0.0,3,0,1,10,0
198301586,1643451328000123,386219398,-91534756,47091,95317,1.886,0.6471777,4.688,5.821,0.88,1.12,77,13,0.717,0.697,0.16900001,0.035,5.139219,0,nan,0.0,3,0,1,10,0
198504458,1643451328200123,386219402,-91534762,47148,95373,1.5280001,0.6472424,4.715,5.859,0.88,1.12,77,13,0.53900003,0.043,-0.53800005,-0.13800001,5.139219,0,nan,0.0,3,0,1,10,0
198701600,1643451328400123,386219421,-91534773,47124,95350,2.275,0.64733875,4.7530003,5.9030004,0.88,1.12,77,13,1.3620001,1.266,-0.50100005,0.97,5.139219,0,nan,0.0,3,0,1,10,0
198903425,1643451328600123,386219427,-91534779,46978,95203,2.332,0.6474376,4.7990003,5.939,0.88,1.12,77,13,0.70400006,0.669,-0.21800001,0.47800002,5.139219,0,nan,0.0,3,0,1,10,0
199107563,1643451328800123,386219445,-91534775,46677,94903,2.2700002,0.6475337,4.8450003,5.9750004,0.88,1.12,77,13,1.1880001,1.136,0.34800002,0.78700006,5.139219,0,nan,0.0,3,0,1,10,0
199308414,1643451329000123,386219463,-91534765,46723,94949,1.8770001,0.6476133,4.8830004,6.011,0.88,1.12,77,27,1.105,1.0090001,0.45000002,-0.279,5.139219,0,nan,0.0,3,0,1,10,0
199504479,1643451329200123,386219490,-91534757,46866,95092,1.9190001,0.64769447,4.918,6.05,0.88,1.12,77,27,1.6290001,1.6220001,0.148,-0.619,5.139219,0,nan,0.0,3,0,1,10,0
199706542,1643451329400123,386219503,-91534764,47017,95243,1.6040001,0.64776236,4.953,6.0920005,0.88,1.12,77,27,0.698,0.31500003,-0.623,-0.13000001,5.139219,0,nan,0.0,3,0,1,10,0
199906421,1643451329600123,386219512,-91534772,47425,95651,1.4080001,0.6478221,4.9830003,6.13,0.88,1.12,77,27,0.45200002,0.326,-0.314,-0.91300005,5.139219,0,nan,0.0,3,0,1,10,0
200106787,1643451329800123,386219526,-91534776,47748,95974,1.8730001,0.6479013,5.0200005,6.1730003,0.88,1.12,77,27,0.794,0.76900005,-0.19800001,-0.57500005,5.139219,0,nan,0.0,3,0,1,10,0
200306587,1643451330000123,386219530,-91534779,48199,96424,1.9180001,0.6479824,5.059,6.215,0.88,1.12,77,20,0.358,-0.24900001,-0.25800002,-0.07300001,5.139219,0,nan,0.0,3,0,1,10,0
200507426,1643451330200123,386219533,-91534793,48260,96485,1.5500001,0.64804804,5.09,6.254,0.88,1.12,77,20,0.89300007,0.22800002,-0.86300004,0.017,5.139219,0,nan,0.0,3,0,1,10,0
200695458,1643451330400123,386219547,-91534799,48314,96539,2.0300002,0.64813393,5.1200004,6.2980003,0.88,1.12,77,20,0.93600005,0.934,-0.053000003,-0.177,5.139219,0,nan,0.0,3,0,1,10,0
200903476,1643451330600123,386219567,-91534802,48308,96533,1.8610001,0.6482126,5.1470003,6.3310003,0.88,1.12,77,20,1.064,1.024,-0.29000002,1.097,5.139219,0,nan,0.0,3,0,1,10,0
201102439,1643451330800123,386219593,-91534798,48136,96362,1.9820001,0.6482964,5.1710005,6.3710003,0.88,1.12,77,20,1.6960001,1.6500001,0.39400002,0.55300003,5.139219,0,nan,0.0,3,0,1,10,0
201307260,1643451331000123,386219591,-91534784,48002,96227,1.6300001,0.6483654,5.196,6.4080005,0.88,1.12,77,22,0.632,-0.393,0.49400002,-0.85600007,5.139219,0,nan,0.0,3,0,1,10,0
201505457,1643451331200123,386219567,-91534784,48188,96414,2.016,0.64845073,5.2180004,6.433,0.88,1.12,77,22,1.784,-1.7570001,-0.31300002,-0.38900003,5.139219,0,nan,0.0,3,0,1,10,0
201707456,1643451331400123,386219567,-91534787,48227,96453,1.9530001,0.6485333,5.2400002,6.465,0.88,1.12,77,22,0.65300006,0.62600005,-0.18800001,-0.23200001,5.139219,0,nan,0.0,3,0,1,10,0
201907405,1643451331600123,386219573,-91534786,48035,96261,2.0760002,0.648621,5.26,6.4960003,0.88,1.12,77,22,0.57000005,0.57000005,-0.006,-0.16000001,5.139219,0,nan,0.0,3,0,1,10,0
202107389,1643451331800123,386219593,-91534789,48065,96291,2.167,0.6487127,5.289,6.5290003,0.88,1.12,77,22,1.302,1.261,-0.323,-0.051000003,5.139219,0,nan,0.0,3,0,1,10,0
202307880,1643451332000123,386219601,-91534789,48205,96430,1.5100001,0.6487764,5.32,6.5610003,0.88,1.12,77,20,0.29000002,0.21900001,0.19100001,-0.268,5.139219,0,nan,0.0,3,0,1,10,0
202507622,1643451332200123,386219615,-91534776,48163,96388,1.8440001,0.6488544,5.346,6.5880003,0.88,1.12,77,20,1.1570001,0.915,0.708,0.291,5.139219,0,nan,0.0,3,0,1,10,0
202706420,1643451332400123,386219624,-91534772,48574,96800,1.393,0.6489132,5.3650002,6.6110005,0.88,1.12,77,20,0.29200003,0.275,-0.097,-0.73700005,5.139219,0,nan,0.0,3,0,1,10,0
202907620,1643451332600123,386219614,-91534771,48897,97123,1.6760001,0.6489904,5.38,6.6400003,0.88,1.12,77,20,0.794,-0.791,0.074,-1.6470001,5.139219,0,nan,0.0,3,0,1,10,0
203100461,1643451332800123,386219614,-91534772,49224,97450,1.4770001,0.64905286,5.393,6.6590004,0.88,1.12,77,20,0.272,0.21100001,-0.172,-1.291,5.139219,0,nan,0.0,3,0,1,10,0
203302480,1643451333000123,386219613,-91534767,49199,97425,1.452,0.64911413,5.4040003,6.6790004,0.88,1.12,77,20,0.294,-0.115,0.27100003,-0.065000005,5.139219,0,nan,0.0,3,0,1,10,0
203502543,1643451333200123,386219610,-91534762,49319,97545,1.6150001,0.6491824,5.4110003,6.6920004,0.88,1.12,77,20,0.21700001,-0.17,0.135,-0.356,5.139219,0,nan,0.0,3,0,1,10,0
203699458,1643451333400123,386219606,-91534756,48903,97129,1.217,0.6492339,5.418,6.708,0.88,1.12,77,20,0.23700002,0.16800001,0.16700001,-0.50200003,5.139219,0,nan,0.0,3,0,1,10,0
203903452,1643451333600123,386219607,-91534752,48562,96788,1.7500001,0.64930767,5.4280005,6.7240005,0.88,1.12,77,20,0.312,0.30600002,0.065000005,-0.060000002,5.139219,0,nan,0.0,3,0,1,10,0
204103469,1643451333800123,386219606,-91534737,48489,96714,1.3770001,0.64936596,5.4370003,6.7370005,0.88,1.12,77,20,0.86600006,-0.165,0.85,0.395,5.139219,0,nan,0.0,3,0,1,10,0
204303136,1643451334000123,386219597,-91534720,48062,96288,1.253,0.64941883,5.433,6.742,0.88,1.12,77,13,0.47700003,-0.0050000004,0.47700003,0.014,5.139219,0,nan,0.0,3,0,1,10,0
204503409,1643451334200123,386219602,-91534711,47853,96079,1.6140001,0.6494869,5.425,6.748,0.88,1.12,77,13,0.8880001,0.87500006,0.149,0.42100003,5.139219,0,nan,0.0,3,0,1,10,0
204703414,1643451334400123,386219609,-91534710,48142,96368,1.365,0.64954454,5.4160004,6.7570004,0.88,1.12,77,13,0.51000005,0.44300002,-0.254,-0.559,5.139219,0,nan,0.0,3,0,1,10,0
204907414,1643451334600123,386219604,-91534704,48488,96714,1.748,0.6496183,5.4100003,6.7690005,0.88,1.12,77,13,0.47200003,-0.384,0.273,-0.75000006,5.139219,0,nan,0.0,3,0,1,10,0
205103414,1643451334800123,386219577,-91534688,48378,96604,1.7400001,0.76853037,5.406,6.775,0.88,1.12,77,13,1.659,-1.4990001,0.71000004,-0.72300005,4.122195,0,nan,0.0,3,0,1,10,0
205299456,1643451335000124,386219544,-91534684,48234,96460,2.0700002,0.7686042,5.405,6.781,0.88,1.12,77,28,1.5150001,-1.4610001,-0.39900002,-0.72300005,4.122195,0,nan,0.0,3,0,1,10,0
205504494,1643451335200124,386219525,-91534686,48294,96520,1.603,0.7686613,5.406,6.7770004,0.88,1.12,77,28,0.60200006,-0.597,-0.081,-0.95900005,4.122195,0,nan,0.0,3,0,1,10,0
205709045,1643451335400124,386219510,-91534684,48022,96247,1.5430001,0.76871645,5.4020004,6.7730002,0.88,1.12,77,28,0.56700003,-0.56600004,-0.038000003,0.344,4.122195,0,nan,0.0,3,0,1,10,0
205899593,1643451335600124,386219491,-91534681,47662,95888,1.488,0.7687695,5.3970003,6.7660003,0.88,1.12,77,28,0.85200006,-0.85,0.052,0.61800003,4.122195,0,nan,0.0,3,0,1,10,0
206103761,1643451335800124,386219478,-91534672,47233,95459,1.337,0.7688172,5.392,6.76,0.88,1.12,77,28,0.55,-0.38700002,0.39000002,0.462,4.122195,0,nan,0.0,3,0,1,10,0
206307432,1643451336000124,386219470,-91534669,46852,95078,1.358,0.7688657,5.3880005,6.7590003,0.88,1.12,77,20,0.27600002,-0.147,-0.23300001,0.64500004,4.122195,0,nan,0.0,3,0,1,10,0
206509776,1643451336200124,386219457,-91534670,46201,94427,1.603,0.7689227,5.3840003,6.7570004,0.88,1.12,77,20,0.67200005,-0.657,-0.13800001,0.35300002,4.122195,0,nan,0.0,3,0,1,10,0
206708446,1643451336400124,386219460,-91534660,45898,94124,1.631,0.7689811,5.3830004,6.755,0.88,1.12,77,20,0.901,0.717,0.545,-0.134,4.122195,0,nan,0.0,3,0,1,10,0
206910436,1643451336600124,386219451,-91534653,45789,94015,1.723,0.7690425,5.3770003,6.748,0.88,1.12,77,20,0.632,-0.628,-0.07,-0.09900001,4.122195,0,nan,0.0,3,0,1,10,0
207105564,1643451336800124,386219431,-91534645,45586,93812,1.4480001,0.769094,5.366,6.7430005,0.88,1.12,77,20,1.131,-1.0300001,0.46600002,0.33200002,4.122195,0,nan,0.0,3,0,1,10,0
207310442,1643451337000124,386219412,-91534631,45386,93612,1.3130001,0.7691409,5.3510003,6.7390003,0.88,1.12,77,19,0.80300003,-0.615,0.517,0.46600002,4.122195,0,nan,0.0,3,0,1,10,0
207508457,1643451337200124,386219398,-91534620,45562,93788,1.542,0.7691959,5.339,6.7330003,0.88,1.12,77,19,0.555,-0.50100005,0.23900001,0.032,4.122195,0,nan,0.0,3,0,1,10,0
207705528,1643451337400124,386219417,-91534624,45601,93827,1.886,0.5005899,5.333,6.727,0.88,1.12,77,19,2.282,2.2010002,-0.60200006,0.837,5.4526544,0,nan,0.0,3,0,1,10,0
207906450,1643451337600124,386219441,-91534627,45536,93762,1.7300001,0.5006864,5.327,6.7190003,0.88,1.12,77,19,1.332,1.3180001,-0.19700001,1.151,5.4526544,0,nan,0.0,3,0,1,10,0
208110229,1643451337800124,386219466,-91534631,45274,93500,2.0300002,0.6586216,5.326,6.7180004,0.88,1.12,77,19,1.7700001,1.7340001,-0.356,1.2240001,5.682695,0,nan,0.0,3,0,1,10,0
208310557,1643451338000124,386219473,-91534629,45449,93675,1.294,0.65867555,5.3250003,6.714,0.88,1.12,77,20,0.448,0.44700003,0.016,-0.53400004,5.682695,0,nan,0.0,3,0,1,10,0
208504903,1643451338200124,386219475,-91534623,45454,93680,1.593,0.65874183,5.322,6.7120004,0.88,1.12,77,20,0.289,0.26000002,0.126,0.42000002,5.682695,0,nan,0.0,3,0,1,10,0
208705163,1643451338400124,386219460,-91534622,45374,93600,1.8590001,0.6588192,5.3230004,6.7070003,0.88,1.12,77,20,1.0760001,-1.001,-0.39400002,-0.014,5.682695,0,nan,0.0,3,0,1,10,0
208910734,1643451338600124,386219441,-91534616,45456,93682,1.756,0.65889233,5.3230004,6.702,0.88,1.12,77,20,0.80300003,-0.73800004,0.316,-0.22600001,5.682695,0,nan,0.0,3,0,1,10,0
209106448,1643451338800124,386219430,-91534601,45246,93472,1.5380001,0.6589564,5.32,6.7060003,0.88,1.12,77,20,0.708,-0.32500002,0.629,0.469,5.682695,0,nan,0.0,3,0,1,10,0
209306560,1643451339000124,386219411,-91534593,45112,93338,1.932,0.65903664,5.3180003,6.7040005,0.88,1.12,77,22,1.1140001,-1.108,-0.11800001,-0.25800002,5.682695,0,nan,0.0,3,0,1,10,0
209506444,1643451339200124,386219394,-91534589,45039,93265,2.0800002,0.6591232,5.322,6.6970005,0.88,1.12,77,22,0.56700003,-0.56600004,0.031000001,0.001,5.682695,0,nan,0.0,3,0,1,10,0
209708427,1643451339400124,386219397,-91534579,44803,93029,1.8210001,0.65919894,5.3310003,6.689,0.88,1.12,77,22,0.60400003,0.425,0.42900002,1.041,5.682695,0,nan,0.0,3,0,1,10,0
209908413,1643451339600124,386219394,-91534560,44531,92757,1.263,0.65925145,5.334,6.6790004,0.88,1.12,77,22,0.92600006,-0.058000002,0.924,0.29500002,5.682695,0,nan,0.0,3,0,1,10,0
210106039,1643451339800124,386219382,-91534544,44177,92403,1.6650001,0.6593208,5.3320003,6.6740003,0.88,1.12,77,22,0.809,-0.716,0.377,-0.010000001,5.682695,0,nan,0.0,3,0,1,10,0
210311598,1643451340000124,386219371,-91534541,43958,92184,1.363,0.65937734,5.3240004,6.6590004,0.88,1.12,77,16,0.44200003,-0.423,-0.12900001,0.15200001,5.682695,0,nan,0.0,3,0,1,10,0
210506456,1643451340200124,386219369,-91534540,43952,92177,1.475,0.6594388,5.314,6.6440005,0.88,1.12,77,16,0.22200002,0.20600002,-0.083000004,0.70600003,5.682695,0,nan,0.0,3,0,1,10,0
210706455,1643451340400124,386219366,-91534538,43823,92048,1.3100001,0.65949327,5.3040004,6.6260004,0.88,1.12,77,16,0.081,0.013,0.080000006,0.58000004,5.682695,0,nan,0.0,3,0,1,10,0
210906443,1643451340600124,386219361,-91534532,43653,91879,1.2240001,0.65954405,5.2920003,6.6050005,0.88,1.12,77,16,0.289,-0.072000004,0.28,0.91400003,5.682695,0,nan,0.0,3,0,1,10,0
211103754,1643451340800124,386219356,-91534527,43863,92088,1.595,0.6596104,5.2780004,6.5850005,0.88,1.12,77,16,0.24700001,0.21800001,0.116000004,0.098000005,5.682695,0,nan,0.0,3,0,1,10,0
211307501,1643451341000124,386219350,-91534529,43732,91957,1.0830001,0.6596554,5.2640004,6.5680003,0.88,1.12,77,20,0.34800002,-0.21800001,-0.272,0.305,5.682695,0,nan,0.0,3,0,1,10,0
211504446,1643451341200124,386219338,-91534533,43613,91839,1.159,0.65970355,5.249,6.5550003,0.88,1.12,77,20,0.5,-0.47300002,-0.163,0.33400002,5.682695,0,nan,0.0,3,0,1,10,0
211704461,1643451341400124,386219325,-91534536,43451,91677,1.416,0.6597623,5.2320004,6.5400004,0.88,1.12,77,20,0.46400002,-0.441,-0.141,-0.059000004,5.682695,0,nan,0.0,3,0,1,10,0
211904454,1643451341600124,386219312,-91534537,43412,91638,1.2950001,0.6598163,5.214,6.5230002,0.88,1.12,77,20,0.58000004,-0.578,-0.046000004,0.1,5.682695,0,nan,0.0,3,0,1,10,0
212108416,1643451341800124,386219302,-91534536,43515,91741,1.2570001,0.6598685,5.196,6.504,0.88,1.12,77,20,0.29500002,-0.29200003,-0.037,0.079,5.682695,0,nan,0.0,3,0,1,10,0
212306833,1643451342000124,386219293,-91534536,43435,91660,1.4210001,0.6599275,5.1780005,6.4860005,0.88,1.12,77,20,0.41700003,-0.40500003,-0.09900001,-0.037,5.682695,0,nan,0.0,3,0,1,10,0
212508413,1643451342200124,386219284,-91534542,43254,91480,1.2290001,0.65997845,5.1600003,6.4670005,0.88,1.12,77,20,0.53300005,-0.312,-0.432,-0.012,5.682695,0,nan,0.0,3,0,1,10,0
212706979,1643451342400124,386219284,-91534549,43124,91349,1.4940001,0.66004056,5.144,6.4500003,0.88,1.12,77,20,0.43800002,0.36200002,-0.246,0.4,5.682695,0,nan,0.0,3,0,1,10,0
212906461,1643451342600124,386219292,-91534553,43123,91349,1.8610001,0.66011786,5.138,6.445,0.88,1.12,77,20,0.67300004,0.65900004,-0.13800001,0.744,5.682695,0,nan,0.0,3,0,1,10,0
213108420,1643451342800124,386219298,-91534558,43312,91538,1.258,0.6601701,5.138,6.433,0.88,1.12,77,20,0.379,0.30400002,-0.22600001,-0.127,5.682695,0,nan,0.0,3,0,1,10,0
213309429,1643451343000124,386219302,-91534559,43548,91774,1.074,0.6602147,5.137,6.4230003,0.88,1.12,77,20,0.23500001,0.22800002,0.055000003,-0.29500002,5.682695,0,nan,0.0,3,0,1,10,0
213506454,1643451343200124,386219305,-91534552,43528,91754,1.465,0.6602757,5.138,6.4110003,0.88,1.12,77,20,0.508,0.22100002,0.45700002,0.22500001,5.682695,0,nan,0.0,3,0,1,10,0
213703082,1643451343400124,386219313,-91534545,43380,91606,1.7850001,0.66034967,5.1390004,6.4030004,0.88,1.12,77,20,0.64000005,0.634,0.08800001,0.734,5.682695,0,nan,0.0,3,0,1,10,0
213913415,1643451343600124,386219315,-91534537,43419,91645,1.046,0.6603931,5.1400003,6.3950005,0.88,1.12,77,20,0.49,-0.028,0.48900002,-0.014,5.682695,0,nan,0.0,3,0,1,10,0
214107695,1643451343800124,386219310,-91534526,43552,91777,1.5920001,0.6604593,5.142,6.387,0.88,1.12,77,20,0.521,-0.38500002,0.35200003,-0.28500003,5.682695,0,nan,0.0,3,0,1,10,0
214309449,1643451344000124,386219309,-91534520,43440,91666,1.613,0.66052634,5.1450005,6.3830004,0.88,1.12,77,20,0.2,0.18,0.087000005,0.439,5.682695,0,nan,0.0,3,0,1,10,0
214505580,1643451344200124,386219300,-91534515,43147,91373,1.1220001,0.6605729,5.1470003,6.3760004,0.88,1.12,77,20,0.41700003,-0.33600003,0.24700001,0.328,5.682695,0,nan,0.0,3,0,1,10,0
214707991,1643451344400124,386219295,-91534505,42881,91106,1.3520001,0.6606289,5.151,6.3690004,0.88,1.12,77,20,0.42800003,0.009000001,0.42800003,0.605,5.682695,0,nan,0.0,3,0,1,10,0
214908414,1643451344600124,386219297,-91534503,42850,91076,1.4440001,0.660689,5.1580005,6.367,0.88,1.12,77,20,0.317,0.19100001,-0.25300002,0.18800001,5.682695,0,nan,0.0,3,0,1,10,0
215107459,1643451344800124,386219294,-91534509,42872,91098,1.404,0.66074723,5.162,6.3620005,0.88,1.12,77,20,0.46500003,-0.342,-0.31500003,0.058000002,5.682695,0,nan,0.0,3,0,1,10,0
215307458,1643451345000124,386219287,-91534517,42780,91006,1.2030001,0.660797,5.1660004,6.359,0.88,1.12,72,13,0.573,-0.317,-0.47800002,0.23600002,5.682695,0,nan,0.0,3,0,1,10,0
215512417,1643451345200124,386219293,-91534519,42869,91095,1.7490001,0.6608696,5.17,6.3610005,0.88,1.12,72,13,0.46,0.41200003,0.20300001,0.25800002,5.682695,0,nan,0.0,3,0,1,10,0
215710826,1643451345400124,386219307,-91534513,42842,91067,1.702,0.6609403,5.1710005,6.3620005,0.88,1.12,72,13,0.91,0.864,0.28500003,0.503,5.682695,0,nan,0.0,3,0,1,10,0
215913935,1643451345600124,386219335,-91534515,42760,90985,1.6940001,0.7603556,5.1720004,6.3690004,0.88,1.12,72,13,1.6100001,1.5870001,-0.273,1.552,5.867846,0,nan,0.0,3,0,1,10,0
216109565,1643451345800125,386219344,-91534517,42739,90965,1.215,0.76039946,5.1710005,6.3650002,0.88,1.12,72,13,0.128,0.048,0.119,-0.40600002,5.867846,0,nan,0.0,3,0,1,10,0
216304933,1643451346000125,386219355,-91534522,42937,91163,1.5550001,0.7604554,5.169,6.3640003,0.88,1.12,77,24,0.55300003,0.43,-0.34800002,0.298,5.867846,0,nan,0.0,3,0,1,10,0
216502484,1643451346200125,386219351,-91534531,42996,91222,1.557,0.7605117,5.1660004,6.367,0.88,1.12,77,24,0.51000005,-0.35000002,-0.37100002,-0.762,5.867846,0,nan,0.0,3,0,1,10,0
216708972,1643451346400125,386219342,-91534538,42772,90997,1.1370001,0.7605527,5.163,6.3750005,0.88,1.12,77,24,0.29700002,-0.097,-0.28100002,0.048,5.867846,0,nan,0.0,3,0,1,10,0
216904730,1643451346600125,386219344,-91534538,42856,91082,1.2080001,0.76059616,5.1600003,6.387,0.88,1.12,77,24,0.289,0.083000004,0.277,-0.26500002,5.867846,0,nan,0.0,3,0,1,10,0
217105443,1643451346800125,386219344,-91534530,42899,91125,1.067,0.7606347,5.156,6.387,0.88,1.12,77,24,0.51100004,-0.17500001,0.48000002,0.31,5.867846,0,nan,0.0,3,0,1,10,0
217305452,1643451347000125,386219349,-91534526,42942,91168,1.588,0.76069194,5.149,6.385,0.88,1.12,77,17,0.323,0.31500003,-0.071,0.095000006,5.867846,0,nan,0.0,3,0,1,10,0
217505503,1643451347200125,386219342,-91534527,42738,90964,1.6350001,0.7607508,5.143,6.372,0.88,1.12,77,17,0.284,-0.282,-0.039,-0.128,5.867846,0,nan,0.0,3,0,1,10,0
217707415,1643451347400125,386219338,-91534529,42725,90951,1.3970001,0.76080126,5.1390004,6.3650002,1.03,1.16,77,17,0.21100001,-0.123,-0.172,-0.093,5.867846,0,nan,0.0,3,0,1,9,0
217908414,1643451347600125,386219328,-91534528,42666,90892,1.5920001,0.76085865,5.135,6.3560004,1.03,1.16,77,17,0.48400003,-0.43400002,0.21400002,-0.29000002,5.867846,0,nan,0.0,3,0,1,9,0
218106414,1643451347800125,386219317,-91534517,42544,90770,1.2270001,0.7609028,5.1330004,6.3480005,1.03,1.16,77,17,0.669,-0.393,0.54200006,-0.0050000004,5.867846,0,nan,0.0,3,0,1,9,0
218306419,1643451348000125,386219314,-91534511,42621,90847,1.233,0.76094735,5.1330004,6.3450003,1.03,1.16,77,25,0.157,-0.157,0.003,0.101,5.867846,0,nan,0.0,3,0,1,9,0
218505538,1643451348200125,386219321,-91534512,42822,91048,1.6610001,0.7610072,5.131,6.333,1.03,1.16,77,25,0.30400002,0.30400002,-0.011000001,0.14400001,5.867846,0,nan,0.0,3,0,1,9,0
218705535,1643451348400125,386219325,-91534516,42936,91162,1.033,0.7610444,5.129,6.3220005,1.03,1.16,77,25,0.29900002,0.112,-0.277,-0.18300001,5.867846,0,nan,0.0,3,0,1,9,0
218900408,1643451348600125,386219324,-91534517,42851,91077,1.417,0.76109546,5.13,6.3170004,1.03,1.16,77,25,0.086,0.086,0.001,0.26900002,5.867846,0,nan,0.0,3,0,1,9,0
219100550,1643451348800125,386219307,-91534523,42741,90966,1.7360001,0.76115793,5.131,6.314,1.03,1.16,77,25,1.164,-1.039,-0.52500004,-0.266,5.867846,0,nan,0.0,3,0,1,9,0
219306188,1643451349000125,386219305,-91534529,42965,91191,1.067,0.7611964,5.1340003,6.307,1.03,1.16,77,31,0.016,0.016,-0.002,-0.034,5.867846,0,nan,0.0,3,0,1,9,0
219504458,1643451349200125,386219306,-91534533,42881,91107,1.2550001,0.76124156,5.1320004,6.2980003,1.03,1.16,77,31,0.335,0.156,-0.29700002,0.652,5.867846,0,nan,0.0,3,0,1,9,0
219709409,1643451349400125,386219301,-91534543,43144,91370,1.5970001,0.76129913,5.129,6.2840004,1.03,1.16,77,31,0.85600007,-0.69100004,-0.505,-1.0760001,5.867846,0,nan,0.0,3,0,1,9,0
219904441,1643451349600125,386219302,-91534552,43518,91744,1.314,0.76134646,5.131,6.2760005,1.03,1.16,77,31,0.275,-0.025,-0.273,-0.42800003,5.867846,0,nan,0.0,3,0,1,9,0
220109416,1643451349800125,386219294,-91534552,43484,91710,1.7730001,0.76141036,5.131,6.2580004,1.03,1.16,77,31,0.54800004,-0.532,0.132,-0.148,5.867846,0,nan,0.0,3,0,1,9,0
220306556,1643451350000125,386219293,-91534547,43549,91775,1.0400001,0.7614477,5.1260004,6.2400002,1.03,1.16,77,22,0.24400002,0.011000001,0.24400002,0.19900002,5.867846,0,nan,0.0,3,0,1,9,0
220506435,1643451350200125,386219274,-91534541,43343,91569,1.687,0.7615084,5.117,6.221,1.03,1.16,77,22,1.0020001,-1.0020001,0.004,-0.675,5.867846,0,nan,0.0,3,0,1,9,0
220706902,1643451350400125,386219266,-91534541,43404,91629,1.144,0.7615496,5.11,6.2060003,1.03,1.16,77,22,0.35000002,-0.349,0.019000001,0.30600002,5.867846,0,nan,0.0,3,0,1,9,0
220910945,1643451350600125,386219268,-91534540,43463,91689,1.358,0.76159847,5.103,6.189,1.0699999,1.16,77,22,0.15,0.080000006,0.127,0.24900001,5.867846,0,nan,0.0,3,0,1,8,0
221110411,1643451350800125,386219266,-91534539,43481,91707,1.5830001,0.7616555,5.0950003,6.175,1.0699999,1.16,77,22,0.17400001,-0.158,-0.074,-0.124000005,5.867846,0,nan,0.0,3,0,1,8,0
221307204,1643451351000125,386219266,-91534542,43669,91894,1.5270001,0.7617105,5.0860004,6.1590004,1.0699999,1.16,77,14,0.21100001,-0.201,-0.064,-0.33600003,5.867846,0,nan,0.0,3,0,1,8,0
221508906,1643451351200125,386219266,-91534540,43735,91961,0.966,0.7617453,5.076,6.1460004,1.0699999,1.16,77,14,0.171,0.021000002,0.17,-0.14500001,5.867846,0,nan,0.0,3,0,1,8,0
221712418,1643451351400125,386219259,-91534536,43676,91902,1.3130001,0.76179254,5.064,6.1380005,1.0699999,1.16,77,14,0.41700003,-0.416,0.032,0.051000003,5.867846,0,nan,0.0,3,0,1,8,0
221908662,1643451351600125,386219259,-91534539,43689,91915,1.327,0.76184034,5.0530005,6.13,1.0699999,1.16,77,14,0.193,0.13800001,-0.135,0.291,5.867846,0,nan,0.0,3,0,1,8,0
222112493,1643451351800125,386219267,-91534543,43832,92058,1.468,0.7618931,5.0420003,6.122,1.0699999,1.16,77,14,0.29000002,0.289,-0.023000002,0.24200001,5.867846,0,nan,0.0,3,0,1,8,0
222311911,1643451352000125,386219271,-91534545,43805,92031,1.3490001,0.7619416,5.032,6.1140003,1.0699999,1.16,82,16,0.21700001,0.201,-0.083000004,0.36800003,5.867846,0,nan,0.0,3,0,1,8,0
222512540,1643451352200125,386219264,-91534543,43681,91906,1.4280001,0.7619931,5.024,6.1120005,1.0699999,1.16,82,16,0.5,-0.5,-0.0050000004,-0.10300001,5.867846,0,nan,0.0,3,0,1,8,0
222707322,1643451352400125,386219261,-91534543,43745,91970,1.3110001,0.7620402,5.018,6.116,1.0699999,1.16,82,16,0.034,-0.033,-0.010000001,-0.23700002,5.867846,0,nan,0.0,3,0,1,8,0
222907904,1643451352600125,386219262,-91534543,43872,92098,1.4480001,0.76209223,5.013,6.117,1.0699999,1.16,82,16,0.20700002,-0.19900002,0.057000004,-0.101,5.867846,0,nan,0.0,3,0,1,8,0
223110428,1643451352800125,386219266,-91534541,43882,92107,1.641,0.76215136,5.012,6.116,1.0699999,1.16,82,16,0.363,0.35300002,0.085,0.120000005,5.867846,0,nan,0.0,3,0,1,8,0
223311418,1643451353000125,386219266,-91534536,43887,92113,1.5530001,0.76220727,5.0140004,6.117,1.0699999,1.16,82,22,0.223,-0.18100001,0.13000001,-0.18200001,5.867846,0,nan,0.0,3,0,1,8,0
223508486,1643451353200125,386219282,-91534539,43818,92044,1.7040001,0.7622685,5.0160003,6.1180005,0.98999995,1.16,82,22,0.54300004,0.521,-0.15100001,0.661,5.867846,0,nan,0.0,3,0,1,9,0
223711415,1643451353400125,386219301,-91534541,43766,91992,1.715,0.7623303,5.017,6.1190004,0.95,1.15,82,22,0.44700003,0.42900002,0.124000005,0.49600002,5.867846,0,nan,0.0,3,0,1,10,0
223910105,1643451353600125,386219308,-91534546,43906,92132,1.514,0.7623848,5.0160003,6.1190004,0.95,1.15,82,22,0.48600003,-0.441,-0.20400001,-0.64400005,5.867846,0,nan,0.0,3,0,1,10,0
224101580,1643451353800125,386219306,-91534552,44155,92381,1.6020001,0.7624422,5.012,6.1210003,0.95,1.15,82,22,0.90900004,-0.89400005,-0.162,-0.961,5.867846,0,nan,0.0,3,0,1,10,0
224308903,1643451354000125,386219314,-91534557,44287,92513,1.3620001,0.7624912,5.0150003,6.124,0.95,1.15,82,23,0.45100003,0.402,-0.20500001,-0.21900001,5.867846,0,nan,0.0,3,0,1,10,0
224512775,1643451354200125,386219331,-91534567,44566,92792,1.1,0.76253086,5.0220003,6.129,0.95,1.15,82,23,0.328,0.23200001,-0.23300001,-0.462,5.867846,0,nan,0.0,3,0,1,10,0
224708851,1643451354400125,386219339,-91534569,44688,92914,1.5120001,0.76258516,5.025,6.1330004,0.95,1.15,82,23,0.112,-0.112,0.003,-0.298,5.867846,0,nan,0.0,3,0,1,10,0
224908604,1643451354600125,386219351,-91534572,44787,93013,1.5330001,0.7626403,5.026,6.135,0.95,1.15,82,23,0.3,0.25800002,-0.15300001,0.085,5.867846,0,nan,0.0,3,0,1,10,0
225109086,1643451354800125,386219358,-91534573,44773,92999,1.2030001,0.7626836,5.024,6.1330004,0.95,1.15,82,23,0.061000004,0.025,-0.055000003,-0.27100003,5.867846,0,nan,0.0,3,0,1,10,0
225307456,1643451355000125,386219364,-91534575,44906,93132,1.6350001,0.7627424,5.0230002,6.1320004,0.95,1.15,82,22,0.231,-0.22500001,-0.049000002,-0.25100002,5.867846,0,nan,0.0,3,0,1,10,0
225507439,1643451355200125,386219375,-91534581,45033,93259,1.1830001,0.7627847,5.0220003,6.1320004,0.95,1.15,82,22,0.397,0.268,-0.293,-0.065000005,5.867846,0,nan,0.0,3,0,1,10,0
225714419,1643451355400125,386219382,-91534590,45131,93357,1.9030001,0.7628533,5.025,6.1330004,0.95,1.15,82,22,0.4,-0.35200003,-0.18900001,-0.10300001,5.867846,0,nan,0.0,3,0,1,10,0
225912425,1643451355600125,386219381,-91534590,45051,93277,2.1100001,0.76292914,5.0340004,6.142,0.95,1.15,82,22,0.26900002,-0.268,-0.011000001,-0.18300001,5.867846,0,nan,0.0,3,0,1,10,0
226111424,1643451355800125,386219371,-91534588,45002,93228,1.802,0.7629939,5.0410004,6.1460004,0.95,1.15,82,22,0.71500003,-0.702,-0.13800001,-1.1830001,5.867846,0,nan,0.0,3,0,1,10,0
226316411,1643451356000125,386219360,-91534582,45153,93379,1.549,0.7630495,5.044,6.1520004,0.95,1.15,82,28,1.266,-1.11,0.609,-0.4,5.867846,0,nan,0.0,3,0,1,10,0
226514099,1643451356200125,386219360,-91534581,45336,93562,1.4180001,0.7631005,5.043,6.156,0.95,1.15,82,28,0.15300001,-0.074,-0.134,-0.33900002,5.867846,0,nan,0.0,3,0,1,10,0
226705409,1643451356400125,386219363,-91534591,45516,93741,1.503,0.76315445,5.0420003,6.1530004,0.95,1.15,82,28,0.49600002,-0.32500002,-0.374,-0.23700002,5.867846,0,nan,0.0,3,0,1,10,0
226914412,1643451356600125,386219373,-91534600,45761,93987,1.3950001,0.7632045,5.043,6.15,0.95,1.15,82,28,0.266,0.25800002,0.064,-0.128,5.867846,0,nan,0.0,3,0,1,10,0
227114494,1643451356800126,386219384,-91534604,45896,94122,1.294,0.76325095,5.045,6.1470003,0.95,1.15,82,28,0.31,0.29000002,-0.11100001,-0.14400001,5.867846,0,nan,0.0,3,0,1,10,0
227315413,1643451357000126,386219406,-91534605,45974,94200,1.6430001,0.760992,5.044,6.1450005,0.95,1.15,76,26,1.2360001,1.225,0.16800001,0.21300001,6.1444025,0,nan,0.0,3,0,1,10,0
227513448,1643451357200126,386219422,-91534604,45949,94175,1.8640001,0.7610592,5.044,6.143,0.95,1.15,76,26,0.569,0.568,0.033,0.19800001,6.1444025,0,nan,0.0,3,0,1,10,0
227720410,1643451357400126,386219423,-91534596,45596,93822,1.4610001,0.76111186,5.045,6.144,0.95,1.15,76,26,0.22900002,0.158,0.16600001,0.509,6.1444025,0,nan,0.0,3,0,1,10,0
227913443,1643451357600126,386219422,-91534595,45624,93849,1.5400001,0.7611674,5.046,6.144,0.95,1.15,76,26,0.257,-0.252,0.055000003,-0.337,6.1444025,0,nan,0.0,3,0,1,10,0
228116996,1643451357800126,386219434,-91534599,45736,93961,1.539,0.7612227,5.039,6.1400003,0.84,1.11,76,26,0.41400003,-0.354,-0.215,-0.172,6.1444025,0,nan,0.0,3,0,1,11,0
228316440,1643451358000126,386219448,-91534604,45833,94059,1.5680001,0.7612793,5.0330005,6.1450005,0.84,1.11,77,23,0.223,-0.223,0.001,-0.047000002,6.1444025,0,nan,0.0,3,0,1,11,0
228518434,1643451358200126,386219461,-91534607,45913,94139,1.442,0.7613311,5.0280004,6.1470003,0.84,1.11,77,23,0.19900002,-0.186,-0.07,0.029000001,6.1444025,0,nan,0.0,3,0,1,11,0
228716419,1643451358400126,386219473,-91534607,46101,94327,1.4950001,0.7613851,5.0230002,6.1510005,0.84,1.11,77,23,0.615,-0.53400004,0.30600002,-0.316,6.1444025,0,nan,0.0,3,0,1,11,0
228915293,1643451358600126,386219485,-91534610,46254,94480,1.2390001,0.76142967,5.018,6.1480002,0.84,1.11,77,23,0.381,-0.29000002,-0.24700001,0.149,6.1444025,0,nan,0.0,3,0,1,11,0
229116413,1643451358800126,386219501,-91534617,46464,94690,1.6380001,0.7614885,5.012,6.1410003,0.84,1.11,77,23,0.23300001,-0.22900002,-0.040000003,-0.039,6.1444025,0,nan,0.0,3,0,1,11,0
229310839,1643451359000126,386219522,-91534623,46649,94875,1.457,0.76154107,5.006,6.135,0.84,1.11,76,23,0.27800003,0.25500003,-0.109000005,0.009000001,6.1444025,0,nan,0.0,3,0,1,11,0
229514456,1643451359200126,386219558,-91534629,46896,95122,1.738,0.7616036,5.0010004,6.1260004,0.84,1.11,76,23,1.044,1.044,0.004,0.38500002,6.1444025,0,nan,0.0,3,0,1,11,0
229714454,1643451359400126,386219597,-91534630,47185,95411,1.6,0.7616612,4.997,6.117,0.84,1.11,76,23,0.952,0.86800003,0.39100003,0.18800001,6.1444025,0,nan,0.0,3,0,1,11,0
229914446,1643451359600126,386219630,-91534626,47325,95551,1.6550001,0.76172084,4.991,6.1060004,0.84,1.11,76,23,0.651,0.62700003,0.177,0.045,6.1444025,0,nan,0.0,3,0,1,11,0
230114453,1643451359800126,386219664,-91534624,47485,95710,1.69,0.7617815,4.9880004,6.097,0.84,1.11,76,23,0.86,0.83300006,0.215,0.072000004,6.1444025,0,nan,0.0,3,0,1,11,0
230316445,1643451360000126,386219697,-91534626,47712,95938,1.6330001,0.76184034,4.9830003,6.091,0.84,1.11,76,22,0.54200006,0.536,-0.07700001,0.23700002,6.1444025,0,nan,0.0,3,0,1,11,0
230515955,1643451360200126,386219728,-91534633,47904,96130,1.6140001,0.7618985,4.977,6.0820003,0.84,1.11,76,22,0.537,0.508,-0.17300001,0.192,6.1444025,0,nan,0.0,3,0,1,11,0
230715884,1643451360400126,386219756,-91534634,48173,96399,1.218,0.7619423,4.972,6.0800004,0.84,1.11,76,22,0.50200003,0.057000004,0.499,0.448,6.1444025,0,nan,0.0,3,0,1,11,0
230911665,1643451360600126,386219773,-91534632,48327,96553,1.6730001,0.7620026,4.9680004,6.0810003,0.84,1.11,76,22,0.086,-0.085,0.013,-0.13800001,6.1444025,0,nan,0.0,3,0,1,11,0
231112410,1643451360800126,386219787,-91534635,48513,96739,1.3410001,0.7620507,4.967,6.0820003,0.88,1.12,76,22,0.093,-0.011000001,-0.09200001,-0.47500002,6.1444025,0,nan,0.0,3,0,1,10,0
231311832,1643451361000126,386219800,-91534636,48678,96904,1.6710001,0.7621109,4.9690003,6.084,0.88,1.12,76,31,0.177,-0.16100001,0.074,-0.034,6.1444025,0,nan,0.0,3,0,1,10,0
231513414,1643451361200126,386219821,-91534644,48789,97015,1.269,0.7621565,4.972,6.0880003,0.88,1.12,76,31,0.9250001,0.72900003,-0.57000005,-0.314,6.1444025,0,nan,0.0,3,0,1,10,0
231712545,1643451361400126,386219848,-91534659,48859,97085,1.2600001,0.76220185,4.9760003,6.0950003,0.88,1.12,76,31,1.052,0.744,-0.744,-0.303,6.1444025,0,nan,0.0,3,0,1,10,0
231909428,1643451361600126,386219862,-91534669,49056,97282,1.7630001,0.7622652,4.98,6.103,0.88,1.12,76,31,0.289,-0.28800002,-0.028,-0.51600003,6.1444025,0,nan,0.0,3,0,1,10,0
232112571,1643451361800126,386219878,-91534673,49243,97469,1.858,0.762332,4.986,6.111,0.88,1.12,76,31,0.164,0.15100001,-0.064,0.19100001,6.1444025,0,nan,0.0,3,0,1,10,0
232312416,1643451362000126,386219896,-91534674,49522,97748,1.2030001,0.7623753,4.993,6.1180005,0.88,1.12,76,20,0.314,0.126,0.28800002,-0.013,6.1444025,0,nan,0.0,3,0,1,10,0
232512794,1643451362200126,386219891,-91534676,49710,97936,1.8310001,0.76244116,4.999,6.1260004,0.88,1.12,76,20,1.248,-1.233,-0.19000001,-0.781,6.1444025,0,nan,0.0,3,0,1,10,0
232713414,1643451362400126,386219888,-91534681,50008,98234,1.8410001,0.7625075,5.004,6.1410003,0.88,1.12,76,20,0.72900003,-0.726,-0.07,-0.90700006,6.1444025,0,nan,0.0,3,0,1,10,0
232908458,1643451362600126,386219889,-91534684,49922,98148,1.118,0.76254755,5.0090003,6.1510005,0.88,1.12,76,20,0.37,-0.264,-0.259,0.246,6.1444025,0,nan,0.0,3,0,1,10,0
233107440,1643451362800126,386219893,-91534688,50006,98232,1.8540001,0.76261425,5.017,6.1730003,1.0,1.42,76,20,0.37600002,-0.367,0.08400001,-0.324,6.1444025,0,nan,0.0,3,0,1,9,0
233309498,1643451363000126,386219899,-91534686,50255,98481,1.7270001,0.76267636,5.026,6.1910005,1.0,1.42,76,19,0.514,-0.381,0.34500003,-0.47400004,6.1444025,0,nan,0.0,3,0,1,9,0
233507540,1643451363200126,386219895,-91534687,50377,98603,2.0600002,0.7627504,5.0360003,6.2110004,1.0,1.42,76,19,0.89900005,-0.882,-0.17400001,-0.66300005,6.1444025,0,nan,0.0,3,0,1,9,0
233708503,1643451363400126,386219898,-91534687,50287,98512,1.241,0.76279503,5.044,6.234,1.0,1.42,76,19,0.275,-0.20700002,0.18,0.407,6.1444025,0,nan,0.0,3,0,1,9,0
233910424,1643451363600126,386219928,-91534685,50368,98594,1.9050001,0.7628635,5.051,6.2590003,1.0,1.42,76,19,1.365,1.317,0.36,1.062,6.1444025,0,nan,0.0,3,0,1,9,0
234118428,1643451363800126,386219954,-91534686,50447,98673,1.8730001,0.7629308,5.059,6.28,1.0,1.42,76,19,0.55,0.549,-0.033,0.22500001,6.1444025,0,nan,0.0,3,0,1,9,0
234313160,1643451364000126,386219972,-91534690,50531,98757,1.82,0.7629963,5.0680003,6.3020005,1.0,1.42,76,26,0.323,0.31500003,-0.069000006,0.41400003,6.1444025,0,nan,0.0,3,0,1,9,0
234507899,1643451364200126,386219984,-91534696,50550,98775,1.4760001,0.76304936,5.076,6.3240004,1.0,1.42,76,26,0.23200001,0.08400001,-0.216,0.286,6.1444025,0,nan,0.0,3,0,1,9,0
234713367,1643451364400126,386220003,-91534699,50735,98961,1.575,0.7631059,5.084,6.347,1.0,1.42,76,26,0.582,0.48900002,0.316,0.020000001,6.1444025,0,nan,0.0,3,0,1,9,0
234913489,1643451364600126,386220020,-91534707,51059,99285,1.2010001,0.763149,5.0930004,6.3680005,1.0,1.42,76,26,0.47400004,0.208,-0.425,-0.14600001,6.1444025,0,nan,0.0,3,0,1,9,0
235108435,1643451364800126,386220033,-91534719,51337,99563,1.2140001,0.76319265,5.1000004,6.3890004,1.0,1.42,76,26,0.23600002,0.13900001,-0.19000001,-0.39200002,6.1444025,0,nan,0.0,3,0,1,9,0
235324417,1643451365000126,386220045,-91534729,51775,100001,1.338,0.7632407,5.1060004,6.4100003,1.0,1.42,76,25,0.11000001,0.037,-0.104,-0.78700006,6.1444025,0,nan,0.0,3,0,1,9,0
235512417,1643451365200126,386220056,-91534736,52086,100312,1.264,0.76328623,5.1120005,6.4300003,1.0,1.42,76,25,0.27600002,0.11100001,-0.25300002,-0.71300006,6.1444025,0,nan,0.0,3,0,1,9,0
235711584,1643451365400126,386220068,-91534744,52638,100863,1.6650001,0.7633459,5.124,6.452,0.96,1.42,76,25,0.223,-0.178,0.133,-0.94600004,6.1444025,0,nan,0.0,3,0,1,10,0
235919446,1643451365600126,386220079,-91534752,52971,101197,1.36,0.7633948,5.137,6.4760003,0.96,1.42,76,25,0.62600005,0.328,-0.53300005,-1.1830001,6.1444025,0,nan,0.0,3,0,1,10,0
236118694,1643451365800126,386220109,-91534761,53189,101415,2.015,0.7634672,5.149,6.497,0.96,1.42,76,25,1.2440001,1.2440001,-0.031000001,0.47400004,6.1444025,0,nan,0.0,3,0,1,10,0
236318676,1643451366000126,386220129,-91534763,52906,101132,1.899,0.76353544,5.1610003,6.517,0.96,1.42,76,22,0.998,0.91700006,-0.395,0.42900002,6.1444025,0,nan,0.0,3,0,1,10,0
236514364,1643451366200126,386220143,-91534765,52736,100962,1.7470001,0.7635981,5.1670003,6.5350003,0.96,1.42,76,22,0.54800004,0.545,0.057000004,0.33800003,6.1444025,0,nan,0.0,3,0,1,10,0
236715420,1643451366400126,386220156,-91534767,52810,101036,1.1680001,0.76364017,5.169,6.5540004,0.96,1.42,76,22,0.34500003,0.32000002,-0.128,-0.36,6.1444025,0,nan,0.0,3,0,1,10,0
236909132,1643451366600126,386220170,-91534784,53357,101582,1.44,0.76369184,5.1650004,6.5590005,0.84,1.11,76,22,0.098000005,-0.098000005,0.011000001,-0.651,6.1444025,0,nan,0.0,3,0,1,11,0
237108972,1643451366800126,386220180,-91534793,53646,101871,1.0890001,0.76373094,5.1590004,6.5600004,0.84,1.11,76,22,0.164,0.091000006,0.136,-0.102000006,6.1444025,0,nan,0.0,3,0,1,11,0
237312420,1643451367000126,386220189,-91534803,53746,101971,1.245,0.7637756,5.1540003,6.5610003,0.84,1.11,77,20,0.25800002,0.13700001,-0.21800001,0.022000002,6.1444025,0,nan,0.0,3,0,1,11,0
237515223,1643451367200126,386220207,-91534816,54290,102516,1.0990001,0.76381505,5.15,6.564,0.84,1.11,77,20,0.40100002,0.18400002,0.356,-0.44500002,6.1444025,0,nan,0.0,3,0,1,11,0
237711701,1643451367400126,386220230,-91534803,54400,102626,1.5320001,0.6726925,5.15,6.5720005,0.84,1.11,77,20,1.9180001,1.5460001,1.136,-1.0550001,0.29621658,0,nan,0.0,3,0,1,11,0
237911770,1643451367600126,386220243,-91534814,54678,102903,1.5320001,0.6727549,5.155,6.5790005,0.84,1.11,77,20,0.76000005,-0.18800001,-0.73600006,-0.48900002,0.29621658,0,nan,0.0,3,0,1,11,0
238109704,1643451367800126,386220255,-91534830,54911,103137,1.5920001,0.6728197,5.162,6.5870004,0.88,1.12,77,20,0.31100002,0.30400002,-0.063,-0.049000002,0.29621658,0,nan,0.0,3,0,1,10,0
238315452,1643451368000127,386220265,-91534845,55157,103383,1.2360001,0.67287016,5.17,6.5950003,0.88,1.12,76,20,0.32900003,0.056,-0.324,-0.123,0.29621658,0,nan,0.0,3,0,1,10,0
238510408,1643451368200127,386220263,-91534870,55398,103624,1.6190001,0.6729361,5.176,6.603,0.88,1.12,76,20,1.075,-0.572,-0.91,-0.439,0.29621658,0,nan,0.0,3,0,1,10,0
238710452,1643451368400127,386220248,-91534889,55533,103759,1.5660001,0.6729998,5.1870003,6.6120005,1.03,1.16,76,20,0.58000004,-0.31300002,-0.48900002,-0.66200006,0.29621658,0,nan,0.0,3,0,1,9,0
238911419,1643451368600127,386220247,-91534899,55477,103703,1.9690001,0.6730801,5.2040005,6.6210003,1.03,1.16,76,20,0.50200003,0.423,-0.27100003,0.25,0.29621658,0,nan,0.0,3,0,1,9,0
239115587,1643451368800127,386220254,-91534909,55518,103744,2.158,0.673168,5.2260003,6.6310005,1.03,1.16,76,20,0.56,0.555,-0.072000004,0.275,0.29621658,0,nan,0.0,3,0,1,9,0
239318432,1643451369000127,386220252,-91534912,55727,103953,1.462,0.67322755,5.248,6.6390004,1.03,1.16,76,13,0.29200003,-0.085,0.28,-0.337,0.29621658,0,nan,0.0,3,0,1,9,0
239515869,1643451369200127,386220251,-91534914,56050,104276,1.3030001,0.6732806,5.268,6.6480002,1.03,1.16,76,13,0.19000001,0.123,0.14400001,-0.75500005,0.29621658,0,nan,0.0,3,0,1,9,0
239710456,1643451369400127,386220243,-91534917,55872,104098,1.1620001,0.6733279,5.287,6.6570005,1.03,1.16,76,13,0.56600004,0.068,-0.56200004,-0.19100001,0.29621658,0,nan,0.0,3,0,1,9,0
239917632,1643451369600127,386220246,-91534922,55936,104161,2.026,0.6734105,5.306,6.6700006,1.03,1.16,76,13,0.582,0.52900004,0.24400002,0.303,0.29621658,0,nan,0.0,3,0,1,9,0
240119416,1643451369800127,386220260,-91534920,56041,104267,1.6860001,0.673479,5.3120003,6.6710005,0.88,1.12,76,13,0.40100002,0.26700002,0.29900002,0.24700001,0.29621658,0,nan,0.0,3,0,1,10,0
240320728,1643451370000127,386220269,-91534920,56000,104226,1.7530001,0.6735504,5.313,6.676,0.88,1.12,76,20,0.38300002,0.379,-0.055000003,0.071,0.29621658,0,nan,0.0,3,0,1,10,0
240516436,1643451370200127,386220276,-91534930,56076,104302,1.2590001,0.6736018,5.3110003,6.683,0.88,1.12,76,20,0.42400002,0.023000002,-0.423,-0.26900002,0.29621658,0,nan,0.0,3,0,1,10,0
240713512,1643451370400127,386220279,-91534938,56137,104363,1.2880001,0.67365414,5.306,6.6870003,0.88,1.12,76,20,0.25300002,0.079,-0.24100001,-0.48200002,0.29621658,0,nan,0.0,3,0,1,10,0
240916750,1643451370600127,386220283,-91534941,56328,104554,1.4540001,0.67371327,5.3,6.688,0.88,1.12,76,20,0.18,-0.10700001,0.14500001,-0.49,0.29621658,0,nan,0.0,3,0,1,10,0
241117226,1643451370800127,386220287,-91534941,56338,104564,1.7370001,0.67378396,5.2910004,6.688,0.88,1.12,76,20,0.23900001,0.238,-0.024,0.15300001,0.29621658,0,nan,0.0,3,0,1,10,0
241314456,1643451371000127,386220289,-91534946,56378,104604,1.5000001,0.67384505,5.282,6.6860003,0.88,1.12,76,20,0.185,-0.11000001,-0.148,-0.21300001,0.29621658,0,nan,0.0,3,0,1,10,0
241512440,1643451371200127,386220295,-91534956,56509,104735,1.143,0.6738915,5.2700005,6.682,0.88,1.12,76,20,0.5,0.37100002,-0.33600003,-0.32000002,0.29621658,0,nan,0.0,3,0,1,10,0
241715417,1643451371400127,386220299,-91534963,56532,104758,1.085,0.6739357,5.2570004,6.6780005,0.88,1.12,76,20,0.15,0.076000005,-0.12900001,-0.054,0.29621658,0,nan,0.0,3,0,1,10,0
241915429,1643451371600127,386220292,-91534969,56602,104827,1.646,0.67400265,5.243,6.6740003,0.88,1.12,76,20,0.61,-0.60300004,-0.091000006,-0.56,0.29621658,0,nan,0.0,3,0,1,10,0
242115413,1643451371800127,386220291,-91534974,56646,104872,1.616,0.6740685,5.2310004,6.6700006,0.88,1.12,76,20,0.128,0.123,0.035,0.017,0.29621658,0,nan,0.0,3,0,1,10,0
242312409,1643451372000127,386220289,-91534977,56666,104892,1.4200001,0.6741261,5.2180004,6.6710005,0.88,1.12,76,20,0.037,-0.025,-0.028,-0.56200004,0.29621658,0,nan,0.0,3,0,1,10,0
242512005,1643451372200127,386220294,-91534979,56627,104853,1.577,0.6741903,5.202,6.669,0.88,1.12,76,20,0.44500002,0.43400002,0.1,0.49600002,0.29621658,0,nan,0.0,3,0,1,10,0
242717189,1643451372400127,386220303,-91534980,56386,104612,1.595,0.6742552,5.1870003,6.669,0.88,1.12,76,20,0.648,0.647,0.039,0.84700006,0.29621658,0,nan,0.0,3,0,1,10,0
242922274,1643451372600127,386220299,-91534984,56314,104540,1.5580001,0.67431855,5.1710005,6.669,0.88,1.12,76,20,0.55,-0.50100005,-0.22600001,-0.68200004,0.29621658,0,nan,0.0,3,0,1,10,0
243118285,1643451372800127,386220298,-91534994,56529,104755,1.5000001,0.6743795,5.1600003,6.6730003,0.88,1.12,76,20,0.17500001,-0.057000004,-0.165,-0.43500003,0.29621658,0,nan,0.0,3,0,1,10,0
243321421,1643451373000127,386220285,-91535002,56660,104886,1.5970001,0.67444444,5.1480002,6.6740003,0.88,1.12,76,20,0.94000006,-0.88900006,-0.307,-0.70900005,0.29621658,0,nan,0.0,3,0,1,10,0
243518453,1643451373200127,386220279,-91535009,56591,104817,1.148,0.67449117,5.135,6.669,0.88,1.12,76,20,0.252,0.029000001,-0.25100002,0.21900001,0.29621658,0,nan,0.0,3,0,1,10,0
243718534,1643451373400127,386220276,-91535019,56531,104757,1.207,0.6745402,5.123,6.6730003,0.88,1.12,76,20,0.64400005,-0.21800001,-0.606,-0.178,0.29621658,0,nan,0.0,3,0,1,10,0
243918447,1643451373600127,386220276,-91535034,56735,104961,1.383,0.6745965,5.111,6.675,0.88,1.12,76,20,0.372,-0.13100001,-0.34800002,-0.35700002,0.29621658,0,nan,0.0,3,0,1,10,0
244120425,1643451373800127,386220285,-91535047,56836,105061,1.23,0.67464656,5.098,6.6740003,0.88,1.12,76,20,0.91700006,0.711,-0.57900006,-0.21400002,0.29621658,0,nan,0.0,3,0,1,10,0
244318804,1643451374000127,386220283,-91535055,56678,104904,1.2880001,0.6746989,5.0860004,6.676,0.88,1.12,76,25,0.528,-0.29700002,-0.437,-0.22000001,0.29621658,0,nan,0.0,3,0,1,10,0
244518487,1643451374200127,386220287,-91535065,56886,105112,1.6570001,0.67476624,5.078,6.6730003,0.88,1.12,76,25,0.117000006,0.115,0.019000001,0.008,0.29621658,0,nan,0.0,3,0,1,10,0
244722807,1643451374400127,386220292,-91535064,56819,105045,1.5430001,0.6748289,5.07,6.6710005,0.88,1.12,76,25,0.335,0.31100002,0.123,0.344,0.29621658,0,nan,0.0,3,0,1,10,0
244913031,1643451374600127,386220281,-91535056,56798,105024,1.1290001,0.67487466,5.057,6.6670003,0.84,1.11,76,25,0.314,-0.25100002,0.187,0.172,0.29621658,0,nan,0.0,3,0,1,11,0
245115473,1643451374800127,386220261,-91535051,56701,104927,1.447,0.6749335,5.043,6.662,0.84,1.11,76,25,0.591,-0.507,-0.30400002,-0.148,0.29621658,0,nan,0.0,3,0,1,11,0
245321420,1643451375000127,386220247,-91535050,56678,104903,0.975,0.67497313,5.0290003,6.656,0.84,1.11,76,13,0.132,-0.003,-0.132,0.009000001,0.29621658,0,nan,0.0,3,0,1,11,0
245520602,1643451375200127,386220237,-91535049,56757,104983,1.3790001,0.6750291,5.013,6.65,0.84,1.11,76,13,0.065000005,0.05,-0.042000003,0.067,0.29621658,0,nan,0.0,3,0,1,11,0
245722421,1643451375400127,386220229,-91535046,56664,104889,1.36,0.6750844,4.998,6.6460004,0.84,1.11,76,13,0.201,0.14,-0.14400001,0.50100005,0.29621658,0,nan,0.0,3,0,1,11,0
245919195,1643451375600127,386220216,-91535044,56686,104912,1.5910001,0.675149,4.9830003,6.6440005,0.84,1.11,76,13,0.335,-0.33400002,-0.033,-0.303,0.29621658,0,nan,0.0,3,0,1,11,0
246119542,1643451375800127,386220202,-91535044,56837,105063,1.4460001,0.6752078,4.9690003,6.6410003,0.84,1.11,76,13,0.42400002,-0.35000002,-0.23900001,-0.24700001,0.29621658,0,nan,0.0,3,0,1,11,0
246324419,1643451376000127,386220196,-91535039,56762,104988,1.5090001,0.6752691,4.9560003,6.6400003,0.84,1.11,76,22,0.388,0.323,0.215,0.48000002,0.29621658,0,nan,0.0,3,0,1,11,0
246519320,1643451376200127,386220187,-91535030,56889,105114,1.463,0.67532843,4.9440002,6.6410003,0.84,1.11,76,22,0.569,-0.45800003,0.337,-0.19000001,0.29621658,0,nan,0.0,3,0,1,11,0
246714489,1643451376400127,386220180,-91535017,57459,105685,0.998,0.67537975,4.933,6.6390004,0.84,1.11,76,22,1.261,-0.187,1.248,-0.10700001,0.29621658,0,nan,0.0,3,0,1,11,0
246914567,1643451376600127,386220170,-91534995,57292,105518,1.485,0.67544013,4.918,6.6310005,0.84,1.11,76,22,0.143,0.097,0.105000004,0.158,0.29621658,0,nan,0.0,3,0,1,11,0
247119839,1643451376800127,386220165,-91534989,57405,105631,1.256,0.6754911,4.9020004,6.63,0.84,1.11,76,22,0.28500003,0.132,0.25300002,0.136,0.29621658,0,nan,0.0,3,0,1,11,0
247321759,1643451377000127,386220155,-91534977,57167,105393,1.085,0.6755352,4.8830004,6.6320004,0.84,1.11,76,19,0.18900001,-0.14400001,0.123,0.037,0.29621658,0,nan,0.0,3,0,1,11,0
247509899,1643451377200127,386220140,-91534957,56786,105012,1.046,0.67557764,4.8630004,6.6240005,0.84,1.11,76,19,0.66800004,-0.36,0.563,0.35200003,0.29621658,0,nan,0.0,3,0,1,11,0
247714437,1643451377400127,386220131,-91534946,56818,105044,1.2160001,0.6756271,4.8430004,6.623,0.84,1.11,76,19,0.134,0.058000002,0.12100001,0.261,0.29621658,0,nan,0.0,3,0,1,11,0
247912449,1643451377600127,386220129,-91534942,56888,105114,1.154,0.6756738,4.8230004,6.617,0.84,1.11,76,19,0.23200001,0.22700001,-0.044000003,0.033,0.29621658,0,nan,0.0,3,0,1,11,0
248110370,1643451377800127,386220125,-91534945,56885,105111,1.1340001,0.6757199,4.801,6.61,0.84,1.11,76,19,0.46400002,0.08400001,-0.45600003,0.363,0.29621658,0,nan,0.0,3,0,1,11,0
248321408,1643451378000127,386220122,-91534944,56950,105176,1.171,0.6757674,4.7790003,6.6070004,0.84,1.11,76,17,0.344,0.27,0.21300001,0.177,0.29621658,0,nan,0.0,3,0,1,11,0
248516420,1643451378200127,386220124,-91534937,57232,105458,1.072,0.675811,4.7580004,6.6000004,0.84,1.11,76,17,0.549,0.43500003,0.335,-0.33800003,0.29621658,0,nan,0.0,3,0,1,11,0
248714993,1643451378400127,386220123,-91534927,57071,105296,1.1880001,0.6758592,4.7380004,6.5990005,0.84,1.11,76,17,0.177,0.105000004,0.142,0.30400002,0.29621658,0,nan,0.0,3,0,1,11,0
248921045,1643451378600127,386220122,-91534922,57015,105241,1.207,0.675908,4.721,6.597,0.84,1.11,76,17,0.36800003,0.36800003,-0.0050000004,0.39100003,0.29621658,0,nan,0.0,3,0,1,11,0
249113461,1643451378800127,386220117,-91534919,56997,105223,1.116,0.67595345,4.704,6.5880003,0.84,1.11,76,17,0.08400001,-0.083000004,-0.011000001,0.14600001,0.29621658,0,nan,0.0,3,0,1,11,0
249315495,1643451379000128,386220111,-91534915,57092,105318,1.1370001,0.6759995,4.6860003,6.5810003,0.84,1.11,76,20,0.128,-0.065000005,0.11000001,-0.124000005,0.29621658,0,nan,0.0,3,0,1,11,0
249514459,1643451379200128,386220102,-91534913,57140,105366,1.1170001,0.6760449,4.668,6.5750003,0.84,1.11,76,20,0.418,-0.35200003,-0.22500001,0.089,0.29621658,0,nan,0.0,3,0,1,11,0
249718426,1643451379400128,386220097,-91534915,57451,105677,1.166,0.67609215,4.6520004,6.5690002,0.84,1.11,76,20,0.19100001,0.19100001,-0.0050000004,-0.347,0.29621658,0,nan,0.0,3,0,1,11,0
249919423,1643451379600128,386220092,-91534900,57356,105582,1.008,0.67613304,4.636,6.564,0.84,1.11,76,20,0.768,-0.10700001,0.76100004,-0.30900002,0.29621658,0,nan,0.0,3,0,1,11,0
250111809,1643451379800128,386220093,-91534876,57223,105449,1.1320001,0.6761814,4.622,6.5600004,0.84,1.11,76,20,1.064,0.606,0.87500006,0.535,0.29621658,0,nan,0.0,3,0,1,11,0
250316415,1643451380000128,386220092,-91534860,57277,105503,1.0020001,0.67622185,4.6070004,6.5530005,0.84,1.11,76,26,0.31100002,-0.102000006,0.294,0.126,0.29621658,0,nan,0.0,3,0,1,11,0
250512437,1643451380200128,386220084,-91534852,57228,105454,1.2140001,0.6762711,4.596,6.5480003,0.95,1.15,76,26,0.36800003,0.36800003,-0.007,0.712,0.29621658,0,nan,0.0,3,0,1,10,0
250717412,1643451380400128,386220077,-91534842,56960,105186,1.1470001,0.6763177,4.5880003,6.5470004,0.95,1.15,76,26,0.284,0.079,0.273,0.377,0.29621658,0,nan,0.0,3,0,1,10,0
250917413,1643451380600128,386220065,-91534836,56904,105130,1.2320001,0.6763676,4.5810003,6.5520005,0.95,1.15,76,26,0.28300002,-0.155,-0.23600002,-0.22500001,0.29621658,0,nan,0.0,3,0,1,10,0
251113448,1643451380800128,386220048,-91534828,56936,105162,1.144,0.6764141,4.5750003,6.558,0.95,1.15,76,26,0.57900006,-0.44300002,0.374,0.21800001,0.29621658,0,nan,0.0,3,0,1,10,0
251317412,1643451381000128,386220028,-91534815,56793,105019,1.113,0.6764591,4.571,6.558,0.95,1.15,76,18,0.63900006,-0.56700003,0.29500002,0.514,0.29621658,0,nan,0.0,3,0,1,10,0
251513515,1643451381200128,386220015,-91534807,56944,105170,1.21,0.6765081,4.566,6.5600004,0.95,1.15,76,18,0.023000002,0.013,0.019000001,-0.39200002,0.29621658,0,nan,0.0,3,0,1,10,0
251716442,1643451381400128,386220002,-91534796,56728,104954,1.054,0.67655087,4.5600004,6.5620003,0.95,1.15,76,18,0.25100002,-0.087000005,0.23600002,0.106000006,0.29621658,0,nan,0.0,3,0,1,10,0
251913846,1643451381600128,386219990,-91534783,56630,104856,1.1060001,0.6765957,4.5550003,6.5600004,0.95,1.15,76,18,0.32000002,-0.11400001,0.29900002,0.32200003,0.29621658,0,nan,0.0,3,0,1,10,0
252112333,1643451381800128,386219981,-91534776,56787,105013,1.08,0.6766395,4.5490003,6.5590005,0.95,1.15,76,18,0.1,-0.027,0.097,0.078,0.29621658,0,nan,0.0,3,0,1,10,0
252317415,1643451382000128,386219980,-91534766,56615,104841,1.256,0.6766903,4.544,6.5590005,0.95,1.15,76,26,0.85300004,0.809,0.27100003,0.49400002,0.29621658,0,nan,0.0,3,0,1,10,0
252514414,1643451382200128,386219981,-91534758,56194,104420,1.2080001,0.6767392,4.539,6.5540004,0.95,1.15,76,26,0.61,0.58900005,-0.158,0.99200004,0.29621658,0,nan,0.0,3,0,1,10,0
252710417,1643451382400128,386219971,-91534758,56221,104447,1.184,0.6767872,4.533,6.5530005,0.95,1.15,76,26,0.41000003,-0.39200002,-0.119,0.07300001,0.29621658,0,nan,0.0,3,0,1,10,0
252918482,1643451382600128,386219960,-91534758,56400,104626,1.057,0.67682993,4.5280004,6.5420003,0.95,1.15,76,26,0.123,0.011000001,-0.12200001,-0.171,0.29621658,0,nan,0.0,3,0,1,10,0
253111412,1643451382800128,386219947,-91534755,56152,104378,1.0630001,0.676873,4.5220003,6.5330005,0.95,1.15,76,26,0.19700001,-0.172,-0.096,0.25500003,0.29621658,0,nan,0.0,3,0,1,10,0
253312696,1643451383000128,386219937,-91534743,56127,104353,1.0630001,0.6769162,4.5160003,6.5220003,0.95,1.15,76,19,0.771,0.076000005,0.767,0.312,0.29621658,0,nan,0.0,3,0,1,10,0
253511584,1643451383200128,386219930,-91534731,56033,104259,1.1930001,0.67696434,4.51,6.51,0.95,1.15,76,19,0.15,0.148,0.027,0.24300002,0.29621658,0,nan,0.0,3,0,1,10,0
253714690,1643451383400128,386219924,-91534730,56061,104287,1.172,0.6770118,4.505,6.504,0.95,1.15,76,19,0.15200001,0.149,-0.025,0.21700001,0.29621658,0,nan,0.0,3,0,1,10,0
