timestamp,timestamp_sample,ref_timestamp,ref_lat,ref_lon,x,y,z,delta_xy[0],delta_xy[1],delta_z,vx,vy,vz,z_deriv,delta_vxy[0],delta_vxy[1],delta_vz,ax,ay,az,heading,delta_heading,ref_alt,dist_bottom,eph,epv,evh,evv,vxy_max,vz_max,hagl_min,hagl_max,xy_valid,z_valid,v_xy_valid,v_z_valid,xy_reset_counter,z_reset_counter,vxy_reset_counter,vz_reset_counter,heading_reset_counter,xy_global,z_global,dist_bottom_valid,dist_bottom_sensor_bitfield
186839891,186838176,0,nan,nan,0.00347505,-0.002852176,5.440931,0.0,0.0,0.0,0.0077681057,-0.0062783626,0.016434181,0.038472623,0.0012009924,0.00042238893,0.0,0.06702604,-0.020506363,0.015916783,0.12589769,-0.0025612563,nan,0.1,0.2928814,0.53676337,0.1739214,0.14731024,inf,inf,inf,inf,0,1,0,1,1,0,1,0,2,0,0,1,0
186850490,186848181,0,nan,nan,0.003524254,-0.002899295,5.441163,0.0,0.0,0.0,0.008431761,-0.006167591,0.016436161,0.03830717,0.0012009924,0.00042238893,0.0,0.06566526,-0.0046668286,0.0031210596,0.12575448,-0.0025612563,nan,0.1,0.2942525,0.53168553,0.17445359,0.14643961,inf,inf,inf,inf,0,1,0,1,1,0,1,0,2,0,0,1,0
186950298,186948224,0,nan,nan,0.0037612098,-0.0033705288,5.442461,0.0,0.0,0.0,-0.0005971543,-0.006234241,0.015235807,0.034570597,0.0012009924,0.00042238893,0.0,-0.103587314,0.014546578,-0.0026597686,0.12509668,-0.0025612563,nan,0.1,0.30833358,0.5308323,0.17982185,0.14629304,inf,inf,inf,inf,0,1,0,1,1,0,1,0,2,0,0,1,0
187040245,187038267,0,nan,nan,0.003253292,-0.003866043,5.4431357,0.0,0.0,0.0,-0.0018586972,-0.0072758757,0.015939001,0.03282768,0.0012009924,0.00042238893,0.0,0.10423195,0.0036612675,0.028897954,0.12577246,-0.0025612563,nan,0.1,0.29319668,0.53501487,0.17419152,0.14700978,inf,inf,inf,inf,0,1,0,1,1,0,1,0,2,0,0,1,0
187149902,187148313,0,nan,nan,0.0031672101,-0.0044294917,5.443983,0.0,0.0,0.0,0.0039130943,-0.009110132,0.015507176,0.029636363,0.0012009924,0.00042238893,0.0,-0.048800074,-0.15767394,-0.12993415,0.12706527,-0.0025612563,nan,0.1,0.30868328,0.5353223,0.18010364,0.1470636,inf,inf,inf,inf,0,1,0,1,1,0,1,0,2,0,0,1,0
187240116,187238362,0,nan,nan,0.003056561,-0.0048694783,5.4446373,0.0,0.0,0.0,0.0010044441,-0.011268663,0.015033357,0.027213845,0.0012009924,0.00042238893,0.0,0.09490692,-0.2873606,-0.1419315,0.12797618,-0.0025612563,nan,0.1,0.2934835,0.5332981,0.17441495,0.14671686,inf,inf,inf,inf,0,1,0,1,1,0,1,0,2,0,0,1,0
187340039,187338413,0,nan,nan,0.0030402888,-0.005348566,5.445399,0.0,0.0,0.0,0.0044974447,-0.008535515,0.015559726,0.025921857,0.0012009924,0.00042238893,0.0,-0.044957884,0.1534211,-0.04602492,0.12576331,-0.0025612563,nan,0.1,0.3075545,0.53244764,0.17979354,0.1465722,inf,inf,inf,inf,0,1,0,1,1,0,1,0,2,0,0,1,0
187450134,187448465,0,nan,nan,0.0027748568,-0.005886634,5.445851,0.0,0.0,0.0,0.0009030096,-0.009035302,0.014138599,0.022366302,0.0012009924,0.00042238893,0.0,0.06611376,0.10799236,-0.0265621,0.121894784,-0.0025612563,nan,0.1,0.29511976,0.53273875,0.17513679,0.14662175,inf,inf,inf,inf,0,1,0,1,1,0,1,0,2,0,0,1,0
187540546,187538504,0,nan,nan,0.0028936644,-0.006383354,5.444624,0.0,0.0,0.0,0.0044272915,-0.00998895,0.013478059,0.018644221,0.0012009924,0.00042238893,0.0,-0.035332333,0.03838607,-0.013348565,0.11859423,-0.0025612563,nan,0.1,0.3078337,0.5307365,0.17997907,0.1462787,inf,inf,inf,inf,0,1,0,1,1,0,1,0,2,0,0,1,0
187650432,187648556,0,nan,nan,0.0028289857,-0.0069053406,5.44179,0.0,0.0,0.0,0.0004801693,-0.008355198,0.011714231,0.012422196,0.0012009924,0.00042238893,0.0,-0.06399508,0.1506813,-0.0068594706,0.11707907,-0.0025612563,nan,0.1,0.29534927,0.53102607,0.17528664,0.14632818,inf,inf,inf,inf,0,1,0,1,1,0,1,0,2,0,0,1,0
187740398,187738599,0,nan,nan,0.0025599222,-0.00718683,5.440166,0.0,0.0,0.0,0.0011960075,-0.006897092,0.011286243,0.009480354,0.0012009924,0.00042238893,0.0,0.035631873,0.08811549,0.061231766,0.116909996,-0.0025612563,nan,0.1,0.30807883,0.53520584,0.1801269,0.14704384,inf,inf,inf,inf,0,1,0,1,1,0,1,0,2,0,0,1,0
187840157,187838647,0,nan,nan,0.0022876537,-0.007519262,5.4390955,0.0,0.0,0.0,-0.0050178766,-0.007791903,0.009795458,0.0062090503,0.0012009924,0.00042238893,0.0,-0.10751598,-0.104059644,-0.0018457456,0.11660108,-0.0025612563,nan,0.1,0.29416725,0.53434473,0.17486845,0.14689744,inf,inf,inf,inf,0,1,0,1,1,0,1,0,2,0,0,1,0
187940385,187938695,0,nan,nan,0.00156532,-0.007801204,5.4385424,0.0,0.0,0.0,0.0015967565,-0.00973112,0.011336454,0.0067195627,0.0012009924,0.00042238893,0.0,0.28005382,0.04450632,0.0970574,0.11882186,-0.0025612563,nan,0.1,0.3082907,0.5334715,0.18023734,0.14674746,inf,inf,inf,inf,0,1,0,1,1,0,1,0,2,0,0,1,0
188040570,188038772,0,nan,nan,0.0018646036,-0.007998312,5.4373794,0.0,0.0,0.0,0.002760957,-0.006262111,0.009554159,0.0033727759,0.0012009924,0.00042238893,0.0,-0.055423547,0.02561764,0.02916407,0.11727828,-0.0025612563,nan,0.1,0.29433745,0.53261286,0.17494479,0.14660068,inf,inf,inf,inf,0,1,0,1,1,0,1,0,2,0,0,1,0
188150483,188148802,0,nan,nan,0.0018164616,-0.008155752,5.435753,0.0,0.0,0.0,-0.007453123,-0.0052223424,0.0072522233,-0.0006571971,0.0012009924,0.00042238893,0.0,-0.09681842,-0.022664795,-0.020333061,0.116336085,-0.0025612563,nan,0.1,0.30992106,0.5328963,0.18085729,0.14664896,inf,inf,inf,inf,0,1,0,1,1,0,1,0,2,0,0,1,0
188240690,188238862,0,nan,nan,0.0014477281,-0.008379052,5.434902,0.0,0.0,0.0,0.0035672565,-0.006519119,0.008622019,3.6944875e-05,0.0012009924,0.00042238893,0.0,0.11530208,0.1364353,-0.07722853,0.118252985,-0.0025612563,nan,0.1,0.29448077,0.53088605,0.175012,0.14630474,inf,inf,inf,inf,0,1,0,1,1,0,1,0,2,0,0,1,0
188351192,188348890,0,nan,nan,0.0020518352,-0.008450276,5.4343576,0.0,0.0,0.0,0.003699215,-0.0056241155,0.008803837,-0.0001308286,0.0012009924,0.00042238893,0.0,-0.053646117,-0.046806052,-0.06434873,0.11892534,-0.0025612563,nan,0.1,0.3100729,0.5311687,0.18091376,0.14635254,inf,inf,inf,inf,0,1,0,1,1,0,1,0,2,0,0,1,0
188440445,188438932,0,nan,nan,0.0020684286,-0.008585063,5.433289,0.0,0.0,0.0,-0.004498941,-0.0064526456,0.006678608,-0.002994034,0.0012009924,0.00042238893,0.0,-0.16033338,-0.018199395,-0.064122595,0.11840395,-0.0025612563,nan,0.1,0.29460025,0.53537285,0.17504278,0.1470748,inf,inf,inf,inf,0,1,0,1,1,0,1,0,2,0,0,1,0
188540749,188538980,0,nan,nan,0.0014072533,-0.008539648,5.432491,0.0,0.0,0.0,-0.0040493417,-0.0055918247,0.0066029737,-0.0033074107,0.0012009924,0.00042238893,0.0,-0.071457796,0.1773928,-0.051531676,0.11834067,-0.0025612563,nan,0.1,0.30874595,0.534504,0.18041594,0.14692669,inf,inf,inf,inf,0,1,0,1,1,0,1,0,2,0,0,1,0
188641050,188639028,0,nan,nan,0.0011076392,-0.00850109,5.4311137,0.0,0.0,0.0,0.002545334,-0.0066469978,0.006637388,-0.004009189,0.0012009924,0.00042238893,0.0,0.09228352,-0.08272472,0.060723994,0.11843952,-0.0025612563,nan,0.1,0.2946979,0.5336495,0.17507759,0.14678177,inf,inf,inf,inf,0,1,0,1,1,0,1,0,2,0,0,1,0
188740931,188739076,0,nan,nan,0.00097531936,-0.008504964,5.430255,0.0,0.0,0.0,-0.0049663107,-0.008133609,0.0042062066,-0.0066462574,0.0012009924,0.00042238893,0.0,-0.08425964,-0.18593293,-0.041081116,0.11632749,-0.0025612563,nan,0.1,0.30884707,0.5327826,0.18044253,0.14663316,inf,inf,inf,inf,0,1,0,1,1,0,1,0,2,0,0,1,0
188850984,188849128,0,nan,nan,-0.00038965663,-0.008566145,5.4295664,0.0,0.0,0.0,-0.018010462,-0.007519882,0.0031815346,-0.007410668,0.0012009924,0.00042238893,0.0,-0.30471817,-0.36665162,0.21567635,0.11404128,-0.0025612563,nan,0.1,0.29616085,0.5330853,0.17563331,0.1466869,inf,inf,inf,inf,0,1,0,1,1,0,1,0,2,0,0,1,0
188940981,188939170,0,nan,nan,-0.00179527,-0.008479741,5.4292526,0.0,0.0,0.0,-0.006632817,-0.000950668,0.0040651374,-0.006077908,0.0012009924,0.00042238893,0.0,0.224082,-0.23765554,0.14468132,0.11524757,-0.0025612563,nan,0.1,0.30892682,0.5310663,0.18046828,0.14634085,inf,inf,inf,inf,0,1,0,1,1,0,1,0,2,0,0,1,0
189041034,189039223,0,nan,nan,-0.0014768845,-0.008152639,5.4294205,0.0,0.0,0.0,0.01105304,-0.0024025145,0.0073703052,-0.0021295992,0.0012009924,0.00042238893,0.0,0.38589993,-0.5070547,-0.06584198,0.11730779,-0.0025612563,nan,0.1,0.2948377,0.5364344,0.17511128,0.14726296,inf,inf,inf,inf,0,1,0,1,1,0,1,0,2,0,0,1,0
189141126,189139266,0,nan,nan,-0.00070437824,-0.0077964137,5.42978,0.0,0.0,0.0,0.00093824556,-0.0026965924,0.007008335,-0.0017703578,0.0012009924,0.00042238893,0.0,-0.33296144,-0.040192004,-0.086505614,0.117220566,-0.0025612563,nan,0.1,0.30898818,0.5355689,0.1804512,0.14711559,inf,inf,inf,inf,0,1,0,1,1,0,1,0,2,0,0,1,0
189240852,189239314,0,nan,nan,-0.0011388998,-0.00751709,5.430128,0.0,0.0,0.0,-0.006726277,-0.0031590697,0.005987179,-0.0020439038,0.0012009924,0.00042238893,0.0,0.22149257,0.0019569553,-0.042466834,0.11526675,-0.0025612563,nan,0.1,0.2948831,0.5346913,0.17509542,0.14696503,inf,inf,inf,inf,0,1,0,1,1,0,1,0,2,0,0,1,0
189340990,189339361,0,nan,nan,-0.0019901355,-0.0071929684,5.430578,0.0,0.0,0.0,-0.013745455,-0.0051538185,0.005415289,-0.0018753697,0.0012009924,0.00042238893,0.0,0.039924987,-0.012058031,0.11379167,0.11363416,-0.0025612563,nan,0.1,0.30903316,0.5338283,0.18045963,0.14681853,inf,inf,inf,inf,0,1,0,1,1,0,1,0,2,0,0,1,0
189441014,189439453,0,nan,nan,-0.0023373049,-0.0068290206,5.4311147,0.0,0.0,0.0,0.01015406,-0.0041821557,0.008417678,0.0018389514,0.0012009924,0.00042238893,0.0,0.86469275,-0.8289558,0.14008932,0.11533399,-0.0025612563,nan,0.1,0.29491672,0.53295344,0.17510353,0.14666826,inf,inf,inf,inf,0,1,0,1,1,0,1,0,2,0,0,1,0
189541349,189539456,0,nan,nan,-0.0018785545,-0.0062991446,5.431603,0.0,0.0,0.0,-0.0062606996,-0.012145955,0.0043222704,-0.0017250561,0.0012009924,0.00042238893,0.0,0.13651086,-0.48507136,0.014040733,0.11656213,-0.0025612563,nan,0.1,0.30906582,0.53209364,0.18044738,0.14652152,inf,inf,inf,inf,0,1,0,1,1,0,1,0,2,0,0,1,0
189641695,189639504,0,nan,nan,-0.0016492249,-0.0062885396,5.4321017,0.0,0.0,0.0,0.0036170045,-0.0028782329,0.0053559677,-0.00020135284,0.0012009924,0.00042238893,0.0,-0.07937369,0.079684556,-0.002586782,0.11601959,-0.0025612563,nan,0.1,0.29494023,0.53122187,0.17510726,0.14637133,inf,inf,inf,inf,0,1,0,1,1,0,1,0,2,0,0,1,0
189741402,189739558,0,nan,nan,-0.0021333352,-0.006414596,5.4324164,0.0,0.0,0.0,-0.016147504,-0.008250544,0.0012970516,-0.0037649476,0.0012009924,0.00042238893,0.0,-0.1407675,0.20844233,0.023589002,0.11211469,-0.0025612563,nan,0.1,0.30908784,0.53658813,0.18046223,0.14729218,inf,inf,inf,inf,0,1,0,1,1,0,1,0,2,0,0,1,0
189841108,189839599,0,nan,nan,-0.0038185068,-0.006447306,5.4325085,0.0,0.0,0.0,-0.015236543,-0.007818994,0.0023152411,-0.0024658677,0.0012009924,0.00042238893,0.0,0.00020852247,0.18308812,-0.14863724,0.112654865,-0.0025612563,nan,0.1,0.29495642,0.5357155,0.1751198,0.14714386,inf,inf,inf,inf,0,1,0,1,1,0,1,0,2,0,0,1,0
189941642,189939647,0,nan,nan,-0.0042462577,-0.006231062,5.4326534,0.0,0.0,0.0,-0.0017583155,-0.0014736257,0.0056417855,0.0010359606,0.0012009924,0.00042238893,0.0,-0.17561387,-0.14711848,-0.09621715,0.11196005,-0.0025612563,nan,0.1,0.30910364,0.5348574,0.18047342,0.14699912,inf,inf,inf,inf,0,1,0,1,1,0,1,0,2,0,0,1,0
190041828,190039694,0,nan,nan,-0.004119368,-0.0057796496,5.4328995,0.0,0.0,0.0,-6.565217e-05,0.0039156745,0.0049055624,0.0005631481,0.0012009924,0.00042238893,0.0,0.16155076,0.40710005,0.077016905,0.113895126,-0.0025612563,nan,0.1,0.29496738,0.53401375,0.17509866,0.1468581,inf,inf,inf,inf,0,1,0,1,1,0,1,0,2,0,0,1,0
190141426,190139766,0,nan,nan,-0.0039596865,-0.0052472795,5.433244,0.0,0.0,0.0,-0.0023237031,0.0056424206,0.0049374574,0.0009062262,0.0012009924,0.00042238893,0.0,-0.00018651581,0.32838842,0.12386386,0.115333594,-0.0025612563,nan,0.1,0.30911285,0.53315735,0.18046452,0.14671306,inf,inf,inf,inf,0,1,0,1,1,0,1,0,2,0,0,1,0
190241400,190239792,0,nan,nan,-0.0021307827,-0.0045363624,5.4338427,0.0,0.0,0.0,0.03234342,0.005091196,0.0074802362,0.0037806716,0.0012009924,0.00042238893,0.0,0.34779736,0.02430811,-0.02871955,0.11476097,-0.0025612563,nan,0.1,0.2949732,0.53228873,0.17511278,0.1465642,inf,inf,inf,inf,0,1,0,1,1,0,1,0,2,0,0,1,0
190341957,190339837,0,nan,nan,0.0024042982,-0.004200553,5.43484,0.0,0.0,0.0,0.037476327,-0.0016510775,0.0058637992,0.0024983783,0.0012009924,0.00042238893,0.0,-0.562405,0.07183145,-0.28205347,0.11109136,-0.0025612563,nan,0.1,0.30911717,0.5314345,0.18045169,0.1464177,inf,inf,inf,inf,0,1,0,1,1,0,1,0,2,0,0,1,0
190441903,190439885,0,nan,nan,0.004157015,-0.0037289008,5.435301,0.0,0.0,0.0,-0.009874381,-0.004943622,0.003622138,0.0005815042,0.0012009924,0.00042238893,0.0,-0.6404641,-0.1958542,0.320905,0.10221693,-0.0025612563,nan,0.1,0.29497424,0.53679883,0.17510088,0.14733638,inf,inf,inf,inf,0,1,0,1,1,0,1,0,2,0,0,1,0
190541540,190539933,0,nan,nan,0.0017041347,-0.0033617965,5.4354477,0.0,0.0,0.0,-0.031991508,-0.0024287368,0.00024706748,-0.0024852122,0.0012009924,0.00042238893,0.0,0.031191802,0.01736846,0.032044925,0.10010469,-0.0025612563,nan,0.10007954,0.3091175,0.53591686,0.18049605,0.14718586,inf,inf,inf,inf,0,1,0,1,1,0,1,0,2,0,0,1,0
190641564,190639980,0,nan,nan,-0.00024328887,-0.0029253454,5.4351363,0.0,0.0,0.0,0.00088170613,0.005056818,0.006395686,0.0034020839,0.0012009924,0.00042238893,0.0,0.5499848,0.38463977,0.25250772,0.10389247,-0.0025612563,nan,0.1,0.29497617,0.5350498,0.17514987,0.14703882,inf,inf,inf,inf,0,1,0,1,1,0,1,0,2,0,0,1,0
190741887,190740028,0,nan,nan,0.00057010795,-0.0023600894,5.4328146,0.0,0.0,0.0,-0.0001087382,-0.00088580436,0.0037976408,-0.0017402528,0.0012009924,0.00042238893,0.0,-0.30813563,0.21737067,-0.08615334,0.10622983,-0.0025612563,nan,0.1,0.30912018,0.53419745,0.18049099,0.14689371,inf,inf,inf,inf,0,1,0,1,1,0,1,0,2,0,0,1,0
190842085,190840115,0,nan,nan,-0.00053695025,-0.0020435893,5.4305253,0.0,0.0,0.0,-0.010208722,0.0029588486,0.0030291853,-0.004418191,0.0012009924,0.00042238893,0.0,0.09153807,0.07572314,0.4312274,0.1100944,-0.0025612563,nan,0.1,0.29497683,0.5333325,0.17514113,0.14674479,inf,inf,inf,inf,0,1,0,1,1,0,1,0,2,0,0,1,0
190941997,190940123,0,nan,nan,-0.0014420178,-0.0015867348,5.42892,0.0,0.0,0.0,-0.009492152,0.00043783258,0.002718659,-0.005818093,0.0012009924,0.00042238893,0.0,-0.034026343,0.25142974,0.0219337,0.11161139,-0.0025612563,nan,0.1,0.30912,0.5324557,0.18051925,0.14659373,inf,inf,inf,inf,0,1,0,1,1,0,1,0,2,0,0,1,0
191042047,191040171,0,nan,nan,-0.0018813811,-0.0011588273,5.42749,0.0,0.0,0.0,0.0016680883,-0.00072034274,0.0016327078,-0.0077001383,0.0012009924,0.00042238893,0.0,0.017701294,-0.13470304,-0.24162205,0.11332118,-0.0025612563,nan,0.1,0.29497725,0.53159356,0.1751583,0.14644529,inf,inf,inf,inf,0,1,0,1,1,0,1,0,2,0,0,1,0
191142402,191140218,0,nan,nan,-0.0025712166,-0.0007863341,5.42628,0.0,0.0,0.0,-0.010569424,-0.0024082395,0.001534529,-0.008122723,0.0012009924,0.00042238893,0.0,0.22118811,-0.016959473,-0.03497491,0.1138546,-0.0025612563,nan,0.1,0.30912036,0.5307461,0.18051884,0.14630073,inf,inf,inf,inf,0,1,0,1,1,0,1,0,2,0,0,1,0
191242270,191240266,0,nan,nan,-0.0035677445,-0.00049727806,5.4254675,0.0,0.0,0.0,-0.012448256,0.0022533555,0.0019002907,-0.0076449895,0.0012009924,0.00042238893,0.0,0.0020292278,-0.1581472,-0.055208556,0.114504226,-0.0025612563,nan,0.1,0.2949779,0.53609264,0.17517701,0.14721726,inf,inf,inf,inf,0,1,0,1,1,0,1,0,2,0,0,1,0
191342280,191340314,0,nan,nan,-0.0046767322,-0.0002616892,5.4248977,0.0,0.0,0.0,-0.010693827,0.0018158059,0.00095130765,-0.008206133,0.0012009924,0.00042238893,0.0,0.030952549,-0.10848214,-0.00059659994,0.11640494,-0.0025612563,nan,0.1,0.30912194,0.53524417,0.1805394,0.14707476,inf,inf,inf,inf,0,1,0,1,1,0,1,0,2,0,0,1,0
191442197,191440361,0,nan,nan,-0.0057238657,0.00019912938,5.424598,0.0,0.0,0.0,-0.012085829,0.005179601,0.0018693375,-0.0067362688,0.0012009924,0.00042238893,0.0,0.065768264,-0.009764141,-0.018920861,0.119226955,-0.0025612563,nan,0.10029554,0.29497975,0.5343829,0.175198,0.14692803,inf,inf,inf,inf,0,1,0,1,1,0,1,0,2,0,0,1,0
191542431,191540415,0,nan,nan,-0.006392007,0.00070956047,5.4245005,0.0,0.0,0.0,-0.007223393,0.0024477458,0.0016182888,-0.006348784,0.0012009924,0.00042238893,0.0,0.026416358,-0.04057788,-0.018380582,0.11925034,-0.0025612563,nan,0.10051966,0.30912456,0.5335358,0.18056035,0.14678508,inf,inf,inf,inf,0,1,0,1,1,0,1,0,2,0,0,1,0
191642511,191640457,0,nan,nan,-0.0068685156,0.0008910612,5.4243255,0.0,0.0,0.0,-0.010278363,0.0031101066,0.0019990175,-0.005446536,0.0012009924,0.00042238893,0.0,-0.06559905,0.0542468,-0.0010329421,0.120023146,-0.0025612563,nan,0.1,0.29498222,0.532676,0.17521513,0.14663765,inf,inf,inf,inf,0,1,0,1,1,0,1,0,2,0,0,1,0
191742133,191740504,0,nan,nan,-0.00735684,0.0011614959,5.4237995,0.0,0.0,0.0,-0.007196201,0.0019318684,0.0007763503,-0.0065730507,0.0012009924,0.00042238893,0.0,0.0018542593,-0.15893999,-0.0024862394,0.12090578,-0.0025612563,nan,0.1,0.30912793,0.5318307,0.1805831,0.14649422,inf,inf,inf,inf,0,1,0,1,1,0,1,0,2,0,0,1,0
191842449,191840552,0,nan,nan,-0.007986615,0.0013693915,5.4234376,0.0,0.0,0.0,-0.012031514,0.003181703,0.0003166641,-0.006726916,0.0012009924,0.00042238893,0.0,0.0865723,0.14169239,-0.012580718,0.12259919,-0.0025612563,nan,0.10018587,0.2949857,0.5309728,0.17524114,0.14634682,inf,inf,inf,inf,0,1,0,1,1,0,1,0,2,0,0,1,0
191942198,191940615,0,nan,nan,-0.0078758625,0.0015509624,5.4232903,0.0,0.0,0.0,-0.006459335,0.0077466224,0.0027315666,-0.0038819707,0.0012009924,0.00042238893,0.0,-0.2978288,0.23512001,0.076347105,0.121357955,-0.0025612563,nan,0.10045624,0.30913275,0.5363171,0.1806119,0.14726174,inf,inf,inf,inf,0,1,0,1,1,0,1,0,2,0,0,1,0
192042464,192040647,0,nan,nan,-0.00835178,0.0016854951,5.423093,0.0,0.0,0.0,-0.006988131,-0.00094132737,0.001376036,-0.0047420985,0.0012009924,0.00042238893,0.0,0.07938981,-0.23502026,0.09589508,0.11983484,-0.0025612563,nan,0.10081005,0.29499057,0.53545856,0.17526,0.14711593,inf,inf,inf,inf,0,1,0,1,1,0,1,0,2,0,0,1,0
192142546,192140696,0,nan,nan,-0.0082341945,0.0014839389,5.422946,0.0,0.0,0.0,-0.00022748105,0.001991584,0.0019775215,-0.0036195368,0.0012009924,0.00042238893,0.0,0.26368862,0.17262769,0.04138108,0.11909111,-0.0025612563,nan,0.10098696,0.30913937,0.5345877,0.18063201,0.14696643,inf,inf,inf,inf,0,1,0,1,1,0,1,0,2,0,0,1,0
192242518,192240750,0,nan,nan,-0.007883807,0.0014542958,5.422924,0.0,0.0,0.0,-0.009934031,-0.0010123834,-0.0031967585,-0.0082735,0.0012009924,0.00042238893,0.0,-0.1348463,0.107908994,-0.2260999,0.118747495,-0.0025612563,nan,0.10099745,0.29499733,0.53373116,0.17528631,0.14682038,inf,inf,inf,inf,0,1,0,1,1,0,1,0,2,0,0,1,0
192342404,192340790,0,nan,nan,-0.009102687,0.00057784066,5.422092,0.0,0.0,0.0,-0.023375405,-0.007831751,-0.00992713,-0.014572384,0.0012009924,0.00042238893,0.0,0.0050926046,0.09486181,0.022737298,0.11806543,-0.0025612563,nan,0.10102987,0.30914763,0.53286237,0.18067105,0.14667109,inf,inf,inf,inf,0,1,0,1,1,0,1,0,2,0,0,1,0
192442687,192440836,0,nan,nan,-0.0099966815,0.0007344962,5.421479,0.0,0.0,0.0,-0.006494277,0.005143218,0.0009124115,-0.0035590674,0.0012009924,0.00042238893,0.0,0.072049595,-0.36820891,-0.05449991,0.11570371,-0.0025612563,nan,0.10060692,0.2950065,0.5320084,0.17535897,0.1465258,inf,inf,inf,inf,0,1,0,1,1,0,1,0,2,0,0,1,0
192543035,192540885,0,nan,nan,-0.009675508,0.0009960805,5.4209576,0.0,0.0,0.0,-0.0086548645,0.008245007,-0.0025353034,-0.006854595,0.0012009924,0.00042238893,0.0,-0.26320565,-0.4141973,-0.10284863,0.11549666,-0.0025612563,nan,0.100366116,0.30916026,0.53114223,0.18068066,0.14637738,inf,inf,inf,inf,0,1,0,1,1,0,1,0,2,0,0,1,0
192642893,192640933,0,nan,nan,-0.010361676,0.0011928822,5.42032,0.0,0.0,0.0,-0.01207641,0.010016318,-0.002857256,-0.007037063,0.0012009924,0.00042238893,0.0,0.21506457,0.39237645,0.093495466,0.11559876,-0.0025612563,nan,0.100822926,0.29501644,0.53651124,0.17534344,0.14729936,inf,inf,inf,inf,0,1,0,1,1,0,1,0,2,0,0,1,0
192742912,192740981,0,nan,nan,-0.00641304,0.0034775117,5.4202566,0.0,0.0,0.0,0.053920798,-0.023913546,-0.0037096427,-0.007935909,0.0012009924,0.00042238893,0.0,-0.16910207,0.6423809,-0.7126103,0.10002658,-0.0025612563,nan,0.1,0.30917153,0.53564405,0.18072803,0.14715174,inf,inf,inf,inf,0,1,0,1,1,0,1,0,2,0,0,1,0
192842591,192841028,0,nan,nan,-0.00404321,0.0022377914,5.4193573,0.0,0.0,0.0,-0.0054639573,-0.0075503527,0.0016904193,-0.0024721255,0.0012009924,0.00042238893,0.0,-0.18176644,0.77672595,0.048555896,0.091786645,-0.0025612563,nan,0.10068703,0.29502514,0.5347911,0.1753497,0.1470034,inf,inf,inf,inf,0,1,0,1,1,0,1,0,2,0,0,1,0
192942793,192941076,0,nan,nan,-0.004432393,0.0023001882,5.418357,0.0,0.0,0.0,-0.020683212,0.0007419741,-0.0032690836,-0.007651663,0.0012009924,0.00042238893,0.0,-0.43739983,0.052242428,0.18651156,0.08737627,-0.0025612563,nan,0.1,0.30918264,0.5339522,0.18072732,0.14686458,inf,inf,inf,inf,0,1,0,1,1,0,1,0,2,0,0,1,0
193043073,193041124,0,nan,nan,-0.0074251397,0.0027424807,5.4170403,0.0,0.0,0.0,-0.0419925,0.005878027,-0.0050972817,-0.009885304,0.0012009924,0.00042238893,0.0,0.06660863,-0.0319,0.025862265,0.092087016,-0.0025612563,nan,0.1,0.29503664,0.53310025,0.17540286,0.14672114,inf,inf,inf,inf,0,1,0,1,1,0,1,0,2,0,0,1,0
193143204,193141183,0,nan,nan,-0.009947458,0.0031500258,5.4158006,0.0,0.0,0.0,-0.018417591,0.0056416737,-0.003396235,-0.008496145,0.0012009924,0.00042238893,0.0,0.19648878,-0.094437525,0.030980814,0.098046765,-0.0025612563,nan,0.1,0.30919576,0.53223616,0.18078059,0.14657392,inf,inf,inf,inf,0,1,0,1,1,0,1,0,2,0,0,1,0
193242989,193241219,0,nan,nan,-0.009850402,0.0037082857,5.4134183,0.0,0.0,0.0,0.0073734536,0.0055933166,-0.0038371196,-0.0104180155,0.0012009924,0.00042238893,0.0,0.13069995,-0.25086492,-0.20700538,0.10366176,-0.0025612563,nan,0.1,0.29504848,0.5313862,0.17541659,0.14642808,inf,inf,inf,inf,0,1,0,1,1,0,1,0,2,0,0,1,0
193343061,193341270,0,nan,nan,-0.008179796,0.004310588,5.411416,0.0,0.0,0.0,0.0056118453,0.007047981,-0.002932782,-0.010505992,0.0012009924,0.00042238893,0.0,-0.30837876,-0.41185504,0.0037904654,0.11221094,-0.0025612563,nan,0.1,0.30920908,0.536753,0.1807773,0.14734732,inf,inf,inf,inf,0,1,0,1,1,0,1,0,2,0,0,1,0
193443159,193441315,0,nan,nan,-0.008526494,0.004514057,5.409562,0.0,0.0,0.0,-0.018485634,0.0077157803,-0.0077650445,-0.015720919,0.0012009924,0.00042238893,0.0,0.2022802,0.37553433,0.28088135,0.11387467,-0.0025612563,nan,0.1,0.2950594,0.53587496,0.17542642,0.14719595,inf,inf,inf,inf,0,1,0,1,1,0,1,0,2,0,0,1,0
193542958,193541367,0,nan,nan,-0.009027568,0.0044808444,5.408024,0.0,0.0,0.0,-0.009776892,0.0045671947,-0.008455705,-0.01639146,0.0012009924,0.00042238893,0.0,0.003209819,0.028994277,-0.14493297,0.11160731,-0.0025612563,nan,0.100681305,0.3092222,0.53501153,0.18083449,0.14704828,inf,inf,inf,inf,0,1,0,1,1,0,1,0,2,0,0,1,0
193643108,193641410,0,nan,nan,-0.009734793,0.004640922,5.406828,0.0,0.0,0.0,-0.023558246,-0.005677286,-0.010967423,-0.018625895,0.0012009924,0.00042238893,0.0,-0.1077933,-0.71913475,-0.43792766,0.10923057,-0.0025612563,nan,0.101138115,0.2950718,0.5341627,0.1754633,0.1469035,inf,inf,inf,inf,0,1,0,1,1,0,1,0,2,0,0,1,0
193743279,193741457,0,nan,nan,-0.009802498,0.004353073,5.405761,0.0,0.0,0.0,0.0045977007,0.0002731515,-0.006469119,-0.0136948135,0.0012009924,0.00042238893,0.0,-0.51723206,-0.36544138,-0.331665,0.10375415,-0.0025612563,nan,0.10157251,0.30923647,0.5333011,0.18083484,0.14675522,inf,inf,inf,inf,0,1,0,1,1,0,1,0,2,0,0,1,0
193843342,193841505,0,nan,nan,-0.0077762785,0.0044753933,5.404828,0.0,0.0,0.0,0.009188603,0.010086628,0.0028508143,-0.004102913,0.0012009924,0.00042238893,0.0,-0.7662389,-0.32341608,0.48540315,0.10745815,-0.0025612563,nan,0.100777626,0.29508394,0.53242725,0.17545928,0.14660273,inf,inf,inf,inf,0,1,0,1,1,0,1,0,2,0,0,1,0
193943457,193941553,0,nan,nan,-0.0075924294,0.004380441,5.4036884,0.0,0.0,0.0,-0.013750503,0.0031253085,-0.015986431,-0.022618173,0.0012009924,0.00042238893,0.0,0.04718354,0.0001570881,0.077398255,0.11575933,-0.0025612563,nan,0.10140276,0.3092497,0.5315679,0.18082213,0.14645477,inf,inf,inf,inf,0,1,0,1,1,0,1,0,2,0,0,1,0
194043476,194041601,0,nan,nan,-0.0074714296,0.0044549718,5.4026723,0.0,0.0,0.0,0.0028836194,0.008242104,-0.008293189,-0.014496948,0.0012009924,0.00042238893,0.0,0.08336012,-0.0037104874,0.12944008,0.12385363,-0.0025612563,nan,0.1018424,0.2950946,0.53072304,0.17551497,0.14631031,inf,inf,inf,inf,0,1,0,1,1,0,1,0,2,0,0,1,0
194143582,194141648,0,nan,nan,-0.0066749984,0.004552479,5.401718,0.0,0.0,0.0,-0.0016227503,0.007219946,-0.008836542,-0.014558851,0.0012009924,0.00042238893,0.0,-0.09316509,-0.061725587,-0.0036838138,0.12981224,-0.0025612563,nan,0.1019969,0.30926275,0.5360714,0.18087552,0.1472261,inf,inf,inf,inf,0,1,0,1,1,0,1,0,2,0,0,1,0
194243620,194241696,0,nan,nan,-0.0067408555,0.0045815455,5.400622,0.0,0.0,0.0,-0.017276619,0.000600952,-0.01018958,-0.015552433,0.0012009924,0.00042238893,0.0,0.00012251476,-0.06641333,-0.121643394,0.13065957,-0.0025612563,nan,0.10188532,0.29510635,0.5352253,0.17551233,0.14708275,inf,inf,inf,inf,0,1,0,1,1,0,1,0,2,0,0,1,0
194343486,194341752,0,nan,nan,-0.0067329686,0.004289144,5.3993993,0.0,0.0,0.0,0.0068484023,0.0016287338,-0.0070875534,-0.012310938,0.0012009924,0.00042238893,0.0,0.008000596,0.015521576,0.0045010946,0.12808044,-0.0025612563,nan,0.101362705,0.30927593,0.53436625,0.18088646,0.14693554,inf,inf,inf,inf,0,1,0,1,1,0,1,0,2,0,0,1,0
194443432,194441791,0,nan,nan,-0.0059920414,0.0041414727,5.3982706,0.0,0.0,0.0,-0.00058818376,0.003202805,-0.008820641,-0.013803484,0.0012009924,0.00042238893,0.0,0.2331957,0.15478837,0.011986685,0.12737268,-0.0025612563,nan,0.10165262,0.29511744,0.53349483,0.17550895,0.14678396,inf,inf,inf,inf,0,1,0,1,1,0,1,0,2,0,0,1,0
194543628,194541839,0,nan,nan,-0.0052964897,0.004039926,5.397193,0.0,0.0,0.0,-0.0057396404,0.00294831,-0.011480693,-0.01614221,0.0012009924,0.00042238893,0.0,0.026529588,-0.03504671,-0.18556988,0.12817125,-0.0025612563,nan,0.101920605,0.309288,0.5326378,0.18090655,0.14663683,inf,inf,inf,inf,0,1,0,1,1,0,1,0,2,0,0,1,0
194643464,194641886,0,nan,nan,-0.0054568653,0.0039415117,5.3960114,0.0,0.0,0.0,-0.0058823945,-0.00884292,-0.010342669,-0.014641593,0.0012009924,0.00042238893,0.0,0.1751362,-0.4755361,0.13507366,0.12776959,-0.0025612563,nan,0.10224199,0.29512757,0.531795,0.17553896,0.14649332,inf,inf,inf,inf,0,1,0,1,1,0,1,0,2,0,0,1,0
194743905,194741942,0,nan,nan,-0.004239516,0.0038242862,5.3951497,0.0,0.0,0.0,0.024099234,-0.0016054447,-0.006472,-0.010394096,0.0012009924,0.00042238893,0.0,-0.15445127,0.27809024,-0.19629048,0.12607126,-0.0025612563,nan,0.10204792,0.30930007,0.53093964,0.18091658,0.14634538,inf,inf,inf,inf,0,1,0,1,1,0,1,0,2,0,0,1,0
194843813,194841982,0,nan,nan,-0.003276204,0.0037872118,5.3942285,0.0,0.0,0.0,7.7969125e-05,0.007930858,-0.0063319644,-0.009928533,0.0012009924,0.00042238893,0.0,-0.023123773,-0.0004742703,0.34208947,0.12370605,-0.0025612563,nan,0.10185957,0.29513758,0.5362851,0.17551899,0.14725882,inf,inf,inf,inf,0,1,0,1,1,0,1,0,2,0,0,1,0
194943645,194942052,0,nan,nan,-0.0039233654,0.003710669,5.393278,0.0,0.0,0.0,-0.02264952,-0.0013323152,-0.0116647445,-0.014969901,0.0012009924,0.00042238893,0.0,0.07331869,0.10988362,0.020621194,0.12291729,-0.0025612563,nan,0.101984024,0.30931032,0.5354288,0.18091185,0.1471139,inf,inf,inf,inf,0,1,0,1,1,0,1,0,2,0,0,1,0
195043797,195042077,0,nan,nan,-0.00463049,0.0035320565,5.3921695,0.0,0.0,0.0,0.0029183228,-0.000338,-0.007415948,-0.010422415,0.0012009924,0.00042238893,0.0,0.76330256,0.4767753,0.43998173,0.123398356,-0.0025612563,nan,0.10226965,0.29514596,0.53455997,0.1755637,0.14696401,inf,inf,inf,inf,0,1,0,1,1,0,1,0,2,0,0,1,0
195143942,195142125,0,nan,nan,-0.0030270298,0.0033533466,5.3914967,0.0,0.0,0.0,-0.00039355722,0.0037844987,-0.015694363,-0.018407594,0.0012009924,0.00042238893,0.0,0.15408427,-0.6756863,-0.38102773,0.121407166,-0.0025612563,nan,0.10184765,0.30932042,0.5337053,0.18093024,0.14681697,inf,inf,inf,inf,0,1,0,1,1,0,1,0,2,0,0,1,0
195243993,195242173,0,nan,nan,-0.0041421875,0.0030154209,5.388955,0.0,0.0,0.0,-0.022906067,0.0004395304,-0.015752766,-0.019461505,0.0012009924,0.00042238893,0.0,0.25114912,0.08824431,-0.20699961,0.122566715,-0.0025612563,nan,0.1,0.29515377,0.53283817,0.17557049,0.1466674,inf,inf,inf,inf,0,1,0,1,1,0,1,0,2,0,0,1,0
195343891,195342220,0,nan,nan,-0.0052614035,0.0028077676,5.3866124,0.0,0.0,0.0,-0.013670086,0.0017848896,-0.01251358,-0.016989077,0.0012009924,0.00042238893,0.0,-0.10009276,-0.019000802,-0.11346734,0.124363065,-0.0025612563,nan,0.10016918,0.30932924,0.53198576,0.18095562,0.1465214,inf,inf,inf,inf,0,1,0,1,1,0,1,0,2,0,0,1,0
195444199,195442275,0,nan,nan,-0.0056086304,0.0026702315,5.384489,0.0,0.0,0.0,-0.0001697967,0.0035402481,-0.011766925,-0.016582467,0.0012009924,0.00042238893,0.0,-0.14411606,-0.049608316,0.050078794,0.12449766,-0.0025612563,nan,0.10103607,0.29516238,0.531121,0.17556533,0.14637099,inf,inf,inf,inf,0,1,0,1,1,0,1,0,2,0,0,1,0
195544243,195542316,0,nan,nan,-0.0051289205,0.0025792425,5.3827763,0.0,0.0,0.0,-0.00019198324,0.0020999496,-0.011361657,-0.01623258,0.0012009924,0.00042238893,0.0,-0.4322724,-0.035943914,-0.054389555,0.12279978,-0.0025612563,nan,0.10141659,0.3093386,0.5364905,0.18094562,0.14729129,inf,inf,inf,inf,0,1,0,1,1,0,1,0,2,0,0,1,0
195644397,195642364,0,nan,nan,-0.0050426116,0.0024930206,5.3811684,0.0,0.0,0.0,-0.0010973332,0.0038180745,-0.011818851,-0.016561178,0.0012009924,0.00042238893,0.0,-0.0037504975,0.04739044,0.023650922,0.12204075,-0.0025612563,nan,0.10184622,0.29516968,0.5356243,0.17556077,0.1471425,inf,inf,inf,inf,0,1,0,1,1,0,1,0,2,0,0,1,0
195744360,195742411,0,nan,nan,-0.0051607117,0.0025051658,5.3795857,0.0,0.0,0.0,-0.0048385607,0.0036567268,-0.012324657,-0.016824994,0.0012009924,0.00042238893,0.0,-0.020690309,-0.07809269,0.176283,0.121732526,-0.0025612563,nan,0.102208614,0.30934602,0.5347722,0.18094875,0.14699748,inf,inf,inf,inf,0,1,0,1,1,0,1,0,2,0,0,1,0
195844098,195842459,0,nan,nan,-0.0050420193,0.0023933917,5.3776464,0.0,0.0,0.0,-0.010646807,0.0030660585,-0.012909291,-0.017674848,0.0012009924,0.00042238893,0.0,-0.59244597,0.23809056,-0.09941231,0.121233575,-0.0025612563,nan,0.10093403,0.29517606,0.5339074,0.17557727,0.14684865,inf,inf,inf,inf,0,1,0,1,1,0,1,0,2,0,0,1,0
195944053,195942507,0,nan,nan,-0.005873961,0.0023664832,5.3756895,0.0,0.0,0.0,-0.004850178,0.0034392644,-0.014669798,-0.019495629,0.0012009924,0.00042238893,0.0,-0.056464165,0.3292792,-0.046226747,0.12023217,-0.0025612563,nan,0.101661205,0.3093527,0.5330572,0.18095411,0.14670318,inf,inf,inf,inf,0,1,0,1,1,0,1,0,2,0,0,1,0
196044432,196042555,0,nan,nan,-0.00705505,0.0024310923,5.3735523,0.0,0.0,0.0,-0.016180826,0.0016759905,-0.017750965,-0.022452973,0.0012009924,0.00042238893,0.0,0.6329077,-0.1081082,-0.11058089,0.12046277,-0.0025612563,nan,0.10240507,0.29518145,0.53219444,0.17558396,0.14655387,inf,inf,inf,inf,0,1,0,1,1,0,1,0,2,0,0,1,0
196144348,196142617,0,nan,nan,-0.0078042466,0.0024364828,5.370771,0.0,0.0,0.0,-0.004531696,-6.1749684e-05,-0.016985616,-0.022243889,0.0012009924,0.00042238893,0.0,0.25869542,0.26703003,0.1555089,0.12158023,-0.0025612563,nan,0.10024023,0.30935997,0.5313457,0.18097892,0.14640883,inf,inf,inf,inf,0,1,0,1,1,0,1,0,2,0,0,1,0
196244247,196242650,0,nan,nan,-0.007180584,0.0025513733,5.3682017,0.0,0.0,0.0,-0.009192566,0.0041314587,-0.017978132,-0.02371756,0.0012009924,0.00042238893,0.0,-0.37681472,0.15326239,-0.047116734,0.12106888,-0.0025612563,nan,0.10087681,0.29518807,0.5367123,0.17559823,0.14732748,inf,inf,inf,inf,0,1,0,1,1,0,1,0,2,0,0,1,0
196344306,196342705,0,nan,nan,-0.006844369,0.002733901,5.365902,0.0,0.0,0.0,-0.009075127,0.0072948323,-0.01721298,-0.023083432,0.0012009924,0.00042238893,0.0,-0.58280987,-0.12776527,-0.14860004,0.12136897,-0.0025612563,nan,0.10161638,0.30936614,0.5358355,0.18097201,0.1471761,inf,inf,inf,inf,0,1,0,1,1,0,1,0,2,0,0,1,0
196444765,196442746,0,nan,nan,-0.0070244917,0.0028884246,5.3634872,0.0,0.0,0.0,0.0017672462,0.004191615,-0.014764477,-0.020708255,0.0012009924,0.00042238893,0.0,-0.1305376,0.007348982,-0.08799833,0.122387916,-0.0025612563,nan,0.1018734,0.2951924,0.53497326,0.17559308,0.14702855,inf,inf,inf,inf,0,1,0,1,1,0,1,0,2,0,0,1,0
196544295,196542795,0,nan,nan,-0.006582697,0.003062913,5.361502,0.0,0.0,0.0,-0.0046061906,0.005793969,-0.013847416,-0.019644124,0.0012009924,0.00042238893,0.0,-0.29889584,0.23743625,-0.24411623,0.12265896,-0.0025612563,nan,0.10207987,0.30937123,0.53409874,0.18096043,0.14687668,inf,inf,inf,inf,0,1,0,1,1,0,1,0,2,0,0,1,0
196644412,196642841,0,nan,nan,-0.0066656163,0.0032649897,5.358826,0.0,0.0,0.0,0.0030384224,0.0028410938,-0.0155586265,-0.021823933,0.0012009924,0.00042238893,0.0,0.95329934,-0.106794484,-0.20592642,0.121695824,-0.0025612563,nan,0.1,0.2951961,0.5332391,0.17558661,0.14672896,inf,inf,inf,inf,0,1,0,1,1,0,1,0,2,0,0,1,0
196744485,196742889,0,nan,nan,-0.006277686,0.003483687,5.355267,0.0,0.0,0.0,0.0051280675,0.0068753366,-0.017566403,-0.025089907,0.0012009924,0.00042238893,0.0,0.478626,0.19391428,-0.18863179,0.12087786,-0.0025612563,nan,0.1,0.30937445,0.5323673,0.18095452,0.14657752,inf,inf,inf,inf,0,1,0,1,1,0,1,0,2,0,0,1,0
196845174,196842961,0,nan,nan,-0.006025703,0.0037999272,5.3519473,0.0,0.0,0.0,-0.007751514,0.00468704,-0.018826287,-0.027039632,0.0012009924,0.00042238893,0.0,-0.020570867,-0.13230366,0.0034673247,0.12034633,-0.0025612563,nan,0.1,0.2951987,0.5315098,0.1755716,0.1464295,inf,inf,inf,inf,0,1,0,1,1,0,1,0,2,0,0,1,0
196945144,196942984,0,nan,nan,-0.0059977295,0.004047549,5.347562,0.0,0.0,0.0,-2.497172e-05,0.0027634047,-0.02106308,-0.030838309,0.0012009924,0.00042238893,0.0,-0.08890363,0.5878145,-0.28800344,0.120539024,-0.0025612563,nan,0.1,0.3093773,0.5306667,0.18097332,0.14628549,inf,inf,inf,inf,0,1,0,1,1,0,1,0,2,0,0,1,0
197044652,197043032,0,nan,nan,-0.0058107306,0.0044386303,5.3425207,0.0,0.0,0.0,0.00042851208,0.0056191455,-0.01933803,-0.031043561,0.0012009924,0.00042238893,0.0,-0.03615908,-0.56476486,-0.06362063,0.11949776,-0.0025612563,nan,0.1,0.29520142,0.5360148,0.17559244,0.14720052,inf,inf,inf,inf,0,1,0,1,1,0,1,0,2,0,0,1,0
197144766,197143080,0,nan,nan,-0.0049034236,0.004750616,5.3382463,0.0,0.0,0.0,-0.00016457133,0.009536578,-0.0156544,-0.028460637,0.0012009924,0.00042238893,0.0,-0.6243604,0.22818664,0.69620377,0.11766492,-0.0025612563,nan,0.1,0.3093805,0.53517044,0.18096656,0.14705831,inf,inf,inf,inf,0,1,0,1,1,0,1,0,2,0,0,1,0
197244664,197243128,0,nan,nan,-0.004212309,0.0051337457,5.3321285,0.0,0.0,0.0,-0.0052836486,0.006302343,-0.019392224,-0.034847327,0.0012009924,0.00042238893,0.0,-0.5354508,0.402624,0.17925309,0.11543015,-0.0025612563,nan,0.1,0.2952035,0.5343129,0.17559464,0.14691101,inf,inf,inf,inf,0,1,0,1,1,0,1,0,2,0,0,1,0
197345069,197343176,0,nan,nan,-0.004853878,0.005182395,5.326676,0.0,0.0,0.0,-0.005456476,0.006558943,-0.026185779,-0.043013763,0.0012009924,0.00042238893,0.0,0.36228555,0.22959071,-0.39187494,0.114399344,-0.0025612563,nan,0.1,0.30938208,0.53344303,0.18097833,0.14676024,inf,inf,inf,inf,0,1,0,1,1,0,1,0,2,0,0,1,0
197444790,197443224,0,nan,nan,-0.0048247324,0.0053659817,5.322048,0.0,0.0,0.0,-0.0072102267,0.010515874,-0.021086222,-0.038232923,0.0012009924,0.00042238893,0.0,0.013625121,0.24744292,0.11311076,0.114547916,-0.0025612563,nan,0.101214886,0.29520538,0.53258747,0.17559464,0.14661346,inf,inf,inf,inf,0,1,0,1,1,0,1,0,2,0,0,1,0
197545038,197543294,0,nan,nan,-0.0046112216,0.005611628,5.3181334,0.0,0.0,0.0,-0.0020049484,0.005387495,-0.024431888,-0.041211605,0.0012009924,0.00042238893,0.0,-0.117520064,-0.11042556,0.45925078,0.11414547,-0.0025612563,nan,0.102561474,0.3093851,0.53171957,0.18097171,0.14646286,inf,inf,inf,inf,0,1,0,1,1,0,1,0,2,0,0,1,0
197645315,197643318,0,nan,nan,-0.004565494,0.0058329017,5.3145723,0.0,0.0,0.0,-0.005243556,0.008490938,-0.026970815,-0.043012757,0.0012009924,0.00042238893,0.0,0.035591215,0.4871476,-0.30469915,0.11393099,-0.0025612563,nan,0.10232973,0.29520747,0.5308664,0.17560627,0.14631547,inf,inf,inf,inf,0,1,0,1,1,0,1,0,2,0,0,1,0
197745173,197743367,0,nan,nan,-0.004582799,0.006000894,5.3106937,0.0,0.0,0.0,-0.0062904395,0.0059673935,-0.025361428,-0.040954754,0.0012009924,0.00042238893,0.0,-0.18798345,0.20802338,0.30511472,0.11376807,-0.0025612563,nan,0.10283661,0.30938688,0.5362115,0.1809767,0.14722975,inf,inf,inf,inf,0,1,0,1,1,0,1,0,2,0,0,1,0
197845047,197843418,0,nan,nan,-0.004592281,0.0062907515,5.305443,0.0,0.0,0.0,-0.0020334898,0.006624595,-0.026682284,-0.04321375,0.0012009924,0.00042238893,0.0,0.13970022,0.0012306233,0.31344146,0.11381164,-0.0025612563,nan,0.1,0.29520914,0.53535724,0.17560467,0.1470841,inf,inf,inf,inf,0,1,0,1,1,0,1,0,2,0,0,1,0
197945099,197943463,0,nan,nan,-0.0044717654,0.0064968765,5.2999077,0.0,0.0,0.0,-0.00885844,0.0060837604,-0.028648118,-0.046189096,0.0012009924,0.00042238893,0.0,-0.048383262,-0.14329733,-0.11473285,0.11443297,-0.0025612563,nan,0.10044193,0.30938864,0.5344904,0.18097548,0.14693463,inf,inf,inf,inf,0,1,0,1,1,0,1,0,2,0,0,1,0
198045468,198043511,0,nan,nan,-0.0047092508,0.006679929,5.293525,0.0,0.0,0.0,-0.005363826,0.0074368217,-0.03094084,-0.050094966,0.0012009924,0.00042238893,0.0,0.083076745,0.054632146,-0.064377025,0.114990264,-0.0025612563,nan,0.1,0.2952104,0.5336114,0.17559883,0.14678174,inf,inf,inf,inf,0,1,0,1,1,0,1,0,2,0,0,1,0
198145510,198143558,0,nan,nan,-0.004658713,0.0069098845,5.2874928,0.0,0.0,0.0,-0.0023079056,0.0072897593,-0.03218762,-0.0522003,0.0012009924,0.00042238893,0.0,0.073723204,-0.010983017,0.07180135,0.11460203,-0.0025612563,nan,0.10097122,0.3093899,0.53274715,0.18098482,0.14663225,inf,inf,inf,inf,0,1,0,1,1,0,1,0,2,0,0,1,0
198245477,198243606,0,nan,nan,-0.004027588,0.007138526,5.2818465,0.0,0.0,0.0,0.0071920147,0.010436257,-0.030444084,-0.05089695,0.0012009924,0.00042238893,0.0,0.05398587,0.25063258,0.034346618,0.11557017,-0.0025612563,nan,0.1,0.29521176,0.5318974,0.1756098,0.14648648,inf,inf,inf,inf,0,1,0,1,1,0,1,0,2,0,0,1,0
198345396,198343657,0,nan,nan,-0.0028087224,0.0074103996,5.2760067,0.0,0.0,0.0,0.009765809,0.008689314,-0.02912955,-0.05014828,0.0012009924,0.00042238893,0.0,0.13460116,0.2041682,0.0482343,0.11838861,-0.0025612563,nan,0.10152626,0.3093915,0.5310352,0.18097608,0.14633673,inf,inf,inf,inf,0,1,0,1,1,0,1,0,2,0,0,1,0
198445681,198443702,0,nan,nan,-0.0023174763,0.0076145483,5.270411,0.0,0.0,0.0,-0.008535343,0.0010582998,-0.03319205,-0.054359563,0.0012009924,0.00042238893,0.0,0.3973523,-0.08250755,-0.15540127,0.11906823,-0.0025612563,nan,0.10173559,0.29521254,0.53640413,0.17559053,0.14725694,inf,inf,inf,inf,0,1,0,1,1,0,1,0,2,0,0,1,0
198545466,198543753,0,nan,nan,-0.0018692852,0.0077838,5.2644076,0.0,0.0,0.0,-0.006503386,0.0045697414,-0.03610215,-0.057510287,0.0012009924,0.00042238893,0.0,-0.034344513,0.03369418,-0.09806713,0.119067594,-0.0025612563,nan,0.10269737,0.30939195,0.5355404,0.18098068,0.1471092,inf,inf,inf,inf,0,1,0,1,1,0,1,0,2,0,0,1,0
198645403,198643798,0,nan,nan,-0.002121119,0.0079811225,5.256597,0.0,0.0,0.0,0.00056707003,0.008005879,-0.03614485,-0.05936249,0.0012009924,0.00042238893,0.0,0.34590432,0.086492985,-0.2206054,0.118844725,-0.0025612563,nan,0.1,0.2952134,0.53469074,0.17560896,0.14696455,inf,inf,inf,inf,0,1,0,1,1,0,1,0,2,0,0,1,0
198745635,198743845,0,nan,nan,-0.0010060273,0.008138087,5.249816,0.0,0.0,0.0,0.0009965783,0.0054582735,-0.037409827,-0.0613676,0.0012009924,0.00042238893,0.0,-0.21679434,0.10471667,-0.2669714,0.12114852,-0.0025612563,nan,0.100186825,0.30939376,0.5338283,0.18098475,0.14681637,inf,inf,inf,inf,0,1,0,1,1,0,1,0,2,0,0,1,0
198845769,198843893,0,nan,nan,-0.001173605,0.008201345,5.242859,0.0,0.0,0.0,-0.004271079,0.0076627363,-0.0397513,-0.064243466,0.0012009924,0.00042238893,0.0,0.37759256,0.15821426,-0.008111413,0.12057175,-0.0025612563,nan,0.100465775,0.29521444,0.53298026,0.17560504,0.14667146,inf,inf,inf,inf,0,1,0,1,1,0,1,0,2,0,0,1,0
198945546,198943941,0,nan,nan,-0.00084855454,0.0081912875,5.235746,0.0,0.0,0.0,0.0013070947,0.006198101,-0.039691553,-0.064791285,0.0012009924,0.00042238893,0.0,-0.08087936,0.026461845,0.16658027,0.12197913,-0.0025612563,nan,0.1,0.30939472,0.5321197,0.1809893,0.14652349,inf,inf,inf,inf,0,1,0,1,1,0,1,0,2,0,0,1,0
199045773,199044004,0,nan,nan,-0.0010120333,0.008207015,5.2270927,0.0,0.0,0.0,-0.0043059723,0.009804203,-0.045430742,-0.07223629,0.0012009924,0.00042238893,0.0,0.049854703,0.06421713,-0.14560105,0.121712476,-0.0025612563,nan,0.1,0.29521552,0.53124696,0.1756098,0.14637113,inf,inf,inf,inf,0,1,0,1,1,0,1,0,2,0,0,1,0
199145638,199144037,0,nan,nan,-0.0011679982,0.008153422,5.2193494,0.0,0.0,0.0,-0.0017543649,0.006209547,-0.04330489,-0.07073536,0.0012009924,0.00042238893,0.0,-0.07684364,0.026188115,-0.020264762,0.12192846,-0.0025612563,nan,0.10263443,0.30939618,0.536613,0.18100409,0.14729069,inf,inf,inf,inf,0,1,0,1,1,0,1,0,2,0,0,1,0
199246097,199244085,0,nan,nan,-0.0017865227,0.008012197,5.210942,0.0,0.0,0.0,-0.0044234395,0.0059799836,-0.044715986,-0.07325734,0.0012009924,0.00042238893,0.0,0.24983539,-0.025385994,0.029875128,0.1210072,-0.0025612563,nan,0.1,0.29521704,0.5357391,0.17561193,0.14713952,inf,inf,inf,inf,0,1,0,1,1,0,1,0,2,0,0,1,0
199346002,199344134,0,nan,nan,-0.0019884433,0.007840722,5.2026215,0.0,0.0,0.0,-0.004616528,0.003192149,-0.04564875,-0.07495652,0.0012009924,0.00042238893,0.0,0.14169848,-0.070569776,-0.13731116,0.12133867,-0.0025612563,nan,0.10257816,0.30939758,0.53487974,0.18099305,0.14699243,inf,inf,inf,inf,0,1,0,1,1,0,1,0,2,0,0,1,0
199445757,199444180,0,nan,nan,-0.0016465534,0.0078106774,5.1942267,0.0,0.0,0.0,0.005348818,0.008102111,-0.043171704,-0.07319902,0.0012009924,0.00042238893,0.0,0.036677152,0.035821334,0.49784735,0.1222252,-0.0025612563,nan,0.10094023,0.29521805,0.5340079,0.17560428,0.14684103,inf,inf,inf,inf,0,1,0,1,1,0,1,0,2,0,0,1,0
199546013,199544228,0,nan,nan,-0.0012282468,0.007669958,5.185157,0.0,0.0,0.0,-0.001382638,0.0087161595,-0.04576143,-0.077058606,0.0012009924,0.00042238893,0.0,0.055493772,0.3157108,0.039074153,0.12319931,-0.0025612563,nan,0.10086393,0.3093984,0.533151,0.18099226,0.14669368,inf,inf,inf,inf,0,1,0,1,1,0,1,0,2,0,0,1,0
199646372,199644276,0,nan,nan,-0.0008898949,0.007747317,5.176896,0.0,0.0,0.0,0.00062728423,0.008699086,-0.044571918,-0.07618441,0.0012009924,0.00042238893,0.0,-0.10996112,0.3050665,0.2716421,0.12345108,-0.0025612563,nan,0.10230827,0.2952183,0.5322815,0.17560701,0.14654282,inf,inf,inf,inf,0,1,0,1,1,0,1,0,2,0,0,1,0
199746417,199744328,0,nan,nan,0.0002814469,0.007728447,5.1690283,0.0,0.0,0.0,0.011380848,0.016290387,-0.048564266,-0.08014747,0.0012009924,0.00042238893,0.0,-0.09286479,0.09045903,-0.112442166,0.12195989,-0.0025612563,nan,0.103199005,0.30939808,0.5314265,0.18097804,0.14639537,inf,inf,inf,inf,0,1,0,1,1,0,1,0,2,0,0,1,0
199846310,199844378,0,nan,nan,0.0008269865,0.007852241,5.160851,0.0,0.0,0.0,-0.006716617,0.0097312955,-0.056871336,-0.0883339,0.0012009924,0.00042238893,0.0,-0.40652356,-0.047158763,-0.106579505,0.12354087,-0.0025612563,nan,0.10000801,0.2952173,0.53058565,0.17560439,0.14625233,inf,inf,inf,inf,0,1,0,1,1,0,1,0,2,0,0,1,0
199946345,199944424,0,nan,nan,7.3768184e-05,0.0077805906,5.151218,0.0,0.0,0.0,0.004485377,0.0020533348,-0.05394241,-0.08650789,0.0012009924,0.00042238893,0.0,0.5252019,-0.045631286,-0.48020315,0.123163834,-0.0025612563,nan,0.10165405,0.3093971,0.53593326,0.18100424,0.14716868,inf,inf,inf,inf,0,1,0,1,1,0,1,0,2,0,0,1,0
200046347,200044470,0,nan,nan,0.0010168576,0.007989384,5.1399302,0.0,0.0,0.0,0.009229476,0.004892333,-0.053686105,-0.08869208,0.0012009924,0.00042238893,0.0,-0.36067933,0.0008283955,0.027602166,0.12376661,-0.0025612563,nan,0.1,0.29521763,0.5350643,0.17559671,0.14701866,inf,inf,inf,inf,0,1,0,1,1,0,1,0,2,0,0,1,0
200146046,200144516,0,nan,nan,0.0011000583,0.008027656,5.1260343,0.0,0.0,0.0,0.0014607677,0.004048829,-0.057614814,-0.09704509,0.0012009924,0.00042238893,0.0,0.04044955,0.17854075,0.08831417,0.12346933,-0.0025612563,nan,0.1,0.309398,0.5342101,0.1809858,0.14687301,inf,inf,inf,inf,0,1,0,1,1,0,1,0,2,0,0,1,0
200246204,200244564,0,nan,nan,0.0010327294,0.0080992365,5.113521,0.0,0.0,0.0,-0.00049364736,0.0066380505,-0.05977157,-0.101654455,0.0012009924,0.00042238893,0.0,0.017527822,-0.0023230235,0.0015838748,0.12514906,-0.0025612563,nan,0.10026598,0.29521844,0.5333433,0.17561306,0.14672388,inf,inf,inf,inf,0,1,0,1,1,0,1,0,2,0,0,1,0
200346498,200344612,0,nan,nan,0.0011717507,0.008010584,5.102941,0.0,0.0,0.0,0.0024639429,0.005793342,-0.05807445,-0.100193836,0.0012009924,0.00042238893,0.0,0.008174008,0.00047457786,0.021387847,0.1259551,-0.0025612563,nan,0.10407734,0.30939895,0.53249085,0.18099391,0.1465782,inf,inf,inf,inf,0,1,0,1,1,0,1,0,2,0,0,1,0
200446679,200444692,0,nan,nan,0.0015045096,0.00797703,5.091358,0.0,0.0,0.0,0.0034996828,0.0067738476,-0.060476176,-0.10376507,0.0012009924,0.00042238893,0.0,-0.12042436,0.18022588,-0.028836599,0.12541099,-0.0025612563,nan,0.10070515,0.29521903,0.53162587,0.17560294,0.1464283,inf,inf,inf,inf,0,1,0,1,1,0,1,0,2,0,0,1,0
200546709,200544708,0,nan,nan,0.0016956531,0.007832877,5.0802927,0.0,0.0,0.0,0.0029658908,0.006239335,-0.062299065,-0.10592697,0.0012009924,0.00042238893,0.0,0.09059849,0.03496931,0.044514187,0.12487286,-0.0025612563,nan,0.102622986,0.30939898,0.5307756,0.18098849,0.14628224,inf,inf,inf,inf,0,1,0,1,1,0,1,0,2,0,0,1,0
200646265,200644756,0,nan,nan,0.0019073267,0.0077832015,5.0698833,0.0,0.0,0.0,0.0025132918,0.0061458666,-0.064129606,-0.10726802,0.0012009924,0.00042238893,0.0,0.017341692,-0.17699917,0.044846643,0.12541386,-0.0025612563,nan,0.10680628,0.29521874,0.53612036,0.17560789,0.14719698,inf,inf,inf,inf,0,1,0,1,1,0,1,0,2,0,0,1,0
200746300,200744813,0,nan,nan,0.0024112617,0.007695875,5.0576725,0.0,0.0,0.0,0.017687436,0.008106947,-0.0627119,-0.10703364,0.0012009924,0.00042238893,0.0,-0.3048992,0.24783222,0.42465895,0.12524615,-0.0025612563,nan,0.10310125,0.30939886,0.5352422,0.18098459,0.14704534,inf,inf,inf,inf,0,1,0,1,1,0,1,0,2,0,0,1,0
200846770,200844854,0,nan,nan,0.0026980864,0.007690511,5.043573,0.0,0.0,0.0,0.0004737033,0.008502065,-0.07382004,-0.12069675,0.0012009924,0.00042238893,0.0,0.11200269,0.115399696,-0.08639121,0.12526828,-0.0025612563,nan,0.1,0.29521862,0.534379,0.17561406,0.14689662,inf,inf,inf,inf,0,1,0,1,1,0,1,0,2,0,0,1,0
200946896,200944899,0,nan,nan,0.0021912754,0.007756618,5.030005,0.0,0.0,0.0,-0.007968821,0.006827312,-0.07219927,-0.12052662,0.0012009924,0.00042238893,0.0,0.24778056,-0.13065055,-0.05243358,0.1272783,-0.0025612563,nan,0.103485584,0.3093991,0.5335037,0.1810111,0.14674577,inf,inf,inf,inf,0,1,0,1,1,0,1,0,2,0,0,1,0
201046900,201044948,0,nan,nan,0.0027564194,0.0077183614,5.018188,0.0,0.0,0.0,0.02295897,-0.0055276835,-0.06595417,-0.114329815,0.0012009924,0.00042238893,0.0,0.397331,-0.25086492,-0.31850913,0.12671065,-0.0025612563,nan,0.10044861,0.29521972,0.53264296,0.17561802,0.14659806,inf,inf,inf,inf,0,1,0,1,1,0,1,0,2,0,0,1,0
201146621,201144995,0,nan,nan,0.0046655242,0.007541372,5.0051312,0.0,0.0,0.0,0.026218629,0.0073526106,-0.07090406,-0.120105915,0.0012009924,0.00042238893,0.0,-0.26489565,0.21694867,0.40461528,0.12527779,-0.0025612563,nan,0.10299063,0.3093994,0.5317967,0.18094793,0.14645255,inf,inf,inf,inf,0,1,0,1,1,0,1,0,2,0,0,1,0
201246796,201245043,0,nan,nan,0.0053696474,0.0074902913,4.991941,0.0,0.0,0.0,-0.0066749253,0.0073247086,-0.07463843,-0.12448942,0.0012009924,0.00042238893,0.0,-0.25118828,-0.4137338,0.3455092,0.12533501,-0.0025612563,nan,0.10370207,0.29521868,0.53093785,0.17561151,0.14630505,inf,inf,inf,inf,0,1,0,1,1,0,1,0,2,0,0,1,0
201346681,201345103,0,nan,nan,0.004995823,0.007277251,4.978962,0.0,0.0,0.0,-0.003614573,0.0054093935,-0.07384984,-0.12391818,0.0012009924,0.00042238893,0.0,-0.009358884,0.022277983,0.52548605,0.1260715,-0.0025612563,nan,0.105858326,0.30939877,0.536307,0.18099992,0.14722754,inf,inf,inf,inf,0,1,0,1,1,0,1,0,2,0,0,1,0
201446947,201445145,0,nan,nan,0.0057888026,0.007315297,4.9665747,0.0,0.0,0.0,0.012330504,0.003106347,-0.07812479,-0.12771784,0.0012009924,0.00042238893,0.0,0.016494766,-0.50558907,-0.07319993,0.12597395,-0.0025612563,nan,0.10706377,0.2952187,0.5354465,0.17562577,0.14708088,inf,inf,inf,inf,0,1,0,1,1,0,1,0,2,0,0,1,0
201547126,201545188,0,nan,nan,0.005883986,0.0072805025,4.954511,0.0,0.0,0.0,0.0017211201,0.0019821848,-0.08039583,-0.12878504,0.0012009924,0.00042238893,0.0,0.012857756,-0.38808703,-0.05708505,0.124595284,-0.0025612563,nan,0.109992504,0.3093988,0.5345739,0.18098809,0.1469304,inf,inf,inf,inf,0,1,0,1,1,0,1,0,2,0,0,1,0
201646853,201645236,0,nan,nan,0.004113476,0.0073639643,4.942636,0.0,0.0,0.0,-0.028860282,0.0036162417,-0.0839258,-0.13087182,0.0012009924,0.00042238893,0.0,-0.16650815,-0.48129192,0.033342037,0.12521163,-0.0025612563,nan,0.11159611,0.29521927,0.5337156,0.17562635,0.14678407,inf,inf,inf,inf,0,1,0,1,1,0,1,0,2,0,0,1,0
201746966,201745287,0,nan,nan,0.0010478032,0.006993666,4.931703,0.0,0.0,0.0,-0.016213566,0.0065400214,-0.086176395,-0.13068712,0.0012009924,0.00042238893,0.0,0.09006073,0.0033244535,0.055116963,0.122512184,-0.0025612563,nan,0.11431694,0.30940056,0.53287184,0.18099417,0.14664237,inf,inf,inf,inf,0,1,0,1,1,0,1,0,2,0,0,1,0
201847104,201845339,0,nan,nan,0.0010992237,0.0070061153,4.9220967,0.0,0.0,0.0,0.03269506,0.008562687,-0.077594146,-0.1190549,0.0012009924,0.00042238893,0.0,0.49042904,0.13406304,0.23908335,0.12170612,-0.0025612563,nan,0.115558624,0.29522112,0.5320152,0.17563508,0.14649536,inf,inf,inf,inf,0,1,0,1,1,0,1,0,2,0,0,1,0
201947440,201945388,0,nan,nan,0.004792162,0.0071577136,4.9131846,0.0,0.0,0.0,0.033168387,0.010453998,-0.07849627,-0.116964534,0.0012009924,0.00042238893,0.0,-0.49242923,-0.057077225,-0.08339749,0.12568967,-0.0025612563,nan,0.11289501,0.30940172,0.5311465,0.1809767,0.1463439,inf,inf,inf,inf,0,1,0,1,1,0,1,0,2,0,0,1,0
202047013,202045428,0,nan,nan,0.005953062,0.0073846146,4.902874,0.0,0.0,0.0,0.0009705109,0.0150528345,-0.085864246,-0.122450665,0.0012009924,0.00042238893,0.0,-0.16188394,0.024438547,0.107980385,0.12878089,-0.0025612563,nan,0.113361835,0.2952197,0.53651303,0.17558719,0.14726406,inf,inf,inf,inf,0,1,0,1,1,0,1,0,2,0,0,1,0
202147142,202145515,0,nan,nan,0.0062436997,0.007592665,4.892879,0.0,0.0,0.0,0.011852804,0.009426749,-0.082837276,-0.11728039,0.0012009924,0.00042238893,0.0,0.17523903,0.3982285,0.041056212,0.12930503,-0.0025612563,nan,0.11508846,0.30939946,0.53564316,0.18100752,0.1471163,inf,inf,inf,inf,0,1,0,1,1,0,1,0,2,0,0,1,0
202247138,202245524,0,nan,nan,0.0063131005,0.007763218,4.883169,0.0,0.0,0.0,-0.00020206167,0.0033294044,-0.0862877,-0.11842052,0.0012009924,0.00042238893,0.0,0.23836116,-0.075716,-0.036478672,0.12684496,-0.0025612563,nan,0.11516285,0.29521948,0.5347612,0.17560735,0.14696287,inf,inf,inf,inf,0,1,0,1,1,0,1,0,2,0,0,1,0
202347485,202345572,0,nan,nan,0.0065016528,0.007516515,4.8724422,0.0,0.0,0.0,0.008280228,0.006430925,-0.086755045,-0.11766682,0.0012009924,0.00042238893,0.0,-0.045285966,-0.026880879,-0.19896291,0.120296955,-0.0025612563,nan,0.1138258,0.3093999,0.53389406,0.18098979,0.14681418,inf,inf,inf,inf,0,1,0,1,1,0,1,0,2,0,0,1,0
202447681,202445620,0,nan,nan,0.006184922,0.007496567,4.8621945,0.0,0.0,0.0,-0.012633785,0.009868943,-0.08792195,-0.117107555,0.0012009924,0.00042238893,0.0,0.039332516,-0.24089493,0.23183317,0.122776054,-0.0025612563,nan,0.11545038,0.29521996,0.5330416,0.17560634,0.14666863,inf,inf,inf,inf,0,1,0,1,1,0,1,0,2,0,0,1,0
202547235,202545672,0,nan,nan,0.0046611787,0.008079401,4.8521514,0.0,0.0,0.0,-0.020185616,0.0018326173,-0.09553693,-0.122631475,0.0012009924,0.00042238893,0.0,0.019263728,-0.48613092,0.018772775,0.12660682,-0.0025612563,nan,0.1167531,0.30940083,0.53217673,0.18100129,0.1465211,inf,inf,inf,inf,0,1,0,1,1,0,1,0,2,0,0,1,0
202647535,202645716,0,nan,nan,0.0024329752,0.0076920483,4.8424044,0.0,0.0,0.0,-0.009867156,-0.0028663722,-0.08986657,-0.11470589,0.0012009924,0.00042238893,0.0,0.40021852,-0.6273165,-0.19496503,0.12105642,-0.0025612563,nan,0.117471695,0.2952214,0.53132623,0.17564623,0.1463757,inf,inf,inf,inf,0,1,0,1,1,0,1,0,2,0,0,1,0
202747795,202745764,0,nan,nan,0.0017733055,0.00750315,4.833338,0.0,0.0,0.0,0.012445973,-0.0002192182,-0.08480713,-0.107360594,0.0012009924,0.00042238893,0.0,0.45372683,-0.60833406,0.10807265,0.11626975,-0.0025612563,nan,0.1172843,0.3094037,0.53048974,0.1809973,0.1462333,inf,inf,inf,inf,0,1,0,1,1,0,1,0,2,0,0,1,0
202847622,202845812,0,nan,nan,0.0035895475,0.007545303,4.8245425,0.0,0.0,0.0,0.02040923,1.7334933e-06,-0.08844882,-0.10877288,0.0012009924,0.00042238893,0.0,-0.054423675,-0.036390416,-0.14691535,0.11534583,-0.0025612563,nan,0.11724758,0.29522297,0.53583825,0.17558701,0.1471499,inf,inf,inf,inf,0,1,0,1,1,0,1,0,2,0,0,1,0
202947410,202945860,0,nan,nan,0.0045982203,0.007499271,4.8156323,0.0,0.0,0.0,0.0024508426,0.00400186,-0.09120031,-0.10940466,0.0012009924,0.00042238893,0.0,-0.20902622,0.13576207,-0.102659464,0.11430013,-0.0025612563,nan,0.11749029,0.30940306,0.53497356,0.18098265,0.14700188,inf,inf,inf,inf,0,1,0,1,1,0,1,0,2,0,0,1,0
203047656,203045908,0,nan,nan,0.003958901,0.0077113723,4.8064213,0.0,0.0,0.0,-0.003935472,0.011594206,-0.09321746,-0.10944258,0.0012009924,0.00042238893,0.0,0.15484533,0.053994745,0.31305224,0.11069423,-0.0025612563,nan,0.11778355,0.29522234,0.5341234,0.17561334,0.14685872,inf,inf,inf,inf,0,1,0,1,1,0,1,0,2,0,0,1,0
203147843,203145958,0,nan,nan,0.0032719893,0.0074388487,4.7972703,0.0,0.0,0.0,0.00038798113,0.016705383,-0.094193794,-0.108629145,0.0012009924,0.00042238893,0.0,-0.15926787,-0.38962963,-0.03469862,0.108758435,-0.0025612563,nan,0.11734009,0.30940402,0.5332607,0.1810123,0.14671193,inf,inf,inf,inf,0,1,0,1,1,0,1,0,2,0,0,1,0
203247645,203246004,0,nan,nan,0.0022841617,0.0076598143,4.7879167,0.0,0.0,0.0,-0.0044478867,0.016496483,-0.09717066,-0.110027224,0.0012009924,0.00042238893,0.0,0.27168602,0.10456527,-0.06750827,0.117816135,-0.0025612563,nan,0.117376804,0.2952238,0.5323859,0.17562152,0.1465609,inf,inf,inf,inf,0,1,0,1,1,0,1,0,2,0,0,1,0
203348008,203346053,0,nan,nan,0.0028967632,0.007930285,4.7787514,0.0,0.0,0.0,0.017162973,0.021357186,-0.09613527,-0.107535966,0.0012009924,0.00042238893,0.0,0.060198937,0.028070336,0.16431396,0.12788886,-0.0025612563,nan,0.1170764,0.30940577,0.5315258,0.18100435,0.14641322,inf,inf,inf,inf,0,1,0,1,1,0,1,0,2,0,0,1,0
203448135,203446101,0,nan,nan,0.004130895,0.008327662,4.769606,0.0,0.0,0.0,0.009186923,0.0070050936,-0.095871955,-0.105944514,0.0012009924,0.00042238893,0.0,-0.15766338,-0.47972065,-0.20479357,0.13082989,-0.0025612563,nan,0.11688185,0.29522493,0.5306801,0.17563336,0.14626884,inf,inf,inf,inf,0,1,0,1,1,0,1,0,2,0,0,1,0
203547969,203546158,0,nan,nan,0.0041130767,0.008097089,4.760283,0.0,0.0,0.0,-0.0011230878,0.0034029877,-0.0981083,-0.10697888,0.0012009924,0.00042238893,0.0,-0.012966768,-0.05605227,0.0011627913,0.12723257,-0.0025612563,nan,0.11681938,0.30940628,0.53602624,0.18099447,0.14718412,inf,inf,inf,inf,0,1,0,1,1,0,1,0,2,0,0,1,0
203647731,203646197,0,nan,nan,0.0039033028,0.008033389,4.7507143,0.0,0.0,0.0,0.003644499,0.0042127753,-0.09894103,-0.10673042,0.0012009924,0.00042238893,0.0,0.080442846,0.012223789,-0.021673495,0.12301842,-0.0025612563,nan,0.11686134,0.29522544,0.5351526,0.17562836,0.14703399,inf,inf,inf,inf,0,1,0,1,1,0,1,0,2,0,0,1,0
203747897,203746247,0,nan,nan,0.0041565946,0.007907525,4.741246,0.0,0.0,0.0,0.007039632,0.0070921234,-0.09806622,-0.10488768,0.0012009924,0.00042238893,0.0,-0.0017187843,0.11107565,-0.09302756,0.12178921,-0.0025612563,nan,0.116520405,0.30940768,0.534294,0.18100974,0.14688763,inf,inf,inf,inf,0,1,0,1,1,0,1,0,2,0,0,1,0
203848371,203846293,0,nan,nan,0.004397453,0.008052966,4.7316504,0.0,0.0,0.0,0.003596834,0.008645107,-0.100446545,-0.10640536,0.0012009924,0.00042238893,0.0,-0.027598213,0.0074646496,0.020837415,0.123929575,-0.0025612563,nan,0.11638975,0.29522678,0.5334231,0.17562194,0.14673772,inf,inf,inf,inf,0,1,0,1,1,0,1,0,2,0,0,1,0
203948236,203946342,0,nan,nan,0.0044093104,0.008057356,4.7219253,0.0,0.0,0.0,0.0048789256,0.007951047,-0.10087837,-0.106070735,0.0012009924,0.00042238893,0.0,0.03524899,-0.029645028,-0.01574795,0.12530646,-0.0025612563,nan,0.116297245,0.3094087,0.53256667,0.18101153,0.1465917,inf,inf,inf,inf,0,1,0,1,1,0,1,0,2,0,0,1,0
204047927,204046396,0,nan,nan,0.004619252,0.008163191,4.7121525,0.0,0.0,0.0,0.0043373727,0.007380527,-0.10166805,-0.10618127,0.0012009924,0.00042238893,0.0,-0.059001207,-0.016373206,-0.00075887796,0.12446333,-0.0025612563,nan,0.116108894,0.2952278,0.5317245,0.17562906,0.14644894,inf,inf,inf,inf,0,1,0,1,1,0,1,0,2,0,0,1,0
204148493,204146441,0,nan,nan,0.0044798804,0.008107574,4.7023206,0.0,0.0,0.0,0.0024025622,0.006810811,-0.10150379,-0.10541681,0.0012009924,0.00042238893,0.0,-0.00024782552,0.025973635,-0.0066645066,0.123126164,-0.0025612563,nan,0.11593771,0.30940992,0.53086966,0.18101147,0.14630231,inf,inf,inf,inf,0,1,0,1,1,0,1,0,2,0,0,1,0
204248426,204246511,0,nan,nan,0.0044431714,0.008135414,4.6923666,0.0,0.0,0.0,0.003058447,0.007283043,-0.10370464,-0.10708876,0.0012009924,0.00042238893,0.0,-0.02605976,0.045335572,-0.02584442,0.123628296,-0.0025612563,nan,0.11582947,0.2952287,0.53621334,0.17562582,0.147217,inf,inf,inf,inf,0,1,0,1,1,0,1,0,2,0,0,1,0
204348082,204346534,0,nan,nan,0.0042423415,0.008043387,4.682261,0.0,0.0,0.0,0.001316349,0.006240676,-0.105023645,-0.10794195,0.0012009924,0.00042238893,0.0,-0.0037205245,-0.020739136,-0.035947006,0.12464744,-0.0025612563,nan,0.115783215,0.3094108,0.53535783,0.18101299,0.14707203,inf,inf,inf,inf,0,1,0,1,1,0,1,0,2,0,0,1,0
204448231,204446582,0,nan,nan,0.0040941904,0.008031602,4.6720624,0.0,0.0,0.0,0.002556973,0.007132525,-0.105460435,-0.10796949,0.0012009924,0.00042238893,0.0,-0.013713305,0.0061792457,-0.019836916,0.12433751,-0.0025612563,nan,0.11567354,0.29522964,0.5344898,0.175634,0.14692324,inf,inf,inf,inf,0,1,0,1,1,0,1,0,2,0,0,1,0
204548302,204546644,0,nan,nan,0.003890595,0.008012162,4.6617737,0.0,0.0,0.0,0.0016475214,0.007501466,-0.10593559,-0.108085275,0.0012009924,0.00042238893,0.0,-0.00048049784,0.020613246,-0.009522213,0.12352402,-0.0025612563,nan,0.115560055,0.30941215,0.533636,0.18101916,0.14677797,inf,inf,inf,inf,0,1,0,1,1,0,1,0,2,0,0,1,0
204648508,204646679,0,nan,nan,0.0037005306,0.0081190495,4.651392,0.0,0.0,0.0,0.0018730599,0.008174536,-0.106482595,-0.1083173,0.0012009924,0.00042238893,0.0,0.006489565,-0.003983671,0.019571196,0.12375516,-0.0025612563,nan,0.11546612,0.29523072,0.5327698,0.17563398,0.146629,inf,inf,inf,inf,0,1,0,1,1,0,1,0,2,0,0,1,0
204738440,204736722,0,nan,nan,0.0035220147,0.008099117,4.642016,0.0,0.0,0.0,0.0020033722,0.0072846594,-0.10627869,-0.107863694,0.0012009924,0.00042238893,0.0,0.0040515503,0.0018433231,0.013005544,0.12426964,-0.0025612563,nan,0.11534023,0.30796474,0.53076607,0.18047433,0.14628568,inf,inf,inf,inf,0,1,0,1,1,0,1,0,2,0,0,1,0
204848522,204846775,0,nan,nan,0.00335181,0.008135266,4.630523,0.0,0.0,0.0,0.0016622738,0.006974947,-0.10800726,-0.10932587,0.0012009924,0.00042238893,0.0,0.0014264064,-0.015182505,-0.057412304,0.12403752,-0.0025612563,nan,0.11517954,0.29523158,0.5310544,0.1756287,0.1463347,inf,inf,inf,inf,0,1,0,1,1,0,1,0,2,0,0,1,0
204948362,204946831,0,nan,nan,0.0031789641,0.008048969,4.619969,0.0,0.0,0.0,0.0024127304,0.0068252045,-0.10801966,-0.109128416,0.0012009924,0.00042238893,0.0,0.010155784,0.019553743,0.028897747,0.1236458,-0.0025612563,nan,0.11512184,0.30941385,0.5363956,0.18101212,0.14724828,inf,inf,inf,inf,0,1,0,1,1,0,1,0,2,0,0,1,0
205048833,205046871,0,nan,nan,0.0031396362,0.008099447,4.609295,0.0,0.0,0.0,0.0023207746,0.0076344637,-0.1096719,-0.11059803,0.0012009924,0.00042238893,0.0,-0.004826403,0.014668311,-0.079781175,0.123928696,-0.0025612563,nan,0.11508131,0.29523185,0.53553134,0.17563029,0.14710094,inf,inf,inf,inf,0,1,0,1,1,0,1,0,2,0,0,1,0
205148907,205146919,0,nan,nan,0.0030070634,0.00811298,4.5984254,0.0,0.0,0.0,0.0020922632,0.007993661,-0.109780304,-0.11061382,0.0012009924,0.00042238893,0.0,-0.0042148563,0.009749599,0.07195328,0.12425207,-0.0025612563,nan,0.11469364,0.3094143,0.53465486,0.18101284,0.14695005,inf,inf,inf,inf,0,1,0,1,1,0,1,0,2,0,0,1,0
205239064,205236967,0,nan,nan,0.0029759514,0.008262113,4.5885706,0.0,0.0,0.0,0.0022400771,0.008242153,-0.11043129,-0.11125021,0.0012009924,0.00042238893,0.0,-0.01777156,-0.006980809,-0.004252301,0.123978496,-0.0025612563,nan,0.11469126,0.2938513,0.53263676,0.17509718,0.14660455,inf,inf,inf,inf,0,1,0,1,1,0,1,0,2,0,0,1,0
205348555,205347016,0,nan,nan,0.002814577,0.008318365,4.5764747,0.0,0.0,0.0,0.0012614338,0.00815808,-0.110916965,-0.11168961,0.0012009924,0.00042238893,0.0,-0.009219739,-0.017007828,0.035069037,0.12363104,-0.0025612563,nan,0.114703655,0.3094147,0.53294575,0.18101138,0.14665918,inf,inf,inf,inf,0,1,0,1,1,0,1,0,2,0,0,1,0
