timestamp,gyro_rad[0],gyro_rad[1],gyro_rad[2],gyro_integral_dt,accelerometer_timestamp_relative,accelerometer_m_s2[0],accelerometer_m_s2[1],accelerometer_m_s2[2],accelerometer_integral_dt,accelerometer_clipping
186843179,-0.013992855,-0.0007956899,-0.01459017,5003,0,0.23676711,-0.5135911,-9.759666,5003,0
186848181,-0.008957324,-0.0013804832,-0.013849312,5002,0,0.22895885,-0.5425277,-9.749498,5002,0
186853179,-0.0117160315,-0.00078822346,-0.015316766,4998,0,0.17319818,-0.4922663,-9.745172,4998,0
186858185,-0.008424956,-0.00077984773,-0.014692768,5006,0,0.14759438,-0.48148614,-9.729707,5006,0
186863184,-0.005204925,-0.00015236877,-0.011720672,4999,0,0.119034655,-0.47365728,-9.796181,4999,0
186868186,-0.0033745563,-0.002668268,-0.01266951,5002,0,0.11517158,-0.50577015,-9.784446,5002,0
186873212,0.0011055476,-0.0020208864,-0.012051241,5026,0,0.111446336,-0.5072829,-9.764755,5026,0
186878191,0.0018319234,-0.0015628408,-0.010582844,4979,0,0.11998028,-0.5309771,-9.764247,4979,0
186883198,0.0052118027,-0.0025815277,-0.007807483,5007,0,0.11239916,-0.5255696,-9.736159,5007,0
186888196,0.007294298,-0.002072018,-0.0075112027,4998,0,0.1131563,-0.576646,-9.782481,4998,0
186893202,0.009554498,-0.0024444058,-0.007947603,5006,0,0.123339705,-0.5830933,-9.78758,5006,0
186898203,0.010546195,-0.0023681705,-0.0068358094,5001,0,0.060296055,-0.56965476,-9.76913,5001,0
186903203,0.012783013,-0.0014672157,-0.0066654175,5000,0,0.056763656,-0.5467358,-9.797185,5000,0
186908205,0.013488658,-0.0011550832,-0.0052461713,5002,0,0.050559632,-0.55013865,-9.796204,5002,0
186913208,0.013568674,-0.0018216962,-0.004357229,5003,0,0.029672956,-0.52113724,-9.7456455,5003,0
186918221,0.016825179,-0.0018537223,-0.004291131,5013,0,0.032098867,-0.48650643,-9.775811,5013,0
186923212,0.016683316,-0.0030501809,-0.0025913855,4991,0,0.00898871,-0.52790457,-9.77454,4991,0
186928215,0.013515535,-0.0023648373,-0.0017929587,5003,0,0.02233984,-0.494329,-9.723256,5003,0
186933221,0.012395739,-0.002754653,-0.00061696675,5006,0,0.016613664,-0.52009386,-9.755706,5006,0
186938220,0.0161492,-0.0031138868,0.00038111277,4999,0,0.022612188,-0.5075556,-9.78491,4999,0
186943222,0.011696215,-0.003016306,0.0011056709,5002,0,0.018589273,-0.52998954,-9.780144,5002,0
186948224,0.009253727,-0.0033051968,0.0018503559,5002,0,0.062625945,-0.5095891,-9.759806,5002,0
186953231,0.01095355,-0.0014457364,0.0043797563,5007,0,0.064055815,-0.5247889,-9.764657,5007,0
186958244,0.004613915,0.0004048923,0.0046261535,5013,0,0.06814422,-0.54172254,-9.777524,5013,0
186963231,0.006035716,0.0005155629,0.0031900946,4987,0,0.094140284,-0.58615416,-9.792255,4987,0
186968234,0.0041637565,-0.00015845212,0.0049304063,5003,0,0.09232228,-0.57616436,-9.790842,5003,0
186973236,0.0002723447,0.000332104,0.005673375,5002,0,0.08579206,-0.5384158,-9.770355,5002,0
186978239,-0.0023375242,0.0006616089,0.0058615375,5003,0,0.0928806,-0.56915295,-9.760297,5003,0
186983241,-0.001135035,-6.349259e-05,0.0059403838,5002,0,0.10174956,-0.5526332,-9.747003,5002,0
186988248,-0.0048083584,-0.00044861535,0.007896838,5007,0,0.10252856,-0.5675278,-9.744619,5007,0
186993246,-0.00757264,0.00049960177,0.009952978,4998,0,0.13289255,-0.5463305,-9.6809025,4998,0
186998248,-0.005451459,-0.00073962903,0.009440498,5002,0,0.12847456,-0.5350203,-9.754659,5002,0
187003251,-0.008644895,0.00070415786,0.009329024,5003,0,0.15864268,-0.5579574,-9.742597,5003,0
187008253,-0.0121625895,-0.00026002282,0.008437934,5002,0,0.16750711,-0.5187707,-9.731577,5002,0
187013255,-0.01057053,-0.00023917147,0.008653416,5002,0,0.19493292,-0.5295312,-9.706596,5002,0
187018258,-0.011808575,0.0007897451,0.009251024,5003,0,0.23385786,-0.54659,-9.712724,5003,0
187023275,-0.015010256,-0.00020506025,0.0089613,5017,0,0.22218734,-0.5190126,-9.75006,5017,0
187028262,-0.013522705,7.2341572e-06,0.009901837,4987,0,0.24014817,-0.52814,-9.7020235,4987,0
187033265,-0.010288615,0.0014441847,0.009865926,5003,0,0.23867998,-0.55123526,-9.7453985,5003,0
187038267,-0.009371348,0.0015481137,0.009212159,5002,0,0.2673761,-0.5401677,-9.723095,5002,0
187043277,-0.0061381096,-0.0015360701,0.008674104,5010,0,0.27791947,-0.5548968,-9.722222,5010,0
187048272,-0.003169195,-0.0012879302,0.00719515,4995,0,0.23721729,-0.7440939,-9.658024,4995,0
187053274,-0.043152127,0.009278492,0.012446856,5002,0,0.14475332,-0.8420555,-9.898765,5002,0
187058281,-0.048219815,0.0028430067,0.018788641,5007,0,0.15573539,-0.6538027,-9.987487,5007,0
187063279,0.0026694953,-0.009793088,0.016740948,4998,0,0.2828313,-0.4819898,-9.792679,4998,0
187068281,-0.041672904,-0.00013267745,0.014911489,5002,0,0.35080352,-0.30582398,-9.673475,5002,0
187073284,-0.05090879,0.0021306605,0.00060058414,5003,0,0.2883505,-0.29372805,-9.310411,5003,0
187078286,-0.018423421,-0.0028316234,0.0036921194,5002,0,0.18187661,-0.33611602,-9.573676,5002,0
187083289,-0.03850995,-0.0025131817,0.014171417,5003,0,0.1871897,-0.5402673,-9.762104,5003,0
187088291,-0.026457211,-0.00050227245,0.012894035,5002,0,0.28944024,-0.66585726,-9.666326,5002,0
187093294,-0.054085318,0.0074245795,0.021015782,5003,0,0.3219887,-0.46309832,-9.891151,5003,0
187098313,-0.036320645,0.008508274,0.016718697,5019,0,0.37040204,-0.35104054,-9.981339,5019,0
187103298,-0.007985116,0.005779467,0.007984368,4985,0,0.3404405,-0.31916812,-10.069277,4985,0
187108300,-0.021369245,0.00786264,0.00833333,5002,0,0.21984358,-0.3969121,-9.8339615,5002,0
187113303,-0.010723422,0.0046515316,0.0044785873,5003,0,0.23045519,-0.52738047,-9.554214,5003,0
187118305,-0.029180244,0.010156956,0.00759612,5002,0,0.21094632,-0.5933917,-9.683941,5002,0
187123308,-0.036119368,0.0072302017,0.010491588,5003,0,0.1104209,-0.69234425,-9.6969595,5003,0
187128310,-0.008769149,-0.0023754209,0.011462669,5002,0,0.09084658,-0.6263435,-9.648481,5002,0
187133312,-0.011559657,0.0029098878,0.015486135,5002,0,0.13072312,-0.5991428,-9.751864,5002,0
187138315,-0.0042002993,-0.00037744202,0.012927636,5003,0,0.1354881,-0.6241977,-9.707881,5003,0
187143317,0.0078013195,-0.0019100563,0.0134259015,5002,0,0.09570025,-0.64658624,-9.869237,5002,0
187148313,0.00017580765,0.0017768131,0.017416352,4996,0,0.10031489,-0.66545105,-9.878473,4996,0
187153322,-0.004731977,-0.0042457893,0.018018406,5009,0,0.13129002,-0.5985711,-9.708325,5009,0
187158324,-0.0011932256,0.0008123196,0.01423182,5002,0,0.1580228,-0.371279,-9.739961,5002,0
187163327,-0.000762563,0.0027554228,0.0135885235,5003,0,0.16418917,-0.163144,-9.768217,5003,0
187168329,0.013939661,-0.0021678144,0.011717973,5002,0,0.19790907,-0.27015167,-9.828892,5002,0
187173331,0.020167302,0.002256421,0.011549782,5002,0,0.115352154,-0.5197277,-9.886477,5002,0
187178334,0.006145796,0.0024257551,0.015835542,5003,0,0.03531981,-0.6191941,-9.834185,5003,0
187183336,0.0076703145,0.000954386,0.020904334,5002,0,0.078108706,-0.6066665,-9.800605,5002,0
187188339,0.00500057,0.0020639284,0.017577384,5003,0,0.12823516,-0.5047667,-9.854796,5003,0
187193341,0.0035128288,0.00043289893,0.0132273035,5002,0,0.08985203,-0.39020306,-9.752171,5002,0
187198344,0.003967298,-0.0021407714,0.013658358,5003,0,0.07651727,-0.34041676,-9.645131,5003,0
187203346,-0.01119948,-0.00026325928,0.01308728,5002,0,0.028343631,-0.42706087,-9.697597,5002,0
187208348,0.00266881,-0.0050628097,0.008903556,5002,0,0.055725187,-0.58019024,-9.610569,5002,0
187213351,-0.025687087,-0.00037598098,0.011565597,5003,0,0.10799963,-0.6206792,-9.839042,5003,0
187218353,-0.028877303,-0.0021426408,0.008280208,5002,0,0.17737913,-0.5931131,-9.721521,5002,0
187223355,0.023572883,-0.0073009594,-0.0016561536,5002,0,0.21786653,-0.6443137,-9.6832285,5002,0
187228358,-0.023483276,0.005414763,-0.001409556,5003,0,0.18798916,-0.70569074,-9.780103,5003,0
187233362,-0.010097146,0.003879962,-0.0055013997,5004,0,0.20608169,-0.7825417,-9.624514,5004,0
187238362,0.011266735,0.0029778816,-0.00020728626,5000,0,0.22656699,-0.8122916,-9.880741,5000,0
187243365,-0.007564478,0.0076072016,-0.0010722755,5003,0,0.23393472,-0.74190015,-9.961782,5003,0
187248367,0.02057562,0.0040686303,-0.008256133,5002,0,0.23414405,-0.4462187,-9.671792,5002,0
187253370,0.009846233,0.003927673,-0.00361451,5003,0,0.15904638,-0.17011091,-9.794637,5003,0
187258389,0.024540067,0.0019956366,-0.010817537,5019,0,0.26306853,-0.15492168,-9.818819,5019,0
187263388,0.039588768,-0.0034147012,-0.015115211,4999,0,0.30304757,-0.25394347,-9.816261,4999,0
187268387,0.018690975,-0.0021590781,-0.010260783,4999,0,0.11431794,-0.42375094,-9.785352,4999,0
187273390,0.026295034,-0.0049342928,-0.013100993,5003,0,0.071370676,-0.4657657,-9.721598,5003,0
187278394,0.020740055,-0.008164752,-0.0087515,5004,0,0.19938786,-0.3873674,-9.8802185,5004,0
187283397,0.030292101,-0.012446765,-0.013631834,5003,0,0.26455075,-0.44521597,-9.873883,5003,0
187288395,0.043286737,-0.012076401,-0.022619385,4998,0,0.23360077,-0.47356734,-9.732484,4998,0
187293399,0.0197038,-0.010778286,-0.018617246,5004,0,0.15322791,-0.58644354,-9.708306,5004,0
187298395,0.01819885,-0.016232194,-0.01835395,4996,0,0.17733893,-0.77327883,-9.681301,4996,0
187303418,0.014196109,-0.014819415,-0.024305938,5023,0,0.28357726,-0.7895223,-9.768669,5023,0
187308416,0.0030476425,-0.008547467,-0.028369023,4998,0,0.29719874,-0.5998837,-9.610806,4998,0
187313408,0.009057341,-0.010302422,-0.03485962,4992,0,0.25418603,-0.46189836,-9.557537,4992,0
187318420,0.011372576,-0.006595106,-0.04013964,5012,0,0.24690317,-0.50532377,-9.707325,5012,0
187323411,0.007934255,-0.0041364897,-0.042075314,4991,0,0.20747371,-0.637564,-9.695855,4991,0
187328408,0.014560376,-0.00334156,-0.042815685,4997,0,0.1461854,-0.6885044,-9.649518,4997,0
187333411,0.00966337,0.001358267,-0.040981304,5003,0,0.11019058,-0.5500316,-9.732347,5003,0
187338413,0.008648601,0.0017891951,-0.040056184,5002,0,0.13924953,-0.36942142,-9.809432,5002,0
187343415,0.021738518,-0.00012171161,-0.041036665,5002,0,0.14061645,-0.2500025,-9.912962,5002,0
187348417,0.022215892,0.0029050296,-0.042146824,5002,0,0.07347611,-0.31251633,-9.907837,5002,0
187353420,0.024581265,0.0010304106,-0.040093932,5003,0,-0.020171171,-0.39361435,-9.786095,5003,0
187358425,0.019617042,-0.0010108732,-0.033705387,5005,0,-0.031038715,-0.4284472,-9.82609,5005,0
187363429,0.008516304,-0.0029278207,-0.031208972,5004,0,0.0081972275,-0.47290093,-9.892683,5004,0
187368427,0.019064778,-0.008532549,-0.031040154,4998,0,0.06129305,-0.43863085,-9.81687,4998,0
187373430,0.01672798,-0.009062396,-0.028581746,5003,0,0.052313987,-0.49293754,-9.743216,5003,0
187378432,0.009459472,-0.011228418,-0.030637657,5002,0,0.048694305,-0.69312996,-9.706579,5002,0
187383434,0.012200269,-0.014175435,-0.0292011,5002,0,0.058172174,-0.8465799,-9.749829,5002,0
187388437,0.011147126,-0.016377162,-0.026104212,5003,0,0.06800673,-0.8828758,-9.8133,5003,0
187393439,0.001964025,-0.017153824,-0.026169304,5002,0,0.1148329,-0.762385,-9.687432,5002,0
187398442,0.0001366914,-0.017689694,-0.028977586,5003,0,0.17716414,-0.6137623,-9.618086,5003,0
187403479,-0.008173409,-0.014592677,-0.033347607,5037,0,0.212026,-0.54186195,-9.690709,5037,0
187408446,-0.01036827,-0.010525665,-0.03776529,4967,0,0.2178135,-0.5423999,-9.751597,4967,0
187413449,-0.00815589,-0.009830673,-0.040226147,5003,0,0.18718782,-0.58775663,-9.72526,5003,0
187418451,-0.015429257,-0.006709567,-0.038247403,5002,0,0.19365923,-0.6221753,-9.715398,5002,0
187423453,-0.017454345,-0.0029698696,-0.039434306,5002,0,0.19617873,-0.5731975,-9.70816,5002,0
187428456,-0.01908131,-0.001400846,-0.039071735,5003,0,0.22470392,-0.5065067,-9.753409,5003,0
187433476,-0.016438236,0.0020523341,-0.03932311,5020,0,0.21160829,-0.43027788,-9.820489,5020,0
187438460,-0.012423378,0.0032127802,-0.038848177,4984,0,0.20639472,-0.42715082,-9.734266,4984,0
187443463,-0.015001593,0.003959418,-0.037039578,5003,0,0.21484613,-0.45354792,-9.703541,5003,0
187448465,-0.015344183,0.0032454603,-0.036938906,5002,0,0.23960489,-0.4275804,-9.785059,5002,0
187458475,-0.01833193,0.0010106553,-0.038464285,5007,0,0.28116527,-0.42606434,-9.782942,5007,0
187463468,-0.018515566,-0.0031904243,-0.040145528,4993,0,0.28068817,-0.47827277,-9.800298,4993,0
187468471,-0.019236818,-0.004648074,-0.03816853,5003,0,0.27340364,-0.54326606,-9.812211,5003,0
187473475,-0.01933035,-0.0066317082,-0.039815698,5004,0,0.23838872,-0.63847476,-9.806235,5004,0
187478476,-0.01851983,-0.009224141,-0.03813589,5001,0,0.19622935,-0.701254,-9.790833,5001,0
187483480,-0.024270145,-0.011210552,-0.035894156,5004,0,0.22586355,-0.7299241,-9.789619,5004,0
187488544,-0.032060668,-0.0111751715,-0.036755316,5064,0,0.20788923,-0.6840119,-9.769203,5064,0
187493483,-0.032454353,-0.010987788,-0.035636555,4939,0,0.22719894,-0.6022311,-9.761653,4939,0
187498485,-0.031475566,-0.011835021,-0.035792787,5002,0,0.21599092,-0.5468811,-9.719293,5002,0
187503487,-0.035165235,-0.010921122,-0.038975295,5002,0,0.17294966,-0.5239452,-9.660063,5002,0
187508493,-0.037527516,-0.011392036,-0.039387107,5006,0,0.2012201,-0.47193342,-9.687683,5006,0
187513492,-0.040053125,-0.007626415,-0.03823397,4999,0,0.1590476,-0.48989314,-9.717994,4999,0
187518495,-0.040385723,-0.004345514,-0.03643837,5003,0,0.14163406,-0.50722915,-9.704803,5003,0
187523497,-0.036242764,-0.001186561,-0.036671452,5002,0,0.12912424,-0.5118399,-9.7352705,5002,0
187528499,-0.034213427,0.00097626174,-0.032964345,5002,0,0.093781695,-0.4390984,-9.747101,5002,0
187533502,-0.030526062,0.0028151139,-0.030964842,5003,0,0.11839481,-0.4447174,-9.763811,5003,0
187538504,-0.020156205,0.003584215,-0.02970531,5002,0,0.1278075,-0.4583726,-9.771743,5002,0
187543529,-0.02294281,0.0059172693,-0.02645577,5025,0,0.09374864,-0.43807265,-9.776082,5025,0
187548509,-0.01889423,0.006449946,-0.025108509,4980,0,0.120837584,-0.37247807,-9.771098,4980,0
187553511,-0.012172252,0.005539655,-0.023659656,5002,0,0.119970374,-0.3971992,-9.840959,5002,0
187558514,-0.013135025,0.004703364,-0.019733233,5003,0,0.109460674,-0.41180453,-9.84611,5003,0
187563529,-0.0005289653,0.0017970598,-0.017304065,5015,0,0.11685437,-0.46388146,-9.793583,5015,0
187568518,-0.004904014,-0.0004424266,-0.015309309,4989,0,0.11674613,-0.48620516,-9.837263,4989,0
187573528,-0.004525547,-0.0024708414,-0.014965685,5010,0,0.10994793,-0.5098339,-9.833385,5010,0
187578523,0.0028991771,-0.0077109803,-0.0117111765,4995,0,0.09475998,-0.49592006,-9.849701,4995,0
187583525,-0.0016066022,-0.008315873,-0.011232229,5002,0,0.104142986,-0.489089,-9.774806,5002,0
187588531,-0.0007184869,-0.00986524,-0.011523639,5006,0,0.11811966,-0.47866863,-9.728008,5006,0
187593542,-0.0015457574,-0.012309783,-0.010520818,5011,0,0.09130924,-0.496342,-9.710237,5011,0
187598532,-0.0053154766,-0.012086289,-0.0090978155,4990,0,0.1185548,-0.49525976,-9.72915,4990,0
187603535,-0.0021665038,-0.011332205,-0.010295087,5003,0,0.12545429,-0.57282686,-9.723708,5003,0
187608537,-0.006427332,-0.009695869,-0.008552417,5002,0,0.12713474,-0.61362934,-9.7354145,5002,0
187613540,-0.008130319,-0.0066018957,-0.009654162,5003,0,0.15213925,-0.62328357,-9.699185,5003,0
187618542,-0.0077261543,-0.0035720002,-0.01201124,5002,0,0.156481,-0.6028353,-9.746659,5002,0
187623544,-0.009648757,-0.0009397438,-0.010458107,5002,0,0.16246489,-0.5407105,-9.748271,5002,0
187628547,-0.0115134455,0.003102434,-0.0109446645,5003,0,0.16768953,-0.49765444,-9.683987,5003,0
187633549,-0.008466413,0.005606738,-0.012732186,5002,0,0.18105535,-0.41895244,-9.758629,5002,0
187638551,-0.012006214,0.004410029,-0.012156109,5002,0,0.1391436,-0.4223012,-9.77041,5002,0
187643554,-0.0073286174,0.004927461,-0.011781799,5003,0,0.11664375,-0.36497346,-9.716754,5003,0
187648556,-0.008683824,0.0064902194,-0.008631169,5002,0,0.112081364,-0.3348701,-9.77165,5002,0
187653559,-0.00728385,0.0048011383,-0.008004239,5003,0,0.098389015,-0.3373365,-9.777184,5003,0
187658572,-0.0072474005,0.0026053572,-0.0049734707,5013,0,0.077038325,-0.36808392,-9.822001,5013,0
187663563,-0.007602474,0.0016447825,-0.0028083043,4991,0,0.094421685,-0.45557836,-9.884047,4991,0
187668566,-0.005537436,-4.375101e-05,-0.0011908003,5003,0,0.1307113,-0.4763227,-9.787476,5003,0
187673572,-0.010132011,-0.00081744924,-0.0003421228,5006,0,0.13677904,-0.4978982,-9.748486,5006,0
187678571,-0.009883245,-0.0026504158,-0.00044816048,4999,0,0.12025896,-0.5524173,-9.772832,4999,0
187683573,-0.0068261,-0.0043926877,0.0001593419,5002,0,0.1457549,-0.5871406,-9.749695,5002,0
187688575,-0.0070717493,-0.005774089,0.0018283403,5002,0,0.14234512,-0.6508611,-9.719944,5002,0
187693582,-0.009567962,-0.004277478,0.0026732187,5007,0,0.14377318,-0.61270976,-9.670126,5007,0
187698580,-0.008464601,-0.0031543209,0.0020534238,4998,0,0.20285076,-0.5626068,-9.745872,4998,0
187703583,-0.0070516802,-0.004623376,0.0036366582,5003,0,0.22061422,-0.50846463,-9.77794,5003,0
187708585,-0.0016713254,-0.004329293,-2.8977312e-05,5002,0,0.21240729,-0.48512983,-9.719213,5002,0
187713587,-0.006908721,-0.001681819,-0.0004586376,5002,0,0.17082243,-0.4494256,-9.663644,5002,0
187718590,-0.011419199,-0.00011089294,-0.0015812635,5003,0,0.22563569,-0.42409918,-9.740381,5003,0
187723592,-0.012676878,-0.00021093126,-0.0027072015,5002,0,0.21278617,-0.4045384,-9.795664,5002,0
187728599,-0.012409899,0.00069465314,-0.0045963707,5007,0,0.2547956,-0.39255437,-9.821642,5007,0
187733612,-0.012964662,-0.00037354926,-0.0071053,5013,0,0.2409506,-0.3834165,-9.709423,5013,0
187738599,-0.018369265,0.0011719008,-0.009722204,4987,0,0.20229594,-0.39698634,-9.698715,4987,0
187743602,-0.020870032,0.00017387338,-0.0128024975,5003,0,0.20892556,-0.43449298,-9.758979,5003,0
187748604,-0.019625453,-0.0008516273,-0.011839901,5002,0,0.19394444,-0.53100693,-9.752073,5002,0
187753606,-0.02312248,-0.0009944296,-0.011995168,5002,0,0.16838516,-0.6070688,-9.7366295,5002,0
187758609,-0.02432993,-0.0008889126,-0.01310014,5003,0,0.11783705,-0.5653854,-9.690501,5003,0
187763611,-0.030084217,-0.001578066,-0.010077928,5002,0,0.12330777,-0.53203046,-9.782632,5002,0
187768615,-0.03052932,-0.0006997666,-0.011059226,5004,0,0.16140467,-0.5106905,-9.766258,5004,0
187773616,-0.021893278,-0.0020490577,-0.011314066,5001,0,0.13276137,-0.5740676,-9.769101,5001,0
187778618,-0.029242106,-0.00056166505,-0.009765874,5002,0,0.08085911,-0.5729572,-9.775557,5002,0
187783621,-0.0288786,-0.0020686698,-0.008490085,5003,0,0.09222151,-0.569988,-9.777265,5003,0
187788627,-0.021581586,-0.002161588,-0.007500542,5006,0,0.10763315,-0.46555454,-9.815526,5006,0
187793626,-0.025554534,-0.00018939133,-0.0055283094,4999,0,0.1034289,-0.4181188,-9.7859335,4999,0
187798628,-0.02627439,-0.000756307,-0.004898611,5002,0,0.09858817,-0.37713438,-9.715809,5002,0
187803631,-0.020416442,-0.0004857872,-0.0014765175,5003,0,0.048240833,-0.35967216,-9.7794,5003,0
187808636,-0.023647154,0.00070436153,0.0016654093,5005,0,0.032914475,-0.40085572,-9.832406,5005,0
187813635,-0.01222513,-0.00011762634,0.0020625314,4999,0,0.016427997,-0.3826165,-9.810511,4999,0
187818637,-0.012957715,-0.0016217134,0.0053809853,5002,0,0.015594677,-0.33561528,-9.726321,5002,0
187823640,-0.0126791475,0.00014744606,0.009020367,5003,0,0.095251344,-0.36215255,-9.757541,5003,0
187828642,-0.009344678,0.0010741617,0.009139185,5002,0,0.07641219,-0.45827633,-9.765877,5002,0
187833645,-0.0068588112,0.0013722742,0.013289149,5003,0,0.005540654,-0.50085014,-9.818502,5003,0
187838647,-0.0015710206,0.00031286004,0.017532041,5002,0,0.039116215,-0.55436563,-9.757011,5002,0
187843649,-0.0015044177,0.0021411858,0.02017033,5002,0,0.056828346,-0.54019034,-9.782833,5002,0
187848670,0.0006637944,0.0031581356,0.022510756,5021,0,0.045710042,-0.46095663,-9.733447,5021,0
187853654,0.0073199747,0.0005754718,0.025951026,4984,0,0.0774069,-0.45933694,-9.739624,4984,0
187858656,-0.0008267716,0.0023088702,0.03020111,5002,0,0.09869812,-0.5431069,-9.792432,5002,0
187863659,-0.00581885,0.0040491754,0.029839374,5003,0,0.12151382,-0.5842552,-9.729039,5003,0
187868661,-0.007909267,0.0042925715,0.032456174,5002,0,0.15815794,-0.49941707,-9.785161,5002,0
187873664,-0.009068187,0.0028665867,0.03427263,5003,0,0.18323222,-0.40848514,-9.835834,5003,0
187878666,-0.008684974,0.00074714003,0.03031575,5002,0,0.19672517,-0.3807432,-9.803918,5002,0
187883668,-0.006260893,0.0016987746,0.02837636,5002,0,0.1690401,-0.34155792,-9.693949,5002,0
187888671,-0.013074625,0.00046805112,0.03126483,5003,0,0.19098747,-0.40966684,-9.655213,5003,0
187893677,-0.020967545,0.0015066791,0.029779747,5006,0,0.27797294,-0.508822,-9.67388,5006,0
187898676,-0.026744274,0.0024516154,0.024481809,4999,0,0.30941042,-0.5915105,-9.676996,4999,0
187903678,-0.022964247,0.0029630528,0.021155104,5002,0,0.23466471,-0.47194412,-9.68801,5002,0
187908680,-0.012665365,0.00068786775,0.020432664,5002,0,0.26329568,-0.38196775,-9.762625,5002,0
187913683,-0.015633333,0.0013585363,0.018389532,5003,0,0.3083688,-0.49172524,-9.747661,5003,0
187918685,-0.02616435,0.0047523375,0.0120232,5002,0,0.32943544,-0.6081849,-9.743326,5002,0
187923687,-0.022757448,0.0067942324,0.011414173,5002,0,0.30114347,-0.6165811,-9.660883,5002,0
187928690,-0.024185443,0.0057706037,0.01010606,5003,0,0.30304125,-0.53799874,-9.780606,5003,0
187933712,-0.015509447,0.003632988,0.0058607417,5022,0,0.38764888,-0.4935715,-9.796664,5022,0
187938695,-0.007858794,0.0052179005,0.0011637204,4983,0,0.4422361,-0.43622875,-9.656846,4983,0
187943697,-0.011341015,0.0061275023,-0.0041514863,5002,0,0.38618857,-0.39748636,-9.746258,5002,0
187948699,-0.0035515884,0.0020970828,-0.008483893,5002,0,0.38734668,-0.43168014,-9.741474,5002,0
187953698,-0.0010631756,-0.000651963,-0.011694911,4999,0,0.36090246,-0.44897625,-9.823564,4999,0
187958704,0.0010317293,-0.0018460266,-0.016674647,5006,0,0.3517209,-0.39661485,-9.796138,5006,0
187963706,0.007954703,-0.0051835976,-0.020899089,5002,0,0.32948148,-0.3047212,-9.722045,5002,0
187968709,0.008317819,-0.0048768967,-0.02226591,5003,0,0.25233445,-0.3120037,-9.787502,5003,0
187973711,0.01464958,-0.008632583,-0.023183908,5002,0,0.20563233,-0.38890588,-9.718278,5002,0
187978714,0.012293698,-0.009608031,-0.022495283,5003,0,0.1175891,-0.47937557,-9.763528,5003,0
187983721,0.007862869,-0.008598218,-0.019380352,5007,0,0.08920641,-0.50419027,-9.800272,5007,0
187988718,0.011869616,-0.010290332,-0.018807875,4997,0,0.11573595,-0.3977971,-9.803576,4997,0
187993723,0.0129904095,-0.009905559,-0.0185706,5005,0,0.15481938,-0.330696,-9.842607,5005,0
187998723,0.02014628,-0.006615378,-0.02365094,5000,0,0.15642643,-0.42649806,-9.713624,5000,0
188003726,0.018731927,-0.0036477242,-0.023342762,5003,0,0.07066698,-0.55800873,-9.718091,5003,0
188008728,0.009404217,-0.0020436943,-0.01541243,5002,0,0.02946755,-0.6816183,-9.797241,5002,0
188013730,0.015510364,-0.0029091234,-0.01109918,5002,0,0.04807476,-0.665862,-9.80981,5002,0
188018768,0.00759016,-0.0009238797,-0.009114502,5038,0,0.07518521,-0.49541423,-9.812459,5038,0
188023736,0.006622857,0.0021836576,-0.008813919,4968,0,0.060129214,-0.33014107,-9.744367,4968,0
188028737,0.013887972,0.0006799953,-0.008731434,5001,0,0.11843298,-0.21611384,-9.768989,5001,0
188033740,0.011501552,-0.001543025,-0.010116498,5003,0,0.10319853,-0.30867654,-9.807603,5003,0
188038772,0.0057507455,-0.0026444101,-0.010108147,5032,0,0.10606196,-0.42665452,-9.730995,5032,0
188043746,-0.007417283,-0.0014442469,-0.0069026905,4974,0,0.13767098,-0.49336165,-9.676525,4974,0
188048754,-0.012592253,-0.0012915187,-0.00946493,5008,0,0.21336323,-0.49010226,-9.734619,5008,0
188053752,-0.009238414,-0.0041230493,-0.013115905,4998,0,0.28384438,-0.46206075,-9.819679,4998,0
188058757,0.0009380552,-0.0053919824,-0.020680394,5005,0,0.28600585,-0.48700574,-9.765024,5005,0
188063752,-0.0018461643,-0.004475963,-0.025558123,4995,0,0.2468147,-0.6198463,-9.637036,4995,0
188068753,-0.0104807075,-0.0037829068,-0.027889512,5001,0,0.23073997,-0.70679295,-9.663755,5001,0
188073768,-0.009589117,-0.0044443556,-0.029098451,5015,0,0.20819628,-0.70185864,-9.744864,5015,0
188078773,-0.009807567,-0.0055492455,-0.03137387,5005,0,0.20359084,-0.6545502,-9.743395,5005,0
188083780,-0.007600718,-0.0045396406,-0.030623345,5007,0,0.16206829,-0.52446127,-9.680979,5007,0
188088788,-0.0053604366,-0.004497897,-0.032485705,5008,0,0.13800819,-0.45982727,-9.764062,5008,0
188093782,-0.0035560378,-0.0022031865,-0.032153018,4994,0,0.021590527,-0.44088182,-9.849929,4994,0
188098788,0.00053433387,-0.0029111605,-0.026905177,5006,0,-0.037918977,-0.4107501,-9.872539,5006,0
188103788,-0.001671077,-0.0036621662,-0.019810792,5000,0,-0.10007815,-0.39449623,-9.835786,5000,0
188108794,-0.0045246305,-0.0013297561,-0.012664624,5006,0,-0.124231346,-0.31246004,-9.796727,5006,0
188113798,-0.0034706036,-0.0018271332,-0.007684101,5004,0,-0.08241718,-0.19889712,-9.799162,5004,0
188118807,0.0028053084,-0.0012324885,-0.00025957817,5009,0,-0.063917994,-0.1535665,-9.829718,5009,0
188123790,0.0032306688,-0.0008811309,0.006208424,4983,0,-0.12974456,-0.18338163,-9.7881775,4983,0
188128817,0.004977682,-0.000819603,0.014266213,5027,0,-0.123342276,-0.2512018,-9.801165,5027,0
188133825,0.006270612,0.00052247144,0.02400458,5008,0,-0.06258084,-0.36767137,-9.820523,5008,0
188138797,0.002583983,0.0013493273,0.02861562,4972,0,-0.011215576,-0.45763692,-9.832905,4972,0
188143803,0.0058793128,0.0028431644,0.03130364,5006,0,0.023650013,-0.45073217,-9.837338,5006,0
188148802,0.009962444,0.0020032183,0.035506148,4999,0,0.059018552,-0.4694482,-9.779108,4999,0
188153813,0.015257315,0.0041133906,0.03506185,5011,0,0.110016726,-0.53546923,-9.749885,5011,0
188158806,0.011515151,0.006846272,0.03568972,4993,0,0.17098188,-0.63027877,-9.716704,4993,0
188163801,0.009946997,0.007174517,0.038650475,4995,0,0.17355998,-0.70159614,-9.715088,4995,0
188168804,0.008884171,0.0059997467,0.03841943,5003,0,0.23377863,-0.6916171,-9.755944,5003,0
188173806,0.0117281,0.005062131,0.03475854,5002,0,0.336443,-0.5961379,-9.722371,5002,0
188178809,0.015603728,0.002836136,0.029445838,5003,0,0.35004357,-0.5140495,-9.678151,5003,0
188183811,0.0097376695,0.0035543619,0.024144081,5002,0,0.35636544,-0.48320186,-9.750933,5002,0
188188821,0.010775465,0.0008380955,0.02008093,5010,0,0.32943627,-0.5429745,-9.849433,5010,0
188193816,0.0074553457,-0.0020276005,0.018344164,4995,0,0.32238021,-0.5884131,-9.808987,4995,0
188198821,0.00093791226,-0.0033460134,0.014945599,5005,0,0.33296016,-0.5870184,-9.683875,5005,0
188203824,-0.0044453517,1.6512511e-05,0.01249925,5003,0,0.29659176,-0.48096833,-9.639029,5003,0
188208826,-0.0060816496,-0.00083602255,0.011108968,5002,0,0.30776235,-0.33935374,-9.694435,5002,0
188213825,0.002613295,-0.003522091,0.011964144,4999,0,0.29152235,-0.33193126,-9.730729,4999,0
188218828,0.0025307704,-0.0030228829,0.009526391,5003,0,0.28236383,-0.40107438,-9.70464,5003,0
188223830,-0.0039340914,0.00077296986,0.009530566,5002,0,0.25239652,-0.42285657,-9.611106,5002,0
188228827,-0.005334115,0.0015068288,0.01153302,4997,0,0.2773123,-0.36227512,-9.747731,4997,0
188233835,0.001388456,0.0019662397,0.013921791,5008,0,0.29852533,-0.2940577,-9.842422,5008,0
188238862,0.0127306115,0.0024568604,0.0133250095,5027,0,0.2905707,-0.34412962,-9.838401,5027,0
188243841,0.012248609,0.005037642,0.010987469,4979,0,0.30634037,-0.39715174,-9.710836,4979,0
188248842,0.010833618,0.009729335,0.013943976,5001,0,0.27496645,-0.43882915,-9.726419,5001,0
188253844,0.015486591,0.0070898794,0.011419432,5002,0,0.2695095,-0.5431411,-9.820989,5002,0
188258847,0.016534368,0.0046348358,0.0111024,5003,0,0.28859368,-0.6092012,-9.843715,5003,0
188263849,0.017192906,0.0025795389,0.01125628,5002,0,0.30397603,-0.63396853,-9.6930685,5002,0
188268851,0.012446273,0.0028344656,0.0075744363,5002,0,0.3402296,-0.66093886,-9.670304,5002,0
188273854,0.0011869018,0.0023158763,0.0032883722,5003,0,0.3216483,-0.6716776,-9.739947,5003,0
188278856,-0.0012096748,-0.0020039387,0.00055433117,5002,0,0.30045643,-0.6755824,-9.833328,5002,0
188283859,-0.0041997232,-0.006417831,-0.0003923036,5003,0,0.24788837,-0.6237776,-9.774967,5003,0
188288861,-0.018222865,-0.0045880713,-9.047717e-05,5002,0,0.19369802,-0.5176272,-9.69314,5002,0
188293862,-0.024136225,-0.007852268,-0.002639073,5001,0,0.17932343,-0.4082242,-9.688731,5001,0
188298866,-0.03130023,-0.0073735137,-0.0050509106,5004,0,0.19064547,-0.34283635,-9.841375,5004,0
188303872,-0.03702884,-0.0060337028,-0.004067539,5006,0,0.11739564,-0.272577,-9.789278,5006,0
188308870,-0.034472283,-0.004444816,-0.004384294,4998,0,0.05987374,-0.22525468,-9.715583,4998,0
188313873,-0.042439915,-0.00025456143,0.0003547948,5003,0,0.00878198,-0.22238638,-9.694617,5003,0
188318875,-0.045329906,0.003962878,0.0028999108,5002,0,0.010043366,-0.27581292,-9.698301,5002,0
188323878,-0.043045577,0.0068363305,0.0054303794,5003,0,-0.020600393,-0.34291416,-9.752831,5003,0
188328880,-0.045541927,0.010669128,0.010116504,5002,0,-0.037880205,-0.3931604,-9.736905,5002,0
188333883,-0.04414438,0.012694375,0.014023916,5003,0,0.011849379,-0.41213328,-9.687379,5003,0
188338885,-0.043355577,0.014619898,0.014983754,5002,0,0.013574641,-0.4143878,-9.774498,5002,0
188343887,-0.034237105,0.014659891,0.015061545,5002,0,0.09202338,-0.4157232,-9.868823,5002,0
188348890,-0.030683085,0.014251656,0.014984021,5003,0,0.105088934,-0.48607185,-9.821697,5003,0
188353892,-0.024935357,0.010866218,0.013059302,5002,0,0.13222562,-0.6002318,-9.803666,5002,0
188358894,-0.01609032,0.008291457,0.008368782,5002,0,0.12134532,-0.64300317,-9.75769,5002,0
188363897,-0.011703938,0.0058114566,0.0060183024,5003,0,0.17902286,-0.661671,-9.780001,5003,0
188368909,-0.012821485,0.0022963295,0.0021052007,5012,0,0.23153597,-0.65371174,-9.750284,5012,0
188373901,-0.0051061297,-0.0032521056,-0.0014771377,4992,0,0.20071231,-0.5923511,-9.78161,4992,0
188378911,-0.0017507658,-0.0044116173,-0.006289012,5010,0,0.15131475,-0.49504372,-9.776135,5010,0
188383906,-0.0019872086,-0.0091877235,-0.008246354,4995,0,0.1310039,-0.37919852,-9.879593,4995,0
188388909,0.0047744596,-0.012022907,-0.0124764955,5003,0,0.13189018,-0.34115726,-9.864297,5003,0
188393911,0.0044706985,-0.013035829,-0.016313603,5002,0,0.12209727,-0.33336803,-9.806329,5002,0
188398914,0.006146474,-0.012990021,-0.017773392,5003,0,0.10079919,-0.30357736,-9.727885,5003,0
188403916,0.0077587324,-0.011573245,-0.01881305,5002,0,-0.006830575,-0.331756,-9.735325,5002,0
188408918,0.009447793,-0.009126326,-0.016624764,5002,0,-0.03128028,-0.37606478,-9.74149,5002,0
188413930,0.010447654,-0.007997956,-0.014100284,5012,0,-0.046384856,-0.37308475,-9.799049,5012,0
188418923,0.011126078,-0.0058326013,-0.008878837,4993,0,-0.060606148,-0.33717853,-9.782065,4993,0
188423925,0.012539332,-0.0023801164,-0.005802534,5002,0,-0.055484526,-0.32158732,-9.722374,5002,0
188428928,0.010820237,3.3287422e-05,-0.003625232,5003,0,-0.026611334,-0.3686393,-9.752126,5003,0
188433930,0.012165288,0.003521533,-0.0016768187,5002,0,0.010583111,-0.41872662,-9.747003,5002,0
188438932,0.007939456,0.0033611204,-0.00044424974,5002,0,0.0006150143,-0.44616178,-9.824976,5002,0
188443935,0.0047014114,0.004819869,0.003352646,5003,0,0.029314967,-0.4176076,-9.777164,5003,0
188448937,0.008082453,0.0035419539,0.005300747,5002,0,0.0822322,-0.38906455,-9.77287,5002,0
188453940,0.002798964,0.0054205647,0.005581071,5003,0,0.092216305,-0.3661343,-9.853904,5003,0
188458942,0.00019986677,0.002609476,0.0052210134,5002,0,0.08065009,-0.34804994,-9.774239,5002,0
188463962,0.004628118,-9.8421784e-05,0.006837648,5020,0,0.15212065,-0.43175596,-9.750669,5020,0
188468947,0.0033159484,-0.0021034013,0.0060078884,4985,0,0.1937498,-0.5401216,-9.800743,4985,0
188473949,0.0027333423,-0.0024234282,0.0015106954,5002,0,0.18005793,-0.52845496,-9.781095,5002,0
188478952,-0.0010321159,-0.0039641275,0.00178798,5003,0,0.14934295,-0.45882723,-9.803579,5003,0
188483954,0.0018276494,-0.007768732,0.0010983107,5002,0,0.24138886,-0.5154694,-9.738484,5002,0
188488956,-0.0010234377,-0.0057589975,0.0005820774,5002,0,0.31523642,-0.59909654,-9.734586,5002,0
188493959,-0.010629747,-0.001843962,-0.0065903673,5003,0,0.21421982,-0.6229775,-9.747696,5003,0
188498961,-0.0052981935,-0.0073214127,-0.0073122485,5002,0,0.19998077,-0.54253656,-9.70796,5002,0
188503964,0.002553701,-0.008714517,-0.0040170695,5003,0,0.2649693,-0.57895285,-9.747543,5003,0
188508966,-0.009567149,-0.002402444,-0.0069802804,5002,0,0.27074543,-0.572601,-9.720478,5002,0
188513968,-0.010705324,-0.0023034427,-0.010866735,5002,0,0.1756255,-0.49208072,-9.617928,5002,0
188518970,-0.005756715,-0.0019103382,-0.0045505785,5002,0,0.11211647,-0.32291564,-9.724524,5002,0
188523973,-0.00870315,-0.0020121802,-0.0034373833,5003,0,0.15235752,-0.31409082,-9.781597,5003,0
188528983,-0.0077572926,-0.0015369247,-0.0052344734,5010,0,0.16837901,-0.2670805,-9.741123,5010,0
188533978,-0.009221647,0.0021732757,-0.0026299048,4995,0,0.14684966,-0.22157672,-9.732341,4995,0
188538980,-0.0103787305,0.0017740894,0.0006714986,5002,0,0.111045666,-0.2594453,-9.818968,5002,0
188543983,-0.009916115,0.0022640629,0.0019192259,5003,0,0.09212186,-0.28225628,-9.869722,5003,0
188549011,-0.007461361,0.0015768866,0.0041089426,5028,0,0.1301419,-0.33711118,-9.775646,5028,0
188553987,-0.0073514967,0.0020617952,0.0050522955,4976,0,0.2034039,-0.3480458,-9.708879,4976,0
188558990,-0.009086251,0.0024671536,0.004973024,5003,0,0.18860249,-0.480308,-9.730197,5003,0
188563992,-0.00060099654,0.0018273843,0.0054723336,5002,0,0.18038496,-0.5671872,-9.775275,5002,0
188568992,0.0024609787,0.00079357176,0.0081866225,5000,0,0.23070678,-0.6693048,-9.770523,5000,0
188573997,0.0030961402,-0.00032406946,0.007909463,5005,0,0.26419297,-0.6836068,-9.778881,5005,0
188578999,0.005357701,-0.00017117176,0.0063912333,5002,0,0.2785237,-0.6134454,-9.749491,5002,0
188584001,0.009927291,0.00021390525,0.005334252,5002,0,0.29712495,-0.5928603,-9.786275,5002,0
188589004,0.0061865803,-0.0008552754,0.005108784,5003,0,0.23748471,-0.5599129,-9.823917,5003,0
188594006,0.0067586047,-0.0024375713,0.0033907187,5002,0,0.2247635,-0.5230955,-9.8264885,5002,0
188599012,0.0046766913,-0.0045561725,0.005676069,5006,0,0.20460099,-0.45529768,-9.765545,5006,0
188604011,-0.0065440447,-0.0048776157,0.005971683,4999,0,0.27676043,-0.37749413,-9.806671,4999,0
188609013,-0.007943804,-0.0040165964,0.00087971374,5002,0,0.25430545,-0.22246963,-9.732974,5002,0
188614016,-0.010432033,-0.0071766754,-0.0037238738,5003,0,0.27318466,-0.1609706,-9.728004,5003,0
188619021,-0.010754939,-0.009918428,-0.0039545144,5005,0,0.31404597,-0.33683982,-9.735193,5005,0
188624020,-0.020738479,-0.0043790615,-0.008192885,4999,0,0.23775844,-0.55189484,-9.696018,4999,0
188629023,-0.027959755,-0.004482631,-0.012077969,5003,0,0.15709168,-0.49657834,-9.669328,5003,0
188634057,-0.0216524,-0.008361702,-0.010935224,5034,0,0.20994025,-0.4333697,-9.621646,5034,0
188639028,-0.03648149,-0.002071707,-0.012208816,4971,0,0.23969355,-0.5248257,-9.692315,4971,0
188644030,-0.048350744,0.0012799918,-0.019660328,5002,0,0.2217262,-0.5993107,-9.581176,5002,0
188649036,-0.049574956,0.0016249934,-0.020623958,5006,0,0.19301794,-0.639796,-9.682659,5006,0
188654035,-0.06261783,0.004494267,-0.017462805,4999,0,0.18804497,-0.7427138,-9.764529,4999,0
188659037,-0.055826686,0.0021615042,-0.022257384,5002,0,0.1667534,-0.68413264,-9.762608,5002,0
188664040,-0.05826673,0.005497827,-0.025268694,5003,0,0.11824806,-0.46606192,-9.76859,5003,0
188669042,-0.06373586,0.0075915563,-0.025862904,5002,0,0.15487115,-0.40565634,-9.691695,5002,0
188674045,-0.055598926,0.002880826,-0.02690751,5003,0,0.090689175,-0.37607947,-9.728235,5003,0
188679047,-0.06291493,0.007833344,-0.025240825,5002,0,0.01386839,-0.39160094,-9.840279,5002,0
188684049,-0.050187815,0.004085221,-0.022891555,5002,0,0.007550935,-0.30952358,-9.84657,5002,0
188689051,-0.042021606,0.000541769,-0.01684511,5002,0,0.01760294,-0.15842164,-9.917644,5002,0
188694054,-0.0420608,-0.0008195873,-0.017808761,5003,0,0.03892909,-0.037555255,-9.917688,5003,0
188699056,-0.031118477,-0.0045081708,-0.020498348,5002,0,0.08167436,0.019289074,-9.85707,5002,0
188704059,-0.029982371,-0.005571447,-0.018482763,5003,0,0.120906115,-0.0647282,-9.832184,5003,0
188709061,-0.024964383,-0.006180321,-0.022867618,5002,0,0.04635002,-0.27214527,-9.811274,5002,0
188714063,-0.021844711,-0.0083026495,-0.0233464,5002,0,0.011090985,-0.34062225,-9.786412,5002,0
188719073,-0.01194585,-0.010565955,-0.018875862,5010,0,0.0062040784,-0.46239138,-9.799558,5010,0
188724068,-0.008988608,-0.01019141,-0.01877161,4995,0,0.0661032,-0.58622766,-9.829368,4995,0
188729070,-0.0010324854,-0.012214478,-0.020448856,5002,0,0.085456826,-0.6395503,-9.723673,5002,0
188734077,-0.0016661255,-0.0097488575,-0.019123146,5007,0,0.008637698,-0.67605823,-9.699465,5007,0
188739076,-0.011686693,-0.009460766,-0.019881649,4999,0,0.05390228,-0.574688,-9.795814,4999,0
188744078,-0.0093193855,-0.013032367,-0.021726169,5002,0,0.12086367,-0.5542032,-9.772173,5002,0
188749080,-0.027655134,-0.010321622,-0.02409383,5002,0,0.13024652,-0.52461964,-9.751249,5002,0
188754082,-0.027478455,-0.006971835,-0.027555648,5002,0,0.06506529,-0.5750141,-9.69544,5002,0
188759085,-0.03188805,-0.006587843,-0.03248056,5003,0,-0.16338764,-0.4675785,-9.749623,5003,0
188764087,-0.050412826,-0.008518602,-0.024145378,5002,0,-0.081413575,-0.2519375,-9.72436,5002,0
188769090,-0.03700375,-0.009540139,-0.024988191,5003,0,0.12528054,-0.1774668,-9.65449,5003,0
188774092,-0.04528138,-0.0014251352,-0.029766798,5002,0,0.056914967,-0.17635661,-9.758011,5002,0
188779094,-0.04795807,-0.0015037158,-0.024806634,5002,0,0.00038526882,-0.39714107,-9.719797,5002,0
188784097,-0.031064453,-0.0031937582,-0.018765455,5003,0,-0.030223235,-0.61138475,-9.870116,5003,0
188789099,-0.039144278,0.0020570362,-0.019429628,5002,0,-0.14941938,-0.52668005,-9.891875,5002,0
188794115,-0.02956036,-0.0037072615,-0.015699854,5016,0,0.073243886,-0.12214293,-9.613155,5016,0
188799104,-0.03543512,-0.00245869,-0.012781662,4989,0,0.30037352,0.13606519,-9.6755295,4989,0
188804106,-0.03640618,0.0046764757,-0.024073346,5002,0,0.26384044,-0.01693547,-9.830307,5002,0
188809109,-0.007223278,-0.000984466,-0.02558516,5003,0,0.05868606,-0.33213973,-9.832889,5003,0
188814111,-0.015047115,-0.0025965266,-0.016292328,5002,0,-0.05278949,-0.6172263,-10.025089,5002,0
188819113,-0.020974156,-0.0068984167,-0.014817418,5002,0,0.079901785,-0.60971826,-9.873925,5002,0
188824118,-0.006205648,-0.011683663,-0.016473334,5005,0,0.20903908,-0.30630443,-9.774777,5005,0
188829122,-0.023134869,-0.002307081,-0.016260482,5004,0,0.125032,-0.06765815,-9.820047,5004,0
188834124,-0.02240797,-0.010692784,-0.01841443,5002,0,0.06707061,-0.11344096,-9.766692,5002,0
188839123,-0.012142483,-0.016877515,-0.015965575,4999,0,0.0013256249,-0.3394206,-9.911506,4999,0
188844126,0.01836477,-0.015736751,-0.019483149,5003,0,-0.1382618,-0.69928926,-9.705411,5003,0
188849128,0.01880935,-0.014975032,-0.010644424,5002,0,-0.19463357,-0.69368595,-9.538665,5002,0
188854130,-0.008034977,-0.013311816,0.004184034,5002,0,-0.14769517,-0.65064526,-9.481157,5002,0
188859132,-0.0008380579,-0.007134995,0.009359861,5002,0,-0.06852886,-0.6647944,-9.58443,5002,0
188864135,-0.013854276,-0.0024388537,0.019222045,5003,0,0.07654783,-0.5842482,-9.784983,5003,0
188869141,-0.0069450415,0.0022669598,0.025354378,5006,0,0.079278685,-0.50978047,-9.856839,5006,0
188874140,-0.0048884233,0.0064138593,0.025651222,4999,0,0.22040802,-0.3908061,-10.009484,4999,0
188879142,0.0044053514,0.0059847287,0.023157189,5002,0,0.3943909,-0.27546722,-9.936016,5002,0
188884145,0.014612675,0.005215376,0.017798692,5003,0,0.5160863,-0.117836155,-9.788247,5003,0
188889147,0.016428445,0.008546255,0.013656702,5002,0,0.57705206,-0.08738706,-9.663136,5002,0
188894149,0.027010333,0.005528395,0.0060774903,5002,0,0.5647795,-0.2090079,-9.56044,5002,0
188899152,0.026618654,0.005506663,0.002629532,5003,0,0.43097553,-0.23415184,-9.689052,5003,0
188904158,0.03979456,-7.207051e-05,0.008668545,5006,0,0.36710373,-0.191978,-9.750661,5006,0
188909187,0.057586934,-0.009326192,0.008524506,5029,0,0.38237023,-0.20194495,-9.781294,5029,0
188914182,0.043656968,-0.006849254,0.007981124,4995,0,0.3970192,-0.18524386,-9.827322,4995,0
188919161,0.037265997,-0.0073752636,0.009264687,4979,0,0.29824832,-0.17103307,-9.796464,4979,0
188924163,0.032751326,-0.010489309,0.009620351,5002,0,0.17342436,-0.09915839,-9.90778,5002,0
188929166,0.024324682,-0.012242483,0.014608318,5003,0,0.22309366,-0.18014687,-9.817295,5003,0
188934169,0.020500885,-0.011187086,0.01824919,5003,0,0.3309995,-0.4074849,-9.66215,5003,0
188939170,0.0046980595,-0.005514654,0.016043691,5001,0,0.3441001,-0.6436638,-9.60281,5001,0
188944173,-0.004602776,-0.0004089525,0.0198519,5003,0,0.27459604,-0.7922025,-9.608197,5003,0
188949176,-0.00038399323,-3.4026416e-05,0.027893968,5003,0,0.24023849,-0.87476504,-9.63507,5003,0
188954178,0.00054509635,0.0026525897,0.030013593,5002,0,0.3660539,-0.8515521,-9.5843,5002,0
188959181,-0.008647728,0.008230686,0.02792093,5003,0,0.4762542,-0.6952381,-9.573767,5003,0
188964182,-0.009478964,0.011120811,0.025312347,5001,0,0.5270798,-0.4935811,-9.610354,5001,0
188969185,-0.0073219547,0.012280215,0.019983782,5003,0,0.5122013,-0.3465829,-9.694697,5003,0
188974187,-0.016931256,0.01195635,0.014888024,5002,0,0.45141557,-0.22385107,-9.764212,5002,0
188979190,-0.013144976,0.010497765,0.013485552,5003,0,0.40886548,-0.111075245,-9.691777,5003,0
188984192,-0.011882723,0.010130925,0.012022037,5002,0,0.40357468,-0.09421763,-9.781619,5002,0
188989194,-0.021735262,0.011694642,0.012797743,5002,0,0.33392718,-0.13963306,-9.782686,5002,0
188994216,-0.017495394,0.0073421504,0.014739007,5022,0,0.21099503,-0.22542478,-9.829309,5022,0
188999203,-0.016304597,0.0075437566,0.01927536,4987,0,0.20786975,-0.31497747,-9.880528,4987,0
189004202,-0.016082099,0.0061314185,0.020736393,4999,0,0.22816509,-0.3396373,-9.854979,4999,0
189009204,-0.012086932,0.0027308108,0.023184972,5002,0,0.2132223,-0.29644766,-9.800698,5002,0
189014206,-0.015218608,0.00046408002,0.024378518,5002,0,0.3047382,-0.38244298,-9.767768,5002,0
189019209,-0.010051246,0.0016435322,0.01941776,5003,0,0.36221626,-0.48250937,-9.701719,5003,0
189024215,-0.00552295,0.003806192,0.014496113,5006,0,0.10916665,-0.29869467,-9.710899,5006,0
189029213,-0.007468263,-0.0013519663,0.018099377,4998,0,0.030356975,-0.09060107,-9.697668,4998,0
189034216,0.0002840709,-0.0061003985,0.028350329,5003,0,0.40977558,-0.41229713,-9.682647,5003,0
189039223,-0.005765479,0.00491161,0.017490625,5007,0,0.48110875,-0.92896825,-9.800509,5007,0
189044220,-0.027929228,0.011729579,0.0034707151,4997,0,0.20070654,-0.868157,-9.7452345,4997,0
189049223,0.0014623507,-0.001277719,0.007899109,5003,0,-0.023301912,-0.49112615,-9.714802,5003,0
189054225,0.01567346,-0.0027490498,0.011686868,5002,0,0.13138554,-0.3673291,-9.884606,5002,0
189059228,0.0066756983,0.0016636499,0.0028933806,5003,0,0.34222156,-0.49264383,-9.644193,5003,0
189064234,0.0009984624,0.008566103,-0.00031961213,5006,0,0.1223737,-0.5133916,-9.50324,5006,0
189069232,-0.028555522,0.011995325,0.0063172323,4998,0,-0.19154558,-0.4156623,-9.742224,4998,0
189074235,-0.015741255,-0.0020934045,0.009634522,5003,0,-0.09369704,-0.24044909,-9.885556,5003,0
189079261,0.0022341555,-0.004204149,0.011385349,5026,0,0.2825661,-0.19538297,-10.004748,5026,0
189084240,-0.005470935,0.004947092,-0.003880989,4979,0,0.31667247,-0.28044087,-9.844654,4979,0
189089242,-0.011415673,0.0070665367,-0.014532962,5002,0,0.0019040266,-0.21646154,-9.653175,5002,0
189094244,-0.012535148,0.0021794152,-0.005584531,5002,0,-0.27947044,-0.21747133,-9.770201,5002,0
189099247,-0.010891829,-0.0041678776,0.004280662,5003,0,-0.072823696,-0.45731363,-9.824197,5003,0
189104250,-0.013622938,0.0003209703,0.0050953524,5003,0,0.19309855,-0.6152522,-9.721049,5003,0
189109258,-0.028797587,0.0082000205,0.0014910825,5008,0,0.051938966,-0.34987038,-9.700877,5008,0
189114257,-0.016987573,0.0018116109,-0.0015691988,4999,0,-0.06638976,-0.074926175,-9.807939,4999,0
189119256,0.0084133,-0.005504623,-0.0011085938,4999,0,0.10892243,-0.09928458,-9.900867,4999,0
189124259,0.011082722,-0.0023506412,-0.010282283,5003,0,0.29403406,-0.3519504,-9.878904,5003,0
189129261,0.00401083,0.0024031603,-0.021201164,5002,0,0.13985597,-0.4319367,-9.602767,5002,0
189134264,-0.0036637606,0.0013545207,-0.016742917,5003,0,-0.14834811,-0.33251953,-9.6355295,5003,0
189139266,-0.002161515,-0.0022855755,-0.010928602,5002,0,-0.17513828,-0.3764229,-9.853044,5002,0
189144273,0.011088876,-0.0008844275,-0.00878267,5007,0,-0.008683228,-0.4748397,-9.908541,5007,0
189149270,0.014547,0.0003901888,-0.008070685,4997,0,-0.040835615,-0.4626269,-9.84923,4997,0
189154273,0.0065323133,0.0022144131,-0.0062321243,5003,0,-0.11751548,-0.3398203,-9.812925,5003,0
189159275,0.003637839,-0.004737406,-0.0039051226,5002,0,-0.035289306,-0.2215021,-9.841487,5002,0
189164315,0.006993458,-0.00977377,-0.008217175,5040,0,0.16360131,-0.29853937,-9.83468,5040,0
189169280,0.0002146251,-0.004236592,-0.015308083,4965,0,0.22307584,-0.44616574,-9.771595,4965,0
189174282,-0.008297298,-0.004654045,-0.024538735,5002,0,0.012937192,-0.44913366,-9.611763,5002,0
189179285,-0.008245614,-0.009198968,-0.024334695,5003,0,0.009360235,-0.39614028,-9.639461,5003,0
189184287,-0.0018596634,-0.01146689,-0.022676116,5002,0,0.08540232,-0.5232031,-9.665587,5002,0
189189294,0.0009739603,-0.0077851173,-0.027049303,5007,0,0.14552964,-0.6403956,-9.669726,5007,0
189194292,-0.014166433,-0.0031059762,-0.026248636,4998,0,0.0062793414,-0.5974835,-9.70886,4998,0
189199295,-0.014468837,-0.0059429687,-0.0201055,5003,0,-0.01183434,-0.43854597,-9.836499,5003,0
189204297,-0.004731369,-0.008538834,-0.019913323,5002,0,0.07721792,-0.29794282,-9.877043,5002,0
189209299,-0.004532714,-0.0043390286,-0.025779875,5002,0,0.11864764,-0.12090572,-9.797642,5002,0
189214302,-0.012648308,-0.0007709654,-0.026548298,5003,0,0.09173274,-0.03383082,-9.740939,5003,0
189219308,-0.013417937,-0.0022122776,-0.02166827,5006,0,0.13295816,-0.20857255,-9.771043,5006,0
189224307,-0.01423725,-0.00010361352,-0.025308425,4999,0,0.13067754,-0.42540875,-9.862516,4999,0
189229309,-0.0067939507,-0.0037396133,-0.02764957,5002,0,0.09786843,-0.39011943,-9.7354555,5002,0
189234311,0.0038720276,-0.005912505,-0.022551268,5002,0,0.14765035,-0.26011536,-9.710777,5002,0
189239314,-0.002880925,-0.006613782,-0.024164174,5003,0,0.37664646,-0.39366668,-9.799452,5003,0
189244316,0.0016209244,-0.0076238923,-0.033917315,5002,0,0.41000894,-0.5497749,-9.71115,5002,0
189249326,0.0038773846,-0.0053155543,-0.03936646,5010,0,0.20303495,-0.4481934,-9.732726,5010,0
189254321,8.8229644e-05,-0.0080634225,-0.039862715,4995,0,-0.012108128,-0.25563502,-9.723332,4995,0
189259323,0.007326413,-0.016509991,-0.03706001,5002,0,0.16461132,-0.1944054,-9.700041,5002,0
189264326,0.0071945395,-0.012379281,-0.03588567,5003,0,0.31250915,-0.36229527,-9.821462,5003,0
189269329,-0.013411864,-0.006120813,-0.041764952,5003,0,0.15919715,-0.44984102,-9.718117,5003,0
189274330,-0.0051667755,-0.009550233,-0.04210483,5001,0,-0.0652889,-0.29924017,-9.718863,5001,0
189279333,0.011327167,-0.013139381,-0.03441701,5003,0,-0.0782818,-0.2919159,-9.881638,5003,0
189284335,0.0028277137,-0.011327945,-0.028848551,5002,0,0.13450266,-0.434796,-9.893783,5002,0
189289337,0.011570951,-0.008645907,-0.03076465,5002,0,0.13166715,-0.5976632,-9.676677,5002,0
189294344,-0.0010976186,-0.0007356422,-0.02620298,5007,0,-0.06926685,-0.5541308,-9.643308,5007,0
189299342,-0.00907395,-0.002739027,-0.015666684,4998,0,-0.20269683,-0.47298726,-9.709848,4998,0
189304345,0.006368025,-0.0055953376,-0.0063321465,5003,0,-0.093634516,-0.41681343,-9.788681,5003,0
189309347,0.0076211547,-0.0014421956,-0.0006318867,5002,0,0.06716976,-0.4173983,-9.833064,5002,0
189314349,0.0033446928,-0.00075480907,0.0022891434,5002,0,0.064788334,-0.33484653,-9.756205,5002,0
189319352,-0.0040979506,0.0024410614,0.007388788,5003,0,-0.02686062,-0.27234095,-9.745686,5003,0
189324354,-0.006478849,0.0037010736,0.014117836,5002,0,-0.00085850124,-0.27342966,-9.893373,5002,0
189329357,0.0014125098,0.00042737037,0.017152838,5003,0,0.11840125,-0.31828082,-9.951948,5003,0
189334359,0.004803175,-0.00053670065,0.022499744,5002,0,0.20108172,-0.36895603,-9.800937,5002,0
189339361,-0.005850888,0.0013006427,0.026168855,5002,0,0.18856813,-0.38171744,-9.646507,5002,0
189344364,-0.008023318,0.0013621437,0.028142394,5003,0,0.17829354,-0.42924085,-9.683177,5003,0
189349366,-0.003438734,0.00092518993,0.031199707,5002,0,0.23959343,-0.40894648,-9.839694,5002,0
189354389,0.007756193,-0.0024793132,0.034758512,5023,0,0.28941002,-0.38878393,-9.809639,5023,0
189359371,0.012488395,-0.0016935017,0.033620853,4982,0,0.3652855,-0.30629808,-9.677144,4982,0
189364380,-0.0028767397,0.001783675,0.03163784,5009,0,0.4676732,-0.16108279,-9.649852,5009,0
189369384,-0.0073025688,0.001978087,0.023258472,5004,0,0.45318955,-0.013557477,-9.692319,5004,0
189374378,0.0045025493,0.0020103403,0.018513964,4994,0,0.40365952,0.004466309,-9.738366,4994,0
189379389,0.017166225,0.0015978939,0.019048158,5011,0,0.35729563,-0.32043415,-9.666197,5011,0
189384404,0.016615784,0.0062125595,0.02005265,5015,0,0.25581557,-0.6722875,-9.696081,5015,0
189389393,0.009670486,0.009191573,0.02554819,4989,0,0.17756893,-0.887455,-9.801299,4989,0
189394396,0.004254338,0.0065462952,0.03594376,5003,0,0.32416138,-0.8837485,-9.858928,5003,0
189399398,0.005404845,0.008596707,0.034479804,5002,0,0.53886825,-0.6146647,-9.872925,5002,0
189404404,0.01890807,0.013425765,0.01713777,5006,0,0.27650425,-0.053770162,-9.772564,5006,0
189409403,0.0075932965,-0.0008937622,0.017234432,4999,0,0.32641366,0.4009357,-9.770669,4999,0
189414394,0.016823152,-0.015114759,0.02287206,4991,0,0.92491746,-0.2003365,-9.585929,4991,0
189419400,-0.0036113432,0.0054160203,-0.009499633,5006,0,0.83987117,-0.87377393,-9.744486,5006,0
189424404,-0.029272214,0.007424484,-0.02528676,5004,0,0.09749986,-0.42404506,-9.55207,5004,0
189429420,0.020691052,-0.019230826,-0.0071464246,5016,0,-0.2266194,0.10551636,-9.599783,5016,0
189434415,-0.0041690203,-0.022000909,0.010586665,4995,0,0.59745437,-0.39821696,-9.949108,4995,0
189439453,-0.009574559,-0.0047161137,-0.021507028,5038,0,0.9134322,-1.2897909,-9.57454,5038,0
189444422,-0.03772918,0.0076866564,-0.033469692,4969,0,0.20049533,-1.2234956,-9.531227,4969,0
189449433,-0.07371896,0.00049066445,-0.00948529,5011,0,0.027987856,-0.81006,-9.747592,5011,0
189454416,-0.033116862,-0.013485618,-0.024666455,4983,0,0.56731606,-0.7282183,-9.827744,4983,0
189459441,-0.05811074,0.0049840813,-0.046029896,5025,0,0.5810744,-0.16900355,-9.865998,5025,0
189464421,-0.022446545,0.0030400811,-0.050092302,4980,0,0.2025999,0.16928312,-9.208183,4980,0
189469434,-0.027101912,0.0056546987,-0.031523004,5013,0,-0.1700086,-0.03091506,-9.787066,5013,0
189474426,-0.07774885,0.014969824,-0.013801283,4992,0,-0.30939248,-0.39687186,-10.262225,4992,0
189479435,0.0055234963,-0.00095979567,-0.011997599,5009,0,-0.24509956,-0.21876024,-9.889155,5009,0
189484441,-0.010363826,0.0071597807,0.009338076,5006,0,-0.19723208,0.50629675,-10.089748,5006,0
189489440,-0.022388922,0.009835538,0.011494397,4999,0,-0.18912916,0.9143456,-9.919406,4999,0
189494442,0.05228828,-0.002395451,0.008599149,5002,0,-0.14331184,0.8209916,-9.796665,5002,0
189499445,0.034336694,0.004609646,0.023109738,5003,0,-0.23810023,0.2194384,-9.933225,5003,0
189504447,0.043343674,0.002984294,0.027063524,5002,0,-0.27016547,-0.45879462,-9.657434,5002,0
189509450,0.03734865,0.0008143754,0.037633672,5003,0,-0.2352739,-0.5897645,-9.713119,5003,0
189514453,0.037530195,0.0042829365,0.047333967,5003,0,-0.155743,-0.706599,-9.875925,5003,0
189519458,0.06549361,0.00079756917,0.052610725,5005,0,-0.009763703,-0.9455691,-9.863025,5005,0
189524478,0.05067537,0.0062757563,0.05881617,5020,0,-0.0031402663,-1.2991323,-9.924721,5020,0
189529452,0.04530297,0.009069058,0.059700303,4974,0,-0.060267825,-1.5075357,-9.72244,4974,0
189534454,0.024085283,0.0048857504,0.062981136,5002,0,0.047001634,-1.269778,-9.694183,5002,0
189539456,-0.009137791,0.0070699374,0.06463025,5002,0,0.23515755,-0.8712757,-9.726866,5002,0
189544459,-0.012769471,0.001368031,0.053550355,5003,0,0.41954288,-0.47918847,-9.577635,5003,0
189549461,-0.019441962,0.0013634288,0.041387018,5002,0,0.40989932,-0.26065072,-9.591321,5002,0
189554464,-0.043860134,0.004303095,0.031059327,5003,0,0.31951776,-0.2761458,-9.616962,5003,0
189559466,-0.051458597,-0.0043396098,0.024973499,5002,0,0.24613737,-0.3302443,-9.731764,5002,0
189564468,-0.04629447,-0.0041992855,0.016921569,5002,0,0.29612052,-0.30433437,-9.764697,5002,0
189569471,-0.05951296,-0.002574556,0.012540102,5003,0,0.37374786,-0.19097869,-9.680185,5003,0
189574473,-0.06432501,-0.00095205766,0.0071539585,5002,0,0.33754945,-0.06162168,-9.631747,5002,0
189579476,-0.044704236,0.0023010916,0.00096418976,5003,0,0.27330166,-0.04872378,-9.664216,5003,0
189584478,-0.04153787,0.0027935202,-0.0047123125,5002,0,0.28926685,-0.15108201,-9.775049,5002,0
189589480,-0.03744609,0.0051317727,-0.0069650323,5002,0,0.36492473,-0.25871232,-9.750911,5002,0
189594483,-0.03588717,0.007412071,-0.0124058155,5003,0,0.3728099,-0.21018413,-9.714265,5003,0
189599489,-0.0408534,0.008019628,-0.01758697,5006,0,0.38620862,-0.06327495,-9.749625,5006,0
189604487,-0.025136977,0.009238528,-0.0239508,4998,0,0.33159226,-0.10082752,-9.924157,4998,0
189609508,-0.015964363,0.004403232,-0.02982258,5021,0,0.25336072,-0.2850234,-9.911094,5021,0
189614492,-0.0066632773,0.003909296,-0.031238806,4984,0,0.18423478,-0.48111945,-9.876358,4984,0
189619494,-0.00483196,0.0027304366,-0.031115573,5002,0,0.09296041,-0.57979906,-9.8227825,5002,0
189624497,-0.014211662,-0.0047287224,-0.031314272,5003,0,0.07193559,-0.5174299,-9.806644,5003,0
189629540,-0.005099368,-0.006709592,-0.03239662,5043,0,0.095306456,-0.37406844,-9.880085,5043,0
189634502,-0.0023775722,-0.014063837,-0.036554325,4962,0,0.094873086,-0.32593247,-9.805122,4962,0
189639504,-0.012429056,-0.018845484,-0.040777106,5002,0,0.08737859,-0.25754374,-9.769026,5002,0
189644507,-0.015915545,-0.022096047,-0.044653367,5003,0,0.094371006,-0.34865633,-9.746029,5003,0
189649511,-0.025182528,-0.025840992,-0.053459004,5004,0,0.042209126,-0.41550747,-9.76967,5004,0
189654511,-0.027532235,-0.021463057,-0.05800719,5000,0,-0.05589109,-0.44724238,-9.802752,5000,0
189659514,-0.03601227,-0.020330781,-0.052313972,5003,0,-0.092616834,-0.51497096,-9.7890005,5003,0
189664516,-0.040359255,-0.020462172,-0.053170957,5002,0,-0.08901032,-0.67222434,-9.739343,5002,0
189669518,-0.037251033,-0.011467577,-0.05653704,5002,0,-0.09293415,-0.6465174,-9.667928,5002,0
189674520,-0.0519438,-0.006730525,-0.04795192,5002,0,-0.15132625,-0.4782643,-9.658838,5002,0
189679523,-0.04484861,-0.0062272516,-0.04335085,5003,0,-0.10269019,-0.36512524,-9.799768,5003,0
189684526,-0.03818656,-0.0027368169,-0.044648167,5003,0,-0.06822165,-0.29141507,-9.8559675,5003,0
189689528,-0.03554274,-0.00012241311,-0.043839313,5002,0,0.017248683,-0.1452747,-9.760798,5002,0
189694561,-0.028689403,0.0014130931,-0.044270612,5033,0,-0.039524622,-0.14492293,-9.756435,5033,0
189699535,-0.025611257,0.0003413324,-0.04867482,4974,0,-0.16370773,-0.19657743,-9.851198,4974,0
189704535,-0.0139113795,-0.004058706,-0.040855978,5000,0,-0.14262937,-0.33296192,-9.834478,5000,0
189709537,-0.010331118,-0.00601241,-0.031167077,5002,0,-0.105996616,-0.54632604,-9.80954,5002,0
189714540,-0.03188926,-0.0039570997,-0.026757961,5003,0,-0.109045215,-0.5975758,-9.827572,5003,0
189719542,-0.028836554,-0.006644403,-0.023882898,5002,0,-0.0674359,-0.45225254,-9.883887,5002,0
189724544,-0.022941913,-0.011759695,-0.015266989,5002,0,-0.009848295,-0.28000483,-10.020764,5002,0
189729547,-0.024047004,-0.014676906,-0.015347208,5003,0,0.029556312,-0.20017594,-9.966963,5003,0
189734549,-0.014532163,-0.020561649,-0.017989237,5002,0,0.055257246,-0.11990607,-9.811989,5002,0
189739558,-0.021829328,-0.020550404,-0.014021213,5009,0,0.031066751,-0.09331872,-9.748747,5009,0
189744554,-0.019846737,-0.019530687,-0.011950209,4996,0,0.011131088,-0.10237741,-9.742126,4996,0
189749556,-0.01455152,-0.021320337,-0.0061762044,5002,0,-0.016493553,-0.0451921,-9.696564,5002,0
189754559,-0.009728391,-0.020553812,-0.0017990415,5003,0,-0.0055114347,-0.022808082,-9.593918,5003,0
189759561,0.004642906,-0.015827037,-0.00033855668,5002,0,0.064140365,-0.03139985,-9.538824,5002,0
189764563,0.002997233,-0.0081692,0.0015720163,5002,0,0.07298519,-0.13244362,-9.655579,5002,0
189769566,0.007121534,-0.0016774291,0.0072645037,5003,0,0.055270754,-0.29310128,-9.734616,5003,0
189774568,0.018525504,0.0020732481,0.009042609,5002,0,0.053153027,-0.36424172,-9.74829,5002,0
189779578,0.013993665,0.007907158,0.011157247,5010,0,0.118889615,-0.3276264,-9.723123,5010,0
189784573,0.00018451907,0.011386188,0.009991618,4995,0,0.13736944,-0.34578553,-9.641363,4995,0
189789575,-0.0045219907,0.016864736,0.008913074,5002,0,0.22344626,-0.3447248,-9.678572,5002,0
189794578,-0.007836745,0.023004686,0.008908192,5003,0,0.28166515,-0.5829638,-9.849023,5003,0
189799580,-0.026659265,0.01307364,0.0052700946,5002,0,0.24488863,-0.6785607,-9.776535,5002,0
189804586,-0.019022088,0.015951885,0.0072851474,5006,0,0.26668042,-0.6501913,-9.840769,5006,0
189809585,-0.023304595,0.011927806,0.008241058,4999,0,0.32280424,-0.6765111,-9.787298,4999,0
189814587,-0.04280747,0.0054441346,0.0038172354,5002,0,0.30298188,-0.47257936,-9.930416,5002,0
189819601,-0.016782459,0.003551617,0.0021635902,5014,0,0.26780403,-0.3524312,-9.886488,5014,0
189824592,-0.018601654,-0.008109271,0.005490603,4991,0,0.19387296,-0.32806757,-9.800963,4991,0
189829594,-0.037224047,-0.00768078,0.009464652,5002,0,0.15509596,-0.20742585,-9.774097,5002,0
189834597,-0.024566768,-0.011731054,0.011935813,5003,0,0.18696457,-0.15663397,-9.733723,5003,0
189839599,-0.019410966,-0.017698295,0.014529227,5002,0,0.17051873,-0.12791301,-9.917574,5002,0
189844601,-0.014316154,-0.014968,0.018416842,5002,0,0.15583277,-0.015786031,-9.87164,5002,0
189849604,-0.007750589,-0.019803587,0.021191096,5003,0,0.20392664,-0.054968826,-9.782903,5003,0
189854615,-0.0065159844,-0.016816104,0.024725951,5011,0,0.31592774,-0.20142059,-9.821558,5011,0
189859609,-0.008205581,-0.012490373,0.015047622,4994,0,0.36695132,-0.37635323,-9.731397,4994,0
189864611,-0.027352916,-0.009159308,0.014241235,5002,0,0.3067123,-0.3228726,-9.554933,5002,0
189869620,-0.017124921,-0.005532091,0.012268462,5009,0,0.3245075,-0.38322845,-9.454821,5009,0
189874616,-0.021392357,-0.0018025995,0.006955681,4996,0,0.5006299,-0.38317066,-9.578805,4996,0
189879622,-0.032356787,0.0060800198,0.00043965393,5006,0,0.61842597,-0.34160408,-9.581014,5006,0
189884642,-0.015041397,0.0059864093,-0.008949959,5020,0,0.58730245,-0.3505226,-9.530258,5020,0
189889627,-0.01763343,0.010898861,-0.019299408,4985,0,0.49707526,-0.32545775,-9.664233,4985,0
189894625,-0.021399416,0.016150476,-0.025337843,4998,0,0.37870425,-0.22372535,-9.784117,4998,0
189899628,-0.0013526896,0.007876802,-0.028004885,5003,0,0.40053037,-0.27332154,-9.82713,5003,0
189904630,8.277754e-05,0.011529749,-0.030370053,5002,0,0.36716753,-0.28661692,-9.83694,5002,0
189909632,-0.015722046,0.01369532,-0.030433701,5002,0,0.2689475,-0.2594845,-9.693307,5002,0
189914635,-0.008499568,0.0057501784,-0.031385645,5003,0,0.22599564,-0.19924444,-9.67318,5003,0
189919637,-0.0010215461,0.006986847,-0.028441096,5002,0,0.13925993,-0.1018761,-9.884485,5002,0
189924640,-0.002600914,0.0016115267,-0.022759767,5003,0,0.09933021,-0.054863922,-9.875245,5003,0
189929642,0.021865934,-0.0064843893,-0.019523991,5002,0,0.048764605,-0.15436305,-9.769406,5002,0
189934651,-0.0020407594,0.0003268318,-0.011799275,5009,0,-0.0494987,-0.30935442,-9.810122,5009,0
189939647,-0.010802739,-0.004520677,0.0001813019,4996,0,-0.041289676,-0.42414653,-9.859185,4996,0
189944649,0.0012430231,-0.009576531,0.011743871,5002,0,0.08937528,-0.4365349,-9.959818,5002,0
189949651,-0.0030886203,-0.0082728695,0.013067069,5002,0,0.20877503,-0.40115878,-9.923354,5002,0
189954654,0.015256109,-0.010139334,0.0073791975,5003,0,0.2931496,-0.373058,-9.709656,5003,0
189959657,0.026822925,-0.006683726,0.0055399993,5003,0,0.13928294,-0.33220857,-9.738126,5003,0
189964659,0.02296487,-0.004804515,0.01037848,5002,0,0.01857395,-0.41141412,-9.80445,5002,0
189969661,0.037968915,-0.012783808,0.024028359,5002,0,0.17562824,-0.49898377,-9.699004,5002,0
189974663,0.029332748,-0.005617109,0.028017381,5002,0,0.25809506,-0.407267,-9.732447,5002,0
189979666,0.009902505,0.004577833,0.022733448,5003,0,0.18423486,0.05244627,-9.71834,5003,0
