timestamp,timestamp_sample,device_id,x,y,z,temperature,error_count,clip_counter[0],clip_counter[1],clip_counter[2],samples
186839166,186839149,1114122,2.871387,2.8067808,-6.5467625,38.25,0,0,0,0,1
186839603,186839588,1114122,2.9503503,2.821138,-6.690332,38.25,0,0,0,0,1
186941700,186941685,1114122,2.885744,2.8426733,-6.8195443,38.25,0,0,0,0,1
187034255,187034237,1114122,3.0436704,2.9647071,-6.5467625,38.375,0,0,0,0,1
187141762,187141747,1114122,2.519642,2.900101,-6.7764735,38.125,0,0,0,0,1
187237551,187237536,1114122,2.8785655,2.792424,-6.632904,38.125,0,0,0,0,1
187338351,187338336,1114122,2.6201408,3.1944182,-6.7621164,38.25,0,0,0,0,1
187434464,187434448,1114122,2.778067,2.993421,-6.460621,38.375,0,0,0,0,1
187537850,187537835,1114122,2.8642087,3.0867412,-6.403193,38.125,0,0,0,0,1
187642018,187642003,1114122,2.6129622,3.1513474,-6.5324054,38.25,0,0,0,0,1
187734577,187734562,1114122,2.684747,3.2518458,-6.632904,38.25,0,0,0,0,1
187839577,187839562,1114122,2.6201408,2.993421,-6.6041903,38.25,0,0,0,0,1
187937904,187937888,1114122,2.9718857,2.9216363,-6.2739806,38.25,0,0,0,0,1
188038703,188038688,1114122,2.57707,3.0436704,-6.403193,38.375,0,0,0,0,1
188137226,188137211,1114122,2.548356,3.072384,-6.647261,38.25,0,0,0,0,1
188239842,188239820,1114122,2.76371,3.1369903,-6.7334027,38.25,0,0,0,0,1
188342381,188342357,1114122,2.656033,3.1082766,-6.7334027,38.125,0,0,0,0,1
188434903,188434884,1114122,2.6344976,3.0364919,-6.7190456,38.25,0,0,0,0,1
188539953,188539938,1114122,2.7206392,3.1657043,-6.6041903,38.375,0,0,0,0,1
188637507,188637492,1114122,2.9862425,2.9503503,-6.446264,38.25,0,0,0,0,1
188739050,188739035,1114122,2.4622145,2.8929224,-6.202196,38.25,0,0,0,0,1
188840094,188840079,1114122,2.7493532,2.871387,-6.740581,38.25,0,0,0,0,1
188940104,188940089,1114122,3.007778,2.778067,-6.1734824,38.25,0,0,0,0,1
189040153,189040138,1114122,2.8426733,2.5411775,-6.474978,38.25,0,0,0,0,1
189137729,189137714,1114122,2.519642,3.0795627,-6.805187,38.25,0,0,0,0,1
189236750,189236735,1114122,2.993421,2.9359932,-6.338587,38.25,0,0,0,0,1
189337826,189337811,1114122,2.6344976,2.993421,-6.431907,38.25,0,0,0,0,1
189440464,189440449,1114122,2.7206392,2.2827528,-6.295516,38.25,0,0,0,0,1
189539154,189539139,1114122,2.6775684,2.656033,-6.1591253,38.25,0,0,0,0,1
189640519,189640504,1114122,2.656033,3.1082766,-6.4821563,38.25,0,0,0,0,1
189740509,189740494,1114122,2.7062824,3.345166,-6.360122,38.125,0,0,0,0,1
189838039,189838024,1114122,2.8283162,3.2805598,-6.5467625,38.25,0,0,0,0,1
189935637,189935619,1114122,2.6344976,3.0293133,-6.661618,38.25,0,0,0,0,1
190038160,190038145,1114122,3.0436704,3.3954153,-6.632904,38.125,0,0,0,0,1
190139760,190139740,1114122,2.8067808,3.4313076,-6.6041903,38.125,0,0,0,0,1
190238265,190238250,1114122,3.1944182,3.007778,-6.51087,38.125,0,0,0,0,1
190337154,190337139,1114122,2.376073,3.330809,-6.8841505,38.25,0,0,0,0,1
190440827,190440812,1114122,2.0961125,2.792424,-6.1016974,38.25,0,0,0,0,1
190536650,190536635,1114122,2.6775684,3.072384,-6.525227,38.125,0,0,0,0,1
190637463,190637448,1114122,3.4671998,3.330809,-6.4247284,38.25,0,0,0,0,1
190738501,190738486,1114122,2.3401804,3.180061,-6.446264,38.25,0,0,0,0,1
190839050,190839035,1114122,2.7852454,3.1872396,-6.04427,38.25,0,0,0,0,1
190939850,190939835,1114122,2.5411775,3.3379874,-6.5324054,38.25,0,0,0,0,1
191033646,191033631,1114122,2.9647071,3.1728828,-6.582655,38.25,0,0,0,0,1
191139352,191139337,1114122,2.734996,2.9216363,-6.3170514,38.125,0,0,0,0,1
191238700,191238685,1114122,2.6416762,2.76371,-6.5898333,38.375,0,0,0,0,1
191338850,191338835,1114122,2.8642087,2.8785655,-6.4893346,38.25,0,0,0,0,1
191436300,191436285,1114122,2.734996,2.979064,-6.597012,38.125,0,0,0,0,1
191539426,191539411,1114122,2.6488545,2.821138,-6.4390855,38.125,0,0,0,0,1
191641451,191641423,1114122,2.8067808,3.1441689,-6.632904,38.25,0,0,0,0,1
191733974,191733955,1114122,2.8354948,2.8642087,-6.460621,38.25,0,0,0,0,1
191841505,191841490,1114122,3.0293133,3.0293133,-6.7334027,38.25,0,0,0,0,1
191937353,191937335,1114122,2.5339992,3.4313076,-6.6831536,38.25,0,0,0,0,1
192039200,192039185,1114122,2.6919253,2.885744,-6.3314085,38.125,0,0,0,0,1
192134169,192134154,1114122,3.0652058,3.1944182,-6.446264,38.125,0,0,0,0,1
192239208,192239193,1114122,2.7062824,3.4097722,-6.8339014,38.25,0,0,0,0,1
192337428,192337403,1114122,2.7278178,3.101098,-6.029913,38.25,0,0,0,0,1
192436803,192436788,1114122,2.993421,2.9216363,-6.5611196,38.125,0,0,0,0,1
192541854,192541839,1114122,2.4191437,2.979064,-6.553941,38.125,0,0,0,0,1
192637703,192637688,1114122,2.8354948,3.4097722,-6.460621,38.125,0,0,0,0,1
192739429,192739414,1114122,2.778067,3.6610186,-7.228717,38.0,0,0,0,0,1
192834465,192834450,1114122,2.519642,3.7112677,-6.460621,38.25,0,0,0,0,1
192940104,192940089,1114122,2.3617158,3.115455,-6.446264,38.125,0,0,0,0,1
193042100,193042085,1114122,3.007778,3.0508487,-6.5611196,38.375,0,0,0,0,1
193138553,193138538,1114122,2.8283162,3.101098,-6.352944,38.125,0,0,0,0,1
193236200,193236185,1114122,2.6991038,2.6775684,-6.9343996,38.375,0,0,0,0,1
193338054,193338035,1114122,2.3904297,2.67039,-6.640083,38.25,0,0,0,0,1
193439768,193439753,1114122,2.9216363,3.3882368,-6.3170514,38.25,0,0,0,0,1
193537305,193537290,1114122,2.885744,2.993421,-6.6257257,38.125,0,0,0,0,1
193640489,193640474,1114122,2.57707,2.2181466,-7.0348983,38.25,0,0,0,0,1
193741263,193741248,1114122,2.1463618,2.6991038,-6.7764735,38.125,0,0,0,0,1
193838903,193838888,1114122,2.024328,2.7493532,-5.9007006,38.25,0,0,0,0,1
193937600,193937585,1114122,2.7421746,2.8498516,-6.9272213,38.25,0,0,0,0,1
194040029,194040014,1114122,2.8067808,3.0652058,-6.3170514,38.125,0,0,0,0,1
194140082,194140067,1114122,2.562713,2.821138,-6.446264,38.375,0,0,0,0,1
194237624,194237609,1114122,2.76371,3.0867412,-6.740581,38.25,0,0,0,0,1
194335218,194335199,1114122,2.9431717,3.0508487,-6.704689,38.25,0,0,0,0,1
194440553,194440538,1114122,3.022135,3.007778,-6.5467625,38.25,0,0,0,0,1
194539250,194539235,1114122,2.6775684,2.8929224,-6.3960147,38.25,0,0,0,0,1
194637950,194637935,1114122,2.6775684,2.455036,-6.23091,38.25,0,0,0,0,1
194736650,194736635,1114122,2.734996,3.180061,-6.8339014,38.125,0,0,0,0,1
194840433,194840418,1114122,2.6201408,2.9144578,-6.352944,38.25,0,0,0,0,1
194937985,194937970,1114122,2.778067,2.9503503,-6.675975,38.25,0,0,0,0,1
195038060,195038045,1114122,3.2590244,3.0652058,-6.1304116,38.125,0,0,0,0,1
195135654,195135635,1114122,2.9862425,2.792424,-6.805187,38.125,0,0,0,0,1
195238554,195238538,1114122,2.8929224,3.022135,-6.862615,38.25,0,0,0,0,1
195340682,195340667,1114122,2.6919253,2.885744,-6.553941,38.375,0,0,0,0,1
195435709,195435694,1114122,2.4765713,2.928815,-6.740581,38.375,0,0,0,0,1
195538290,195538275,1114122,2.3258235,3.115455,-6.754938,38.25,0,0,0,0,1
195638301,195638286,1114122,2.6488545,2.9216363,-6.4390855,38.25,0,0,0,0,1
195738384,195738360,1114122,2.979064,2.8354948,-6.3170514,38.25,0,0,0,0,1
195838429,195838414,1114122,2.2181466,3.007778,-6.6185474,38.25,0,0,0,0,1
195939950,195939935,1114122,2.792424,3.3810582,-6.6185474,38.25,0,0,0,0,1
196041018,196041003,1114122,3.3092737,2.8283162,-6.805187,38.25,0,0,0,0,1
196138571,196138556,1114122,2.993421,3.0293133,-6.0729837,38.375,0,0,0,0,1
196236119,196236104,1114122,2.3976083,3.0508487,-6.4965134,38.125,0,0,0,0,1
196338672,196338657,1114122,1.8664016,3.0436704,-6.4821563,38.25,0,0,0,0,1
196441213,196441198,1114122,2.8283162,2.792424,-6.7190456,38.25,0,0,0,0,1
196538764,196538749,1114122,2.3545375,3.223132,-6.352944,38.25,0,0,0,0,1
196636297,196636282,1114122,3.4959137,2.8498516,-6.2883377,38.125,0,0,0,0,1
196741367,196741352,1114122,3.2949166,3.007778,-6.848258,38.25,0,0,0,0,1
196838917,196838892,1114122,2.57707,2.993421,-6.360122,38.125,0,0,0,0,1
196937463,196937448,1114122,2.5052853,3.4600215,-6.9343996,38.25,0,0,0,0,1
197037200,197037185,1114122,2.7062824,2.455036,-6.23091,38.125,0,0,0,0,1
197139055,197139040,1114122,2.268396,3.1585257,-5.7284174,38.25,0,0,0,0,1
197237750,197237735,1114122,2.1104696,3.452843,-5.8432727,38.25,0,0,0,0,1
197335405,197335390,1114122,2.8929224,3.0939195,-6.632904,38.25,0,0,0,0,1
197440405,197440390,1114122,2.8067808,3.1369903,-6.2380886,38.125,0,0,0,0,1
197538050,197538035,1114122,2.734996,2.7708886,-6.5324054,38.375,0,0,0,0,1
197637800,197637785,1114122,2.6632116,3.2446673,-6.7118673,38.125,0,0,0,0,1
197736834,197736819,1114122,2.8570302,2.979064,-6.360122,38.375,0,0,0,0,1
197839397,197839379,1114122,2.993421,3.1441689,-6.6041903,38.125,0,0,0,0,1
197939438,197939423,1114122,2.7493532,2.885744,-6.7262244,38.375,0,0,0,0,1
198035753,198035735,1114122,2.8139594,2.7421746,-6.41755,38.375,0,0,0,0,1
198142024,198142009,1114122,2.76371,2.8354948,-6.3744793,38.375,0,0,0,0,1
198238405,198238390,1114122,2.7421746,3.1082766,-6.4390855,38.25,0,0,0,0,1
198338152,198338135,1114122,2.8785655,3.022135,-6.3744793,38.25,0,0,0,0,1
198433709,198433694,1114122,2.9647071,2.8067808,-6.6257257,38.25,0,0,0,0,1
198539753,198539735,1114122,2.8642087,2.8498516,-6.7764735,38.25,0,0,0,0,1
198640553,198640538,1114122,3.0795627,2.7996025,-6.6544394,38.25,0,0,0,0,1
198736106,198736091,1114122,2.5842483,2.6991038,-6.367301,38.25,0,0,0,0,1
198839821,198839806,1114122,3.1657043,3.1226335,-6.5467625,38.25,0,0,0,0,1
198938750,198938735,1114122,2.5339992,2.8498516,-6.568298,38.25,0,0,0,0,1
199038503,199038488,1114122,2.900101,2.900101,-6.783652,38.25,0,0,0,0,1
199134055,199134040,1114122,2.6919253,3.0005994,-6.6687965,38.25,0,0,0,0,1
199239050,199239035,1114122,2.9647071,2.9575286,-6.4821563,38.25,0,0,0,0,1
199340903,199340888,1114122,2.7852454,2.821138,-6.6041903,38.25,0,0,0,0,1
199437649,199437634,1114122,3.007778,2.8785655,-6.23091,38.25,0,0,0,0,1
199537657,199537642,1114122,2.8642087,2.8785655,-6.144768,38.25,0,0,0,0,1
199638050,199638035,1114122,2.562713,3.4025936,-6.245267,38.25,0,0,0,0,1
199738849,199738834,1114122,2.333002,3.1441689,-6.367301,38.25,0,0,0,0,1
199835310,199835295,1114122,2.5842483,2.9718857,-7.0492554,38.25,0,0,0,0,1
199938354,199938335,1114122,3.237489,2.7493532,-7.070791,38.375,0,0,0,0,1
200041266,200041247,1114122,2.1966112,3.007778,-6.216553,38.25,0,0,0,0,1
200138000,200137985,1114122,2.9072795,2.6057837,-6.675975,38.25,0,0,0,0,1
200238042,200238027,1114122,2.76371,2.9575286,-6.862615,38.375,0,0,0,0,1
200336303,200336288,1114122,2.821138,2.993421,-6.7190456,38.25,0,0,0,0,1
200440620,200440605,1114122,2.5914268,2.8570302,-6.4893346,38.25,0,0,0,0,1
200535649,200535634,1114122,2.6919253,2.8929224,-6.5611196,38.25,0,0,0,0,1
200635730,200635715,1114122,2.979064,2.7062824,-6.812366,38.125,0,0,0,0,1
200740768,200740752,1114122,2.7708886,3.316452,-6.5324054,38.25,0,0,0,0,1
200838322,200838307,1114122,2.9575286,3.0508487,-6.862615,38.375,0,0,0,0,1
200934800,200934785,1114122,2.7062824,3.0149565,-6.553941,38.125,0,0,0,0,1
201038750,201038735,1114122,3.5030923,2.2827528,-6.9343996,38.125,0,0,0,0,1
201140956,201140941,1114122,2.656033,3.0652058,-6.1591253,38.25,0,0,0,0,1
201238521,201238505,1114122,2.4478574,2.821138,-6.4390855,38.25,0,0,0,0,1
201338567,201338552,1114122,2.9503503,2.4765713,-5.8360944,38.25,0,0,0,0,1
201438578,201438563,1114122,2.7062824,2.5986054,-6.4390855,38.25,0,0,0,0,1
201538659,201538644,1114122,2.6488545,2.268396,-6.0729837,38.125,0,0,0,0,1
201636200,201636185,1114122,2.8354948,2.8354948,-7.0492554,38.375,0,0,0,0,1
201734900,201734885,1114122,2.6344976,2.9359932,-6.568298,38.375,0,0,0,0,1
201837800,201837785,1114122,3.007778,2.734996,-6.431907,38.375,0,0,0,0,1
201938846,201938830,1114122,2.376073,2.928815,-6.675975,38.25,0,0,0,0,1
202038853,202038838,1114122,2.4909282,3.1872396,-6.3170514,38.375,0,0,0,0,1
202133946,202133931,1114122,2.9359932,2.9072795,-6.539584,38.25,0,0,0,0,1
202236800,202236785,1114122,3.0508487,2.792424,-6.783652,38.375,0,0,0,0,1
202339703,202339688,1114122,2.6201408,3.1513474,-6.754938,38.25,0,0,0,0,1
202437358,202437340,1114122,2.6129622,2.9718857,-6.51087,38.375,0,0,0,0,1
202538150,202538135,1114122,2.6775684,2.2612174,-6.0514483,38.25,0,0,0,0,1
202639184,202639169,1114122,2.9431717,2.627319,-6.5467625,38.125,0,0,0,0,1
202739243,202739228,1114122,3.208775,2.5339992,-6.661618,38.375,0,0,0,0,1
202839243,202839228,1114122,2.67039,2.871387,-6.467799,38.25,0,0,0,0,1
202934332,202934317,1114122,2.5052853,2.9503503,-6.4965134,38.375,0,0,0,0,1
203041840,203041825,1114122,2.9575286,3.0005994,-6.151947,38.25,0,0,0,0,1
203139407,203139391,1114122,2.9862425,2.979064,-6.5036917,38.25,0,0,0,0,1
203239555,203239536,1114122,3.0867412,2.8642087,-6.4893346,38.25,0,0,0,0,1
203337022,203337007,1114122,2.821138,3.0652058,-6.5324054,38.375,0,0,0,0,1
203440103,203440085,1114122,2.6344976,2.5052853,-6.7334027,38.125,0,0,0,0,1
203540904,203540888,1114122,2.57707,2.7421746,-6.754938,38.375,0,0,0,0,1
203638550,203638535,1114122,2.792424,2.9359932,-6.5036917,38.375,0,0,0,0,1
203736204,203736189,1114122,2.7206392,3.0652058,-6.460621,38.375,0,0,0,0,1
203839722,203839707,1114122,2.6344976,2.9072795,-6.5754766,38.25,0,0,0,0,1
203939900,203939885,1114122,2.9359932,2.8354948,-6.7190456,38.375,0,0,0,0,1
204038601,204038586,1114122,2.4622145,2.8929224,-6.5324054,38.375,0,0,0,0,1
204136285,204136270,1114122,2.9718857,3.0580273,-6.410372,38.375,0,0,0,0,1
204239919,204239904,1114122,2.7206392,2.821138,-6.582655,38.375,0,0,0,0,1
204340007,204339992,1114122,2.734996,2.8067808,-6.661618,38.375,0,0,0,0,1
204437600,204437585,1114122,2.562713,3.022135,-6.518049,38.375,0,0,0,0,1
204535259,204535240,1114122,2.6057837,3.022135,-6.51087,38.375,0,0,0,0,1
204639205,204639190,1114122,2.6344976,3.0867412,-6.410372,38.25,0,0,0,0,1
204737687,204737672,1114122,3.007778,2.9359932,-6.640083,38.25,0,0,0,0,1
204836600,204836585,1114122,2.5698915,3.0508487,-6.7764735,38.375,0,0,0,0,1
204938466,204938451,1114122,2.8354948,2.9216363,-6.647261,38.375,0,0,0,0,1
205040349,205040334,1114122,2.8498516,2.9144578,-6.3314085,38.375,0,0,0,0,1
205139003,205138985,1114122,2.6057837,2.9718857,-6.338587,38.375,0,0,0,0,1
205236670,205236655,1114122,2.8570302,2.8498516,-6.367301,38.375,0,0,0,0,1
205337979,205337960,1114122,2.7852454,2.9431717,-6.690332,38.25,0,0,0,0,1
205437989,205437974,1114122,2.792424,2.9647071,-6.7621164,38.375,0,0,0,0,1
205539055,205539040,1114122,2.9431717,3.0939195,-6.597012,38.375,0,0,0,0,1
205635657,205635639,1114122,2.993421,3.1226335,-6.582655,38.375,0,0,0,0,1
205739604,205739589,1114122,2.7062824,3.0293133,-6.4893346,38.375,0,0,0,0,1
205840719,205840704,1114122,2.5986054,2.9647071,-6.6831536,38.25,0,0,0,0,1
205937000,205936985,1114122,2.7852454,2.8354948,-6.4534426,38.125,0,0,0,0,1
206035829,206035814,1114122,2.8426733,2.9144578,-6.582655,38.5,0,0,0,0,1
206138380,206138358,1114122,2.8498516,2.993421,-6.539584,38.25,0,0,0,0,1
206240879,206240864,1114122,2.6775684,3.007778,-6.5324054,38.5,0,0,0,0,1
206338472,206338457,1114122,2.8642087,2.885744,-6.812366,38.25,0,0,0,0,1
206436804,206436788,1114122,2.67039,2.9072795,-6.690332,38.375,0,0,0,0,1
206541026,206541011,1114122,2.871387,2.9647071,-6.647261,38.25,0,0,0,0,1
206638622,206638603,1114122,2.6775684,3.0149565,-6.4893346,38.375,0,0,0,0,1
206738659,206738644,1114122,2.871387,2.9718857,-7.3435726,38.5,0,0,0,0,1
206838669,206838654,1114122,3.0149565,2.656033,-6.3170514,38.25,0,0,0,0,1
206941267,206941252,1114122,2.7852454,2.792424,-6.367301,38.375,0,0,0,0,1
207038796,207038781,1114122,2.9359932,2.9718857,-6.6257257,38.375,0,0,0,0,1
207135050,207135035,1114122,2.8642087,2.7062824,-6.3457656,38.375,0,0,0,0,1
207241401,207241379,1114122,2.6488545,3.2015965,-6.245267,38.375,0,0,0,0,1
207338976,207338958,1114122,2.6632116,3.0580273,-6.360122,38.375,0,0,0,0,1
207441478,207441463,1114122,2.5914268,2.6775684,-6.553941,38.25,0,0,0,0,1
207534075,207534057,1114122,3.1369903,2.9216363,-6.460621,38.375,0,0,0,0,1
207639105,207639086,1114122,2.4622145,2.8498516,-6.6185474,38.375,0,0,0,0,1
207741606,207741591,1114122,2.57707,3.1513474,-6.647261,38.375,0,0,0,0,1
207836684,207836669,1114122,2.6488545,2.8929224,-6.360122,38.375,0,0,0,0,1
207936699,207936684,1114122,2.7565317,2.6057837,-6.632904,38.375,0,0,0,0,1
208038050,208038035,1114122,2.4765713,2.8785655,-6.302695,38.375,0,0,0,0,1
208141837,208141822,1114122,2.8067808,2.6919253,-6.5754766,38.5,0,0,0,0,1
208235453,208235438,1114122,2.5698915,3.022135,-6.8267226,38.375,0,0,0,0,1
208335205,208335185,1114122,3.022135,2.9647071,-6.431907,38.25,0,0,0,0,1
208441983,208441964,1114122,3.1082766,3.115455,-6.7764735,38.375,0,0,0,0,1
208537850,208537835,1114122,2.376073,2.9216363,-6.675975,38.375,0,0,0,0,1
208639549,208639534,1114122,2.9503503,2.778067,-6.8339014,38.375,0,0,0,0,1
208737353,208737338,1114122,2.67039,2.9359932,-6.6113687,38.375,0,0,0,0,1
208839667,208839652,1114122,2.7421746,3.007778,-6.3960147,38.375,0,0,0,0,1
208935800,208935785,1114122,2.7206392,2.885744,-6.568298,38.5,0,0,0,0,1
209034774,209034759,1114122,2.76371,2.519642,-6.410372,38.25,0,0,0,0,1
209142292,209142277,1114122,2.347359,2.8354948,-6.6687965,38.375,0,0,0,0,1
209238200,209238185,1114122,2.8354948,3.2590244,-6.582655,38.375,0,0,0,0,1
209339890,209339875,1114122,2.9503503,2.8067808,-6.252445,38.5,0,0,0,0,1
209435600,209435585,1114122,2.5698915,2.9359932,-6.7334027,38.375,0,0,0,0,1
209540011,209539996,1114122,2.9503503,3.180061,-6.3744793,38.5,0,0,0,0,1
209636150,209636135,1114122,2.792424,2.9072795,-6.460621,38.375,0,0,0,0,1
209737607,209737592,1114122,2.6057837,2.821138,-6.6185474,38.5,0,0,0,0,1
209842666,209842651,1114122,2.6775684,3.3954153,-6.5324054,38.25,0,0,0,0,1
209938553,209938538,1114122,2.3904297,3.0005994,-6.6975102,38.5,0,0,0,0,1
210037764,210037749,1114122,2.979064,3.0149565,-6.3744793,38.5,0,0,0,0,1
210137772,210137757,1114122,2.6201408,3.007778,-6.7908306,38.375,0,0,0,0,1
210240355,210240340,1114122,3.0580273,2.7278178,-6.862615,38.25,0,0,0,0,1
210336500,210336485,1114122,2.684747,2.928815,-6.7908306,38.375,0,0,0,0,1
210437907,210437892,1114122,2.6919253,2.562713,-6.4893346,38.25,0,0,0,0,1
210540502,210540487,1114122,2.734996,2.548356,-6.3888364,38.375,0,0,0,0,1
210638900,210638885,1114122,2.979064,1.765903,-6.5467625,38.375,0,0,0,0,1
210740558,210740542,1114122,2.6632116,2.792424,-6.460621,38.375,0,0,0,0,1
210835631,210835616,1114122,2.376073,3.2733812,-6.360122,38.375,0,0,0,0,1
210940686,210940671,1114122,2.3401804,2.318645,-6.467799,38.375,0,0,0,0,1
211038241,211038226,1114122,2.8498516,2.4909282,-6.6831536,38.375,0,0,0,0,1
211138294,211138279,1114122,2.8498516,3.180061,-6.5754766,38.5,0,0,0,0,1
211235799,211235784,1114122,2.7708886,3.1369903,-6.5611196,38.25,0,0,0,0,1
211340851,211340836,1114122,2.5986054,2.900101,-6.403193,38.5,0,0,0,0,1
211440896,211440881,1114122,2.4119651,2.8139594,-6.5898333,38.5,0,0,0,0,1
211535986,211535971,1114122,2.6991038,2.928815,-6.8339014,38.5,0,0,0,0,1
211636036,211636021,1114122,2.8354948,2.993421,-6.568298,38.375,0,0,0,0,1
211738597,211738582,1114122,2.7996025,3.1082766,-6.5324054,38.5,0,0,0,0,1
211840104,211840085,1114122,2.8785655,3.072384,-6.5898333,38.25,0,0,0,0,1
211938645,211938630,1114122,2.67039,2.8929224,-6.8841505,38.375,0,0,0,0,1
212036463,212036448,1114122,2.548356,2.7062824,-6.632904,38.375,0,0,0,0,1
212139350,212139335,1114122,2.8570302,2.9216363,-6.4893346,38.25,0,0,0,0,1
212237007,212236985,1114122,2.778067,3.5389845,-5.9437714,38.25,0,0,0,0,1
212337803,212337788,1114122,2.4765713,1.9525433,-6.9415784,38.375,0,0,0,0,1
212438921,212438906,1114122,4.4578285,2.8139594,-6.108876,38.25,0,0,0,0,1
212539413,212539398,1114122,3.2662027,2.6488545,-6.6257257,38.375,0,0,0,0,1
212636487,212636472,1114122,2.074577,2.778067,-7.077969,38.25,0,0,0,0,1
212736553,212736538,1114122,2.4335005,3.0939195,-6.4390855,38.25,0,0,0,0,1
212841592,212841577,1114122,3.2733812,2.9503503,-6.6113687,38.5,0,0,0,0,1
212937352,212937335,1114122,2.6416762,2.9359932,-6.4965134,38.5,0,0,0,0,1
213039221,213039206,1114122,2.7062824,2.821138,-6.5754766,38.5,0,0,0,0,1
213136850,213136835,1114122,3.0939195,2.6632116,-6.805187,38.625,0,0,0,0,1
213239753,213239738,1114122,2.57707,2.7852454,-6.9415784,38.5,0,0,0,0,1
213337414,213337392,1114122,2.8785655,2.8785655,-6.3744793,38.375,0,0,0,0,1
213438203,213438188,1114122,2.792424,2.8642087,-6.431907,38.375,0,0,0,0,1
213536955,213536940,1114122,2.67039,2.9718857,-6.3816576,38.375,0,0,0,0,1
213639514,213639499,1114122,2.734996,2.6632116,-6.460621,38.375,0,0,0,0,1
213739586,213739569,1114122,2.821138,2.9072795,-6.597012,38.375,0,0,0,0,1
213837200,213837185,1114122,2.778067,2.8929224,-6.690332,38.375,0,0,0,0,1
213935900,213935885,1114122,2.6991038,3.022135,-6.3457656,38.375,0,0,0,0,1
214040906,214040885,1114122,2.548356,2.8642087,-6.5611196,38.5,0,0,0,0,1
214139764,214139743,1114122,2.778067,2.8426733,-6.202196,38.375,0,0,0,0,1
214239795,214239780,1114122,2.8498516,2.9503503,-6.7118673,38.5,0,0,0,0,1
214333853,214333838,1114122,2.778067,2.979064,-6.8267226,38.375,0,0,0,0,1
214439905,214439885,1114122,2.7493532,2.9072795,-6.5898333,38.375,0,0,0,0,1
214538603,214538585,1114122,2.76371,2.9216363,-6.675975,38.5,0,0,0,0,1
214636253,214636238,1114122,2.4622145,3.0436704,-6.3888364,38.5,0,0,0,0,1
214738100,214738085,1114122,2.6919253,3.0795627,-6.5754766,38.5,0,0,0,0,1
214840093,214840078,1114122,2.5914268,2.6775684,-6.7262244,38.5,0,0,0,0,1
214938662,214938645,1114122,2.8929224,2.9718857,-6.518049,38.375,0,0,0,0,1
215035250,215035235,1114122,2.8354948,2.5986054,-6.661618,38.375,0,0,0,0,1
215139207,215139192,1114122,2.9575286,2.928815,-6.1734824,38.375,0,0,0,0,1
215237763,215237748,1114122,2.928815,3.0149565,-6.568298,38.375,0,0,0,0,1
215337823,215337808,1114122,2.7852454,2.993421,-6.3314085,38.375,0,0,0,0,1
215440348,215440328,1114122,2.5052853,2.7996025,-6.5611196,38.5,0,0,0,0,1
215538206,215538189,1114122,3.072384,2.979064,-6.474978,38.25,0,0,0,0,1
215640488,215640473,1114122,2.6057837,2.792424,-6.467799,38.5,0,0,0,0,1
215735605,215735590,1114122,2.9647071,2.6129622,-6.460621,38.5,0,0,0,0,1
215835584,215835569,1114122,2.9647071,2.2253249,-6.5324054,38.5,0,0,0,0,1
215938102,215938087,1114122,2.57707,2.8929224,-6.6257257,38.5,0,0,0,0,1
216039050,216039035,1114122,2.67039,3.0580273,-6.6831536,38.375,0,0,0,0,1
216138227,216138212,1114122,2.993421,2.4909282,-6.6041903,38.375,0,0,0,0,1
216235744,216235729,1114122,2.455036,2.4622145,-6.431907,38.375,0,0,0,0,1
216340795,216340780,1114122,2.426322,3.330809,-7.1784678,38.5,0,0,0,0,1
216438368,216438353,1114122,2.8354948,2.8498516,-6.3960147,38.5,0,0,0,0,1
216538394,216538371,1114122,1.9884355,4.4578285,-6.295516,38.5,0,0,0,0,1
216638452,216638433,1114122,2.76371,2.993421,-6.123233,38.5,0,0,0,0,1
216741014,216740998,1114122,2.9718857,2.9718857,-6.6185474,38.375,0,0,0,0,1
216841038,216841017,1114122,2.9216363,2.792424,-6.2093744,38.625,0,0,0,0,1
216934709,216934694,1114122,2.4981067,3.072384,-6.518049,38.5,0,0,0,0,1
217039703,217039688,1114122,2.993421,2.9072795,-6.7621164,38.5,0,0,0,0,1
217138710,217138695,1114122,2.6201408,2.7421746,-6.410372,38.375,0,0,0,0,1
217240250,217240235,1114122,1.7874385,3.4671998,-6.6185474,38.5,0,0,0,0,1
217336269,217336254,1114122,3.0580273,2.8929224,-6.5754766,38.5,0,0,0,0,1
217439760,217439735,1114122,3.0939195,3.2733812,-6.467799,38.625,0,0,0,0,1
217541389,217541363,1114122,2.6344976,3.1082766,-6.3457656,38.375,0,0,0,0,1
217636439,217636424,1114122,2.7421746,2.9503503,-6.3170514,38.5,0,0,0,0,1
217736903,217736885,1114122,2.3904297,2.993421,-6.582655,38.375,0,0,0,0,1
217837700,217837685,1114122,2.8498516,2.426322,-6.5898333,38.375,0,0,0,0,1
217939071,217939056,1114122,2.5268207,2.900101,-6.5754766,38.5,0,0,0,0,1
218034153,218034138,1114122,2.5411775,3.2805598,-6.5324054,38.375,0,0,0,0,1
218139213,218139198,1114122,2.67039,2.900101,-6.632904,38.5,0,0,0,0,1
218239211,218239196,1114122,2.7134607,2.8498516,-6.5324054,38.5,0,0,0,0,1
218335411,218335394,1114122,2.9359932,3.1728828,-6.0729837,38.375,0,0,0,0,1
218441845,218441830,1114122,2.6129622,3.330809,-6.6257257,38.375,0,0,0,0,1
218539407,218539392,1114122,3.0436704,2.6344976,-6.431907,38.5,0,0,0,0,1
218639451,218639436,1114122,2.519642,2.8498516,-6.2739806,38.625,0,0,0,0,1
218737559,218737544,1114122,2.7206392,3.180061,-6.4893346,38.5,0,0,0,0,1
218839554,218839539,1114122,3.007778,2.900101,-6.6113687,38.5,0,0,0,0,1
218939592,218939577,1114122,2.928815,2.821138,-6.360122,38.625,0,0,0,0,1
219037108,219037093,1114122,2.885744,2.792424,-6.3960147,38.5,0,0,0,0,1
219142194,219142179,1114122,2.778067,3.5389845,-6.74776,38.625,0,0,0,0,1
219238405,219238390,1114122,2.76371,2.9144578,-6.647261,38.625,0,0,0,0,1
219336052,219336037,1114122,2.548356,2.8785655,-6.446264,38.375,0,0,0,0,1
219437903,219437888,1114122,2.9431717,3.330809,-6.431907,38.625,0,0,0,0,1
219538700,219538685,1114122,2.9503503,2.7421746,-6.0586267,38.625,0,0,0,0,1
219637458,219637440,1114122,2.979064,3.1513474,-6.632904,38.375,0,0,0,0,1
219738200,219738185,1114122,3.452843,3.4313076,-6.740581,38.5,0,0,0,0,1
219840058,219840040,1114122,2.0961125,3.007778,-5.972485,38.5,0,0,0,0,1
219931407,219931392,1114122,1.4859428,2.7062824,-6.460621,38.5,0,0,0,0,1
220040131,220040116,1114122,3.1441689,2.979064,-6.3170514,38.5,0,0,0,0,1
220136155,220136140,1114122,3.4887352,2.993421,-6.108876,38.5,0,0,0,0,1
220235251,220235222,1114122,2.3545375,2.9647071,-6.632904,38.375,0,0,0,0,1
220340900,220340885,1114122,2.9144578,3.0795627,-6.4893346,38.5,0,0,0,0,1
220436463,220436448,1114122,3.0293133,3.0580273,-6.8339014,38.5,0,0,0,0,1
220535393,220535368,1114122,2.2899313,2.9647071,-6.5611196,38.5,0,0,0,0,1
220639100,220639085,1114122,2.6919253,2.9503503,-6.661618,38.5,0,0,0,0,1
220738850,220738835,1114122,2.9575286,3.237489,-6.352944,38.625,0,0,0,0,1
220834405,220834390,1114122,2.5411775,3.1944182,-6.754938,38.5,0,0,0,0,1
220940581,220940566,1114122,2.3258235,3.2590244,-7.0061846,38.625,0,0,0,0,1
221039153,221039135,1114122,2.7062824,2.9647071,-6.1734824,38.5,0,0,0,0,1
221134706,221134685,1114122,3.56052,3.0795627,-6.5754766,38.5,0,0,0,0,1
221240759,221240743,1114122,2.0530417,3.4025936,-6.04427,38.5,0,0,0,0,1
221338236,221338221,1114122,2.2253249,3.129812,-6.8339014,38.5,0,0,0,0,1
221437142,221437127,1114122,3.0795627,2.7062824,-6.647261,38.5,0,0,0,0,1
221538369,221538354,1114122,3.022135,2.8067808,-6.632904,38.375,0,0,0,0,1
221638393,221638367,1114122,2.5339992,3.1369903,-6.525227,38.5,0,0,0,0,1
221733463,221733448,1114122,2.9359932,2.8354948,-6.632904,38.5,0,0,0,0,1
221839252,221839235,1114122,2.9575286,3.0436704,-6.704689,38.625,0,0,0,0,1
221941103,221941088,1114122,2.778067,3.1226335,-6.805187,38.625,0,0,0,0,1
222036105,222036090,1114122,2.5124638,3.0939195,-6.3314085,38.5,0,0,0,0,1
222141123,222141108,1114122,2.8642087,3.007778,-6.6831536,38.5,0,0,0,0,1
222236212,222236197,1114122,2.6201408,2.8426733,-6.446264,38.625,0,0,0,0,1
222336256,222336241,1114122,2.8354948,2.7996025,-6.647261,38.5,0,0,0,0,1
222438846,222438827,1114122,2.6057837,3.1585257,-6.3816576,38.5,0,0,0,0,1
222538866,222538846,1114122,2.76371,3.2949166,-6.5324054,38.625,0,0,0,0,1
222640406,222640391,1114122,2.7278178,3.3810582,-6.3816576,38.625,0,0,0,0,1
222738927,222738912,1114122,2.0027926,2.778067,-7.020541,38.375,0,0,0,0,1
222839909,222839888,1114122,3.2518458,3.0939195,-6.8339014,38.5,0,0,0,0,1
222936580,222936562,1114122,2.1966112,3.0795627,-6.74776,38.5,0,0,0,0,1
223037316,223037301,1114122,2.8139594,2.928815,-6.360122,38.5,0,0,0,0,1
223139149,223139134,1114122,3.0795627,2.8785655,-6.3314085,38.625,0,0,0,0,1
223236800,223236785,1114122,2.4765713,3.2518458,-6.3314085,38.375,0,0,0,0,1
223336758,223336743,1114122,2.8283162,2.8498516,-6.8841505,38.5,0,0,0,0,1
223439305,223439290,1114122,2.76371,3.1513474,-6.2883377,38.5,0,0,0,0,1
223540252,223540235,1114122,2.5339992,2.9072795,-6.5036917,38.5,0,0,0,0,1
223634410,223634395,1114122,2.8642087,2.6416762,-7.0564337,38.5,0,0,0,0,1
223739470,223739452,1114122,2.76371,2.900101,-6.2237315,38.5,0,0,0,0,1
223839542,223839527,1114122,2.8570302,3.2015965,-6.446264,38.625,0,0,0,0,1
223936105,223936090,1114122,2.5914268,3.007778,-6.7190456,38.5,0,0,0,0,1
224040050,224040035,1114122,2.6488545,2.9718857,-6.7190456,38.5,0,0,0,0,1
224137157,224137142,1114122,2.8426733,2.656033,-6.2237315,38.625,0,0,0,0,1
224234686,224234671,1114122,3.0005994,2.3114667,-6.2811594,38.5,0,0,0,0,1
224339768,224339750,1114122,2.455036,4.2927237,-6.518049,38.375,0,0,0,0,1
224438002,224437987,1114122,2.4622145,2.4693928,-6.302695,38.5,0,0,0,0,1
224538810,224538795,1114122,2.627319,3.2518458,-6.4821563,38.5,0,0,0,0,1
224639890,224639874,1114122,2.8498516,3.1226335,-6.13759,38.5,0,0,0,0,1
224741482,224741466,1114122,2.7062824,2.7493532,-6.302695,38.5,0,0,0,0,1
224837499,224837484,1114122,2.5842483,2.8785655,-5.972485,38.5,0,0,0,0,1
224940048,224940033,1114122,2.7421746,3.022135,-6.7908306,38.5,0,0,0,0,1
225037599,225037584,1114122,3.2015965,2.3401804,-6.1591253,38.5,0,0,0,0,1
225137637,225137622,1114122,2.9575286,3.3954153,-6.6687965,38.5,0,0,0,0,1
225239150,225239135,1114122,2.7493532,2.1750758,-5.462814,38.625,0,0,0,0,1
225340245,225340225,1114122,2.7062824,3.3020952,-5.297709,38.5,0,0,0,0,1
225438652,225438635,1114122,2.6488545,3.438486,-7.846065,38.625,0,0,0,0,1
225535368,225535350,1114122,3.0149565,2.347359,-7.5445695,38.5,0,0,0,0,1
225640398,225640370,1114122,2.5698915,2.4909282,-5.6279187,38.5,0,0,0,0,1
225736856,225736841,1114122,2.7206392,2.5339992,-6.769295,38.375,0,0,0,0,1
225835550,225835535,1114122,2.7206392,2.979064,-6.553941,38.625,0,0,0,0,1
225940575,225940560,1114122,2.6919253,3.1944182,-6.41755,38.5,0,0,0,0,1
226038049,226038034,1114122,2.8929224,3.1082766,-6.4247284,38.5,0,0,0,0,1
226136940,226136921,1114122,2.6129622,3.1082766,-6.3314085,38.625,0,0,0,0,1
226238178,226238163,1114122,2.9431717,2.8570302,-6.597012,38.5,0,0,0,0,1
226339552,226339535,1114122,2.6201408,3.1441689,-6.431907,38.5,0,0,0,0,1
226433285,226433270,1114122,2.8354948,2.9718857,-6.6257257,38.625,0,0,0,0,1
226540826,226540811,1114122,2.8498516,2.993421,-6.460621,38.625,0,0,0,0,1
226640906,226640889,1114122,2.67039,2.821138,-6.4821563,38.5,0,0,0,0,1
226738409,226738394,1114122,2.792424,2.993421,-6.6975102,38.5,0,0,0,0,1
226841476,226841461,1114122,2.7278178,3.1369903,-6.812366,38.625,0,0,0,0,1
226938535,226938520,1114122,3.1082766,2.9072795,-6.7908306,38.625,0,0,0,0,1
227038578,227038563,1114122,2.7062824,2.8139594,-6.5324054,38.5,0,0,0,0,1
227137553,227137538,1114122,2.8498516,2.871387,-6.202196,38.5,0,0,0,0,1
227241140,227241125,1114122,2.7421746,3.0293133,-6.582655,38.625,0,0,0,0,1
227340200,227340185,1114122,2.6129622,3.1513474,-6.5324054,38.5,0,0,0,0,1
227436803,227436785,1114122,2.6632116,2.627319,-6.431907,38.375,0,0,0,0,1
227539735,227539717,1114122,2.7278178,3.0795627,-6.582655,38.5,0,0,0,0,1
227635256,227635241,1114122,2.734996,3.3954153,-6.6041903,38.625,0,0,0,0,1
227737103,227737088,1114122,2.6129622,2.4765713,-6.403193,38.625,0,0,0,0,1
227838972,227838957,1114122,2.9359932,2.6057837,-6.460621,38.625,0,0,0,0,1
227936600,227936585,1114122,2.57707,2.7996025,-6.769295,38.5,0,0,0,0,1
228039036,228039016,1114122,2.9359932,2.979064,-6.597012,38.5,0,0,0,0,1
228139094,228139079,1114122,2.9647071,2.9503503,-6.6113687,38.625,0,0,0,0,1
228239174,228239159,1114122,2.871387,2.519642,-6.597012,38.625,0,0,0,0,1
228337710,228337694,1114122,2.5842483,2.6201408,-6.474978,38.625,0,0,0,0,1
228441771,228441756,1114122,2.6344976,2.9718857,-6.460621,38.625,0,0,0,0,1
228536777,228536762,1114122,2.6344976,2.9216363,-6.518049,38.5,0,0,0,0,1
228634365,228634350,1114122,2.76371,2.8283162,-6.431907,38.5,0,0,0,0,1
228739851,228739836,1114122,2.8354948,2.9503503,-6.518049,38.5,0,0,0,0,1
228839452,228839431,1114122,2.871387,2.871387,-6.360122,38.5,0,0,0,0,1
228938309,228938293,1114122,2.7206392,2.8354948,-6.7334027,38.5,0,0,0,0,1
229039574,229039559,1114122,2.9575286,2.900101,-6.1304116,38.625,0,0,0,0,1
229137116,229137101,1114122,2.6632116,3.072384,-6.553941,38.625,0,0,0,0,1
229234653,229234638,1114122,2.548356,2.7206392,-6.338587,38.625,0,0,0,0,1
229339713,229339698,1114122,2.7493532,2.6919253,-6.3314085,38.625,0,0,0,0,1
229442303,229442288,1114122,2.734996,2.6775684,-6.5754766,38.75,0,0,0,0,1
229534816,229534801,1114122,2.8570302,3.180061,-6.6975102,38.5,0,0,0,0,1
229642372,229642357,1114122,2.5052853,2.4693928,-6.2883377,38.5,0,0,0,0,1
229737435,229737417,1114122,2.7134607,2.76371,-6.309873,38.625,0,0,0,0,1
229835003,229834988,1114122,2.7421746,2.7206392,-6.661618,38.75,0,0,0,0,1
229937483,229937468,1114122,3.0436704,3.072384,-5.9653068,38.5,0,0,0,0,1
230038700,230038685,1114122,2.318645,3.0005994,-6.661618,38.5,0,0,0,0,1
230137617,230137602,1114122,2.734996,2.9072795,-6.2883377,38.625,0,0,0,0,1
230238203,230238188,1114122,3.2446673,2.8929224,-6.51087,38.625,0,0,0,0,1
230340211,230340196,1114122,2.519642,2.9862425,-6.5898333,38.625,0,0,0,0,1
230435230,230435215,1114122,2.9144578,3.1728828,-6.3170514,38.625,0,0,0,0,1
230538501,230538486,1114122,2.67039,2.7206392,-6.704689,38.5,0,0,0,0,1
230636153,230636138,1114122,2.8498516,2.8354948,-6.7118673,38.5,0,0,0,0,1
230735379,230735357,1114122,3.3092737,2.734996,-6.7190456,38.625,0,0,0,0,1
230840903,230840888,1114122,2.3401804,2.7996025,-6.6831536,38.75,0,0,0,0,1
230938022,230938007,1114122,3.6107693,2.8354948,-6.5898333,38.625,0,0,0,0,1
231038024,231038009,1114122,2.333002,2.5986054,-6.6831536,38.625,0,0,0,0,1
231138117,231138102,1114122,2.821138,2.8785655,-6.661618,38.5,0,0,0,0,1
231236750,231236735,1114122,3.6897323,2.9503503,-8.671589,38.625,0,0,0,0,1
231334411,231334390,1114122,2.7708886,3.7830524,-6.187839,38.625,0,0,0,0,1
231439405,231439390,1114122,2.821138,2.268396,-6.553941,38.75,0,0,0,0,1
231540814,231540799,1114122,2.8785655,2.9431717,-7.0492554,38.625,0,0,0,0,1
231635860,231635845,1114122,2.519642,3.1513474,-6.5611196,38.625,0,0,0,0,1
231740906,231740891,1114122,2.9503503,2.9503503,-6.8697934,38.5,0,0,0,0,1
231837353,231837335,1114122,2.7708886,3.0580273,-6.352944,38.625,0,0,0,0,1
231935000,231934985,1114122,2.6632116,2.9718857,-6.661618,38.625,0,0,0,0,1
232036853,232036838,1114122,2.7708886,2.8498516,-6.553941,38.5,0,0,0,0,1
232138700,232138685,1114122,2.7062824,2.821138,-6.6257257,38.75,0,0,0,0,1
232237412,232237397,1114122,2.6919253,3.2733812,-6.3314085,38.625,0,0,0,0,1
232338712,232338697,1114122,2.7852454,2.9575286,-6.675975,38.625,0,0,0,0,1
232441263,232441248,1114122,2.778067,2.6201408,-6.525227,38.625,0,0,0,0,1
232533816,232533801,1114122,2.8283162,2.8283162,-6.4821563,38.625,0,0,0,0,1
232638849,232638834,1114122,2.6632116,3.2590244,-6.3457656,38.75,0,0,0,0,1
232736411,232736396,1114122,2.7493532,2.8354948,-6.3888364,38.875,0,0,0,0,1
232836463,232836448,1114122,2.0027926,2.6201408,-5.8719864,38.875,0,0,0,0,1
232941516,232941501,1114122,2.8354948,2.6057837,-7.228717,38.625,0,0,0,0,1
233037500,233037485,1114122,2.900101,2.8498516,-6.403193,38.5,0,0,0,0,1
233139063,233139048,1114122,3.0005994,2.4837499,-7.4512496,38.625,0,0,0,0,1
233239154,233239139,1114122,2.6632116,3.0939195,-5.958128,38.5,0,0,0,0,1
233337800,233337785,1114122,2.1966112,3.0436704,-6.029913,38.625,0,0,0,0,1
233434248,233434233,1114122,2.6201408,3.1513474,-6.6257257,38.625,0,0,0,0,1
233537300,233537285,1114122,2.792424,3.1226335,-6.3170514,38.625,0,0,0,0,1
233638100,233638085,1114122,2.9503503,3.4097722,-6.5467625,38.75,0,0,0,0,1
233734369,233734354,1114122,2.5914268,2.5986054,-6.1160545,38.625,0,0,0,0,1
233840753,233840738,1114122,2.778067,2.993421,-6.568298,38.625,0,0,0,0,1
233937003,233936988,1114122,2.9503503,3.3810582,-6.640083,38.625,0,0,0,0,1
234034533,234034518,1114122,2.6057837,3.0436704,-6.6257257,38.75,0,0,0,0,1
234139561,234139546,1114122,3.0580273,3.0939195,-6.518049,38.75,0,0,0,0,1
234239750,234239735,1114122,2.928815,2.7206392,-6.1304116,38.75,0,0,0,0,1
234338469,234338454,1114122,2.6057837,2.9072795,-6.7908306,38.625,0,0,0,0,1
234439715,234439699,1114122,2.734996,2.9072795,-6.3744793,38.625,0,0,0,0,1
234541110,234541095,1114122,2.8570302,2.6775684,-6.5754766,38.75,0,0,0,0,1
234634812,234634797,1114122,2.7278178,2.8785655,-6.3888364,38.75,0,0,0,0,1
234739878,234739863,1114122,2.6416762,3.0149565,-6.403193,38.625,0,0,0,0,1
234838254,234838239,1114122,2.7278178,2.5339992,-6.2739806,38.625,0,0,0,0,1
234939055,234939040,1114122,2.7062824,3.0436704,-5.570491,38.625,0,0,0,0,1
235042521,235042506,1114122,2.6057837,3.1369903,-6.7908306,38.625,0,0,0,0,1
235137601,235137576,1114122,2.8929224,3.0939195,-6.474978,38.75,0,0,0,0,1
235237617,235237602,1114122,2.8642087,3.2590244,-6.912864,38.625,0,0,0,0,1
235338050,235338035,1114122,2.1750758,3.2303104,-6.3314085,38.625,0,0,0,0,1
235440246,235440231,1114122,2.6919253,2.821138,-6.3314085,38.875,0,0,0,0,1
235535283,235535268,1114122,2.9216363,2.7708886,-6.3744793,38.75,0,0,0,0,1
235639410,235639395,1114122,2.7565317,2.9647071,-6.51087,38.625,0,0,0,0,1
235741266,235741251,1114122,2.7708886,2.993421,-6.640083,38.625,0,0,0,0,1
235836800,235836785,1114122,2.8067808,3.0293133,-6.597012,38.75,0,0,0,0,1
235940486,235940471,1114122,2.562713,3.0508487,-6.5898333,38.625,0,0,0,0,1
236038023,236038008,1114122,2.6488545,2.979064,-6.51087,38.75,0,0,0,0,1
236138166,236138151,1114122,2.8642087,2.8283162,-6.446264,38.625,0,0,0,0,1
236235800,236235785,1114122,2.8139594,2.9144578,-6.460621,38.75,0,0,0,0,1
236338702,236338687,1114122,2.7493532,2.9072795,-6.4247284,38.625,0,0,0,0,1
236439500,236439485,1114122,2.8929224,2.8498516,-6.518049,38.625,0,0,0,0,1
236536103,236536088,1114122,2.4909282,2.900101,-6.446264,38.75,0,0,0,0,1
236640816,236640795,1114122,2.57707,2.993421,-6.525227,38.75,0,0,0,0,1
236735888,236735873,1114122,2.8498516,2.9862425,-6.553941,38.625,0,0,0,0,1
236838504,236838488,1114122,2.6488545,2.928815,-6.431907,38.875,0,0,0,0,1
236938505,236938490,1114122,2.76371,3.0364919,-6.6544394,38.625,0,0,0,0,1
237038554,237038539,1114122,2.6775684,2.821138,-6.6113687,38.75,0,0,0,0,1
237138565,237138550,1114122,2.4981067,2.778067,-6.6544394,38.75,0,0,0,0,1
237238658,237238643,1114122,2.8067808,3.022135,-6.6041903,38.875,0,0,0,0,1
237338699,237338684,1114122,2.7996025,3.0364919,-6.5754766,38.625,0,0,0,0,1
237438715,237438700,1114122,2.8139594,2.9503503,-6.431907,38.75,0,0,0,0,1
237541278,237541263,1114122,2.7062824,3.0149565,-6.360122,38.875,0,0,0,0,1
237636379,237636355,1114122,2.8785655,3.0652058,-6.6975102,38.75,0,0,0,0,1
237738866,237738845,1114122,2.8354948,2.9575286,-6.460621,38.75,0,0,0,0,1
237841469,237841454,1114122,2.9072795,2.76371,-6.4893346,38.875,0,0,0,0,1
237937854,237937839,1114122,2.6775684,2.9072795,-6.6041903,38.875,0,0,0,0,1
238039010,238038995,1114122,2.778067,2.8498516,-6.2883377,38.75,0,0,0,0,1
238137404,238137388,1114122,2.792424,2.8139594,-6.403193,38.875,0,0,0,0,1
238239203,238239188,1114122,2.8139594,2.993421,-6.5611196,38.75,0,0,0,0,1
238334214,238334199,1114122,2.778067,2.9718857,-6.5898333,38.75,0,0,0,0,1
238437695,238437680,1114122,2.6919253,3.1657043,-6.5754766,38.875,0,0,0,0,1
238536789,238536774,1114122,2.8067808,2.9144578,-6.6544394,38.75,0,0,0,0,1
238634355,238634340,1114122,2.76371,2.9359932,-6.7190456,38.625,0,0,0,0,1
238740050,238740035,1114122,2.9072795,2.8570302,-6.675975,38.75,0,0,0,0,1
238836940,238836925,1114122,2.519642,2.8354948,-6.41755,38.75,0,0,0,0,1
238936964,238936948,1114122,2.7421746,3.007778,-6.525227,38.75,0,0,0,0,1
239038295,239038280,1114122,2.57707,2.8498516,-6.568298,38.875,0,0,0,0,1
239139565,239139550,1114122,2.7206392,2.778067,-6.467799,38.75,0,0,0,0,1
239239628,239239613,1114122,2.9072795,3.007778,-6.6041903,38.75,0,0,0,0,1
239339701,239339686,1114122,2.6416762,3.0149565,-6.403193,38.75,0,0,0,0,1
239440405,239440390,1114122,2.8426733,2.9216363,-6.51087,38.75,0,0,0,0,1
239535953,239535935,1114122,2.6344976,3.0652058,-6.3888364,38.875,0,0,0,0,1
239638901,239638886,1114122,2.6991038,2.6775684,-6.32423,38.75,0,0,0,0,1
239738606,239738587,1114122,2.7134607,3.0867412,-6.704689,38.75,0,0,0,0,1
239836253,239836238,1114122,2.8426733,2.792424,-6.647261,38.75,0,0,0,0,1
239940200,239940185,1114122,2.9647071,3.022135,-6.474978,38.75,0,0,0,0,1
240040051,240040036,1114122,2.900101,3.1369903,-6.661618,38.75,0,0,0,0,1
240138681,240138666,1114122,2.6057837,3.022135,-6.6185474,38.75,0,0,0,0,1
240235250,240235235,1114122,2.8426733,2.871387,-6.6041903,38.875,0,0,0,0,1
240339200,240339185,1114122,2.8498516,3.022135,-6.3457656,38.875,0,0,0,0,1
240437730,240437715,1114122,2.8283162,2.778067,-6.7190456,38.75,0,0,0,0,1
240537806,240537791,1114122,2.7278178,2.9359932,-6.446264,38.75,0,0,0,0,1
240640333,240640318,1114122,2.8642087,3.115455,-6.783652,38.875,0,0,0,0,1
240738203,240738188,1114122,2.6416762,2.993421,-6.3888364,38.75,0,0,0,0,1
240837962,240837947,1114122,2.7852454,2.8354948,-6.597012,38.75,0,0,0,0,1
240935603,240935585,1114122,2.6416762,2.8570302,-6.7334027,38.75,0,0,0,0,1
241038501,241038486,1114122,2.9431717,2.900101,-6.568298,38.75,0,0,0,0,1
241138083,241138064,1114122,2.5986054,2.9503503,-6.5611196,38.75,0,0,0,0,1
241239080,241239061,1114122,2.5555346,2.7421746,-6.4965134,38.75,0,0,0,0,1
241338205,241338190,1114122,2.67039,3.1082766,-6.632904,38.75,0,0,0,0,1
241438553,241438537,1114122,2.8929224,2.9359932,-6.252445,38.75,0,0,0,0,1
241540803,241540788,1114122,2.9862425,2.928815,-6.5754766,38.875,0,0,0,0,1
241635950,241635935,1114122,2.8139594,2.9718857,-6.410372,38.75,0,0,0,0,1
241739900,241739885,1114122,2.5914268,2.9216363,-6.4893346,38.75,0,0,0,0,1
241836503,241836488,1114122,2.6201408,2.8283162,-6.661618,38.875,0,0,0,0,1
241939410,241939392,1114122,2.5268207,2.8929224,-6.7118673,38.75,0,0,0,0,1
242034953,242034935,1114122,2.8283162,2.8354948,-6.5611196,38.75,0,0,0,0,1
242138614,242138599,1114122,2.8785655,2.8929224,-6.6041903,38.75,0,0,0,0,1
242238667,242238652,1114122,2.8642087,2.9359932,-6.518049,38.75,0,0,0,0,1
242336312,242336297,1114122,2.6488545,2.928815,-6.302695,38.875,0,0,0,0,1
242440270,242440251,1114122,3.0580273,2.8498516,-6.5898333,38.875,0,0,0,0,1
242536856,242536841,1114122,2.5555346,3.101098,-6.3888364,38.75,0,0,0,0,1
242638868,242638853,1114122,2.6057837,2.9216363,-6.740581,38.75,0,0,0,0,1
242734250,242734235,1114122,2.6632116,2.6991038,-6.5898333,38.75,0,0,0,0,1
242838924,242838908,1114122,2.6488545,2.993421,-6.3888364,38.75,0,0,0,0,1
242939016,242939001,1114122,2.426322,2.9503503,-6.675975,38.75,0,0,0,0,1
243035606,243035591,1114122,2.5052853,2.8929224,-6.474978,38.75,0,0,0,0,1
243139550,243139535,1114122,2.426322,2.333002,-6.360122,38.75,0,0,0,0,1
243239136,243239121,1114122,3.180061,3.2662027,-6.2668023,38.75,0,0,0,0,1
243336671,243336656,1114122,2.5339992,2.7062824,-6.862615,38.875,0,0,0,0,1
243437750,243437735,1114122,2.8139594,2.2325034,-6.51087,38.875,0,0,0,0,1
243539320,243539305,1114122,2.6201408,2.8929224,-6.4534426,38.875,0,0,0,0,1
243639378,243639357,1114122,3.0939195,3.007778,-6.6041903,38.875,0,0,0,0,1
243737001,243736986,1114122,3.0795627,3.101098,-6.704689,38.75,0,0,0,0,1
243839900,243839885,1114122,2.0961125,3.0795627,-6.3888364,38.875,0,0,0,0,1
243937552,243937537,1114122,3.0293133,2.7421746,-6.41755,38.625,0,0,0,0,1
244038353,244038338,1114122,2.9359932,3.1369903,-6.2380886,38.75,0,0,0,0,1
244137136,244137118,1114122,2.3401804,2.8498516,-6.4821563,38.75,0,0,0,0,1
244239629,244239614,1114122,2.993421,2.993421,-6.6113687,38.75,0,0,0,0,1
244340754,244340738,1114122,2.8785655,2.900101,-6.704689,39.0,0,0,0,0,1
244437350,244437334,1114122,2.6129622,2.8354948,-6.6113687,38.75,0,0,0,0,1
244540251,244540236,1114122,2.8498516,3.2015965,-6.518049,38.75,0,0,0,0,1
244639846,244639831,1114122,2.6632116,3.072384,-6.5036917,38.875,0,0,0,0,1
244738703,244738685,1114122,2.792424,2.979064,-6.460621,38.875,0,0,0,0,1
244837472,244837457,1114122,2.627319,2.9575286,-6.403193,38.75,0,0,0,0,1
244938200,244938185,1114122,2.7062824,2.885744,-6.410372,38.75,0,0,0,0,1
245040086,245040071,1114122,2.627319,3.0939195,-6.690332,38.75,0,0,0,0,1
245137700,245137685,1114122,2.979064,2.993421,-6.6831536,38.75,0,0,0,0,1
245237660,245237645,1114122,2.6201408,2.8785655,-6.5036917,38.875,0,0,0,0,1
245337684,245337669,1114122,2.7206392,2.979064,-6.309873,38.875,0,0,0,0,1
245440268,245440253,1114122,2.8642087,3.0005994,-6.5036917,38.875,0,0,0,0,1
245538800,245538785,1114122,2.8570302,2.8354948,-6.661618,38.875,0,0,0,0,1
245638550,245638535,1114122,2.8929224,2.9575286,-6.805187,38.75,0,0,0,0,1
245740447,245740429,1114122,2.6488545,2.9503503,-6.446264,39.0,0,0,0,0,1
245840477,245840462,1114122,2.76371,2.7206392,-6.467799,38.875,0,0,0,0,1
245936752,245936737,1114122,2.778067,2.821138,-6.4821563,38.875,0,0,0,0,1
246034405,246034390,1114122,2.9144578,3.2303104,-6.5898333,38.75,0,0,0,0,1
246140621,246140606,1114122,2.821138,3.0149565,-6.661618,38.875,0,0,0,0,1
246239150,246239135,1114122,2.5914268,3.0364919,-6.431907,38.75,0,0,0,0,1
246336801,246336786,1114122,2.7852454,3.072384,-6.1806607,38.875,0,0,0,0,1
246438650,246438635,1114122,2.7708886,3.0652058,-6.245267,38.875,0,0,0,0,1
246538414,246538399,1114122,2.734996,2.8067808,-6.403193,38.75,0,0,0,0,1
246639200,246639185,1114122,2.6416762,2.8498516,-6.3170514,38.75,0,0,0,0,1
246733703,246733685,1114122,2.8283162,3.0436704,-6.431907,38.875,0,0,0,0,1
246840975,246840960,1114122,2.7565317,3.0149565,-6.7190456,38.875,0,0,0,0,1
246939500,246939485,1114122,2.8139594,2.993421,-6.8841505,38.75,0,0,0,0,1
247035058,247035043,1114122,2.8785655,2.778067,-6.460621,38.75,0,0,0,0,1
247140053,247140038,1114122,2.9647071,2.9575286,-6.41755,38.875,0,0,0,0,1
247238750,247238735,1114122,2.627319,2.8354948,-6.410372,38.875,0,0,0,0,1
247338742,247338727,1114122,2.7062824,2.7852454,-6.474978,38.875,0,0,0,0,1
247433763,247433748,1114122,2.57707,2.8354948,-6.5036917,38.75,0,0,0,0,1
247541344,247541329,1114122,2.792424,3.0939195,-6.7621164,38.75,0,0,0,0,1
247639853,247639838,1114122,2.76371,2.821138,-6.518049,39.0,0,0,0,0,1
247736474,247736459,1114122,2.792424,2.8426733,-6.5467625,38.875,0,0,0,0,1
247838944,247838929,1114122,2.8139594,3.0005994,-6.568298,38.875,0,0,0,0,1
247939100,247939085,1114122,2.6488545,2.9216363,-6.474978,38.875,0,0,0,0,1
248041603,248041588,1114122,2.900101,2.9718857,-6.704689,38.875,0,0,0,0,1
248134138,248134123,1114122,2.8570302,2.8283162,-6.525227,39.0,0,0,0,0,1
248239158,248239143,1114122,3.007778,2.778067,-6.518049,38.75,0,0,0,0,1
248338100,248338085,1114122,2.8067808,3.007778,-6.568298,38.875,0,0,0,0,1
248436805,248436790,1114122,2.6057837,3.115455,-6.6975102,38.875,0,0,0,0,1
248536845,248536830,1114122,2.9431717,3.0939195,-6.661618,39.0,0,0,0,0,1
248638414,248638393,1114122,2.8498516,2.9647071,-6.6687965,38.875,0,0,0,0,1
248740250,248740235,1114122,2.6775684,3.0436704,-6.460621,38.875,0,0,0,0,1
248834462,248834447,1114122,2.519642,2.8642087,-6.5611196,38.875,0,0,0,0,1
248937657,248937642,1114122,2.6057837,2.9718857,-6.632904,39.0,0,0,0,0,1
249042058,249042043,1114122,2.4765713,3.129812,-6.6041903,38.875,0,0,0,0,1
249137170,249137152,1114122,2.656033,3.0652058,-6.675975,38.875,0,0,0,0,1
249237197,249237178,1114122,2.6416762,2.9216363,-6.647261,39.0,0,0,0,0,1
249337700,249337685,1114122,2.6775684,3.022135,-6.41755,38.875,0,0,0,0,1
249439796,249439777,1114122,3.007778,2.9072795,-6.360122,38.875,0,0,0,0,1
249536152,249536137,1114122,2.778067,3.007778,-6.309873,38.875,0,0,0,0,1
249638000,249637985,1114122,2.7996025,2.928815,-6.4893346,38.875,0,0,0,0,1
249742471,249742448,1114122,2.7996025,2.9359932,-6.9343996,38.875,0,0,0,0,1
249837508,249837493,1114122,2.57707,2.821138,-6.3744793,38.75,0,0,0,0,1
249936203,249936185,1114122,2.4909282,2.9072795,-6.5611196,39.0,0,0,0,0,1
250037558,250037543,1114122,2.4478574,2.8067808,-6.3744793,39.0,0,0,0,0,1
250140148,250140133,1114122,2.9647071,3.0508487,-6.539584,38.875,0,0,0,0,1
250235163,250235148,1114122,2.6919253,3.0795627,-6.518049,38.875,0,0,0,0,1
250338350,250338335,1114122,3.0293133,2.9647071,-6.367301,38.875,0,0,0,0,1
250442769,250442754,1114122,2.76371,3.1369903,-6.6185474,38.875,0,0,0,0,1
250537851,250537836,1114122,2.7421746,3.0939195,-6.7334027,38.875,0,0,0,0,1
250637909,250637894,1114122,2.6201408,2.979064,-6.5036917,38.75,0,0,0,0,1
250738408,250738393,1114122,2.9647071,2.8139594,-6.431907,39.0,0,0,0,0,1
250840517,250840501,1114122,2.7134607,2.9647071,-6.474978,38.875,0,0,0,0,1
250936853,250936838,1114122,2.7493532,2.9359932,-6.5467625,38.875,0,0,0,0,1
251035608,251035592,1114122,2.76371,2.8570302,-6.661618,38.875,0,0,0,0,1
251140661,251140646,1114122,2.8067808,3.0939195,-6.6975102,39.0,0,0,0,0,1
251239253,251239238,1114122,2.7134607,3.4025936,-6.5898333,39.0,0,0,0,0,1
251338247,251338232,1114122,3.0005994,2.778067,-6.8267226,39.0,0,0,0,0,1
251438268,251438253,1114122,2.519642,2.792424,-6.6185474,39.0,0,0,0,0,1
251540856,251540841,1114122,2.9862425,2.821138,-6.6544394,39.0,0,0,0,0,1
251638416,251638401,1114122,2.7493532,2.8570302,-6.5611196,39.125,0,0,0,0,1
251735963,251735948,1114122,2.656033,3.0867412,-6.2380886,38.875,0,0,0,0,1
251841017,251841002,1114122,2.4622145,2.8929224,-6.367301,39.0,0,0,0,0,1
251938579,251938564,1114122,2.6057837,2.9359932,-6.3457656,39.0,0,0,0,0,1
252038598,252038583,1114122,2.7708886,2.6057837,-6.518049,39.0,0,0,0,0,1
252137000,252136985,1114122,2.6919253,2.9144578,-6.5754766,39.125,0,0,0,0,1
252241221,252241206,1114122,2.6488545,2.8642087,-5.814559,39.0,0,0,0,0,1
252338780,252338761,1114122,2.7708886,2.7708886,-6.51087,38.875,0,0,0,0,1
252436324,252436308,1114122,2.76371,2.8642087,-6.5324054,38.875,0,0,0,0,1
252539156,252539135,1114122,2.9359932,2.9503503,-6.3816576,38.875,0,0,0,0,1
252638927,252638912,1114122,2.778067,3.0652058,-6.675975,39.0,0,0,0,0,1
252737600,252737585,1114122,2.426322,2.6775684,-6.661618,39.0,0,0,0,0,1
252835250,252835235,1114122,2.548356,3.208775,-6.144768,39.0,0,0,0,0,1
252940250,252940235,1114122,2.6344976,2.9503503,-6.6113687,39.0,0,0,0,0,1
253039112,253039097,1114122,2.5986054,2.9359932,-6.2739806,38.875,0,0,0,0,1
253136668,253136653,1114122,2.8067808,3.1369903,-6.661618,39.0,0,0,0,0,1
253234253,253234235,1114122,3.115455,2.519642,-7.070791,39.0,0,0,0,0,1
253339270,253339254,1114122,2.3904297,3.0293133,-6.5036917,38.875,0,0,0,0,1
253440053,253440038,1114122,2.8785655,3.0293133,-6.2883377,38.875,0,0,0,0,1
253535635,253535619,1114122,3.022135,3.2015965,-6.8267226,38.875,0,0,0,0,1
253639419,253639404,1114122,2.9216363,3.1082766,-5.584848,38.875,0,0,0,0,1
253739490,253739475,1114122,2.7206392,2.7206392,-6.4821563,39.0,0,0,0,0,1
253838000,253837985,1114122,2.76371,3.1944182,-6.754938,38.875,0,0,0,0,1
253937083,253937068,1114122,3.1226335,3.2159536,-6.1806607,38.875,0,0,0,0,1
254038553,254038538,1114122,2.821138,2.684747,-6.862615,38.875,0,0,0,0,1
254140407,254140392,1114122,2.6775684,3.1082766,-6.195018,38.875,0,0,0,0,1
254235953,254235938,1114122,2.6129622,2.8067808,-6.5898333,39.0,0,0,0,0,1
254334789,254334774,1114122,2.627319,3.0580273,-6.74776,39.0,0,0,0,0,1
254439823,254439808,1114122,2.627319,2.7493532,-6.539584,39.0,0,0,0,0,1
254539844,254539829,1114122,2.871387,3.0652058,-5.915057,39.0,0,0,0,0,1
254639895,254639880,1114122,2.7278178,2.734996,-6.1734824,39.125,0,0,0,0,1
254734995,254734980,1114122,2.7708886,3.022135,-6.195018,38.875,0,0,0,0,1
254840750,254840735,1114122,2.5339992,2.900101,-6.2883377,38.875,0,0,0,0,1
254938408,254938393,1114122,2.734996,2.979064,-6.7334027,39.0,0,0,0,0,1
255037631,255037616,1114122,2.8139594,2.9359932,-5.9796634,39.125,0,0,0,0,1
255135810,255135795,1114122,2.8139594,2.9575286,-6.7334027,39.0,0,0,0,0,1
255240242,255240227,1114122,2.7134607,2.6632116,-6.1806607,39.0,0,0,0,0,1
255341601,255341586,1114122,2.6632116,2.821138,-6.7764735,39.0,0,0,0,0,1
255437810,255437795,1114122,2.5555346,2.8929224,-6.661618,39.0,0,0,0,0,1
255536925,255536905,1114122,2.6201408,3.129812,-6.6257257,39.0,0,0,0,0,1
255638762,255638747,1114122,2.8570302,2.9072795,-6.4893346,39.0,0,0,0,0,1
255740604,255740588,1114122,2.5698915,3.0436704,-6.467799,39.0,0,0,0,0,1
255835551,255835536,1114122,2.5555346,2.8929224,-6.0370913,39.0,0,0,0,0,1
255940557,255940542,1114122,2.6919253,3.0508487,-6.6544394,39.125,0,0,0,0,1
256040609,256040594,1114122,2.9072795,2.8785655,-6.661618,39.0,0,0,0,0,1
256138195,256138180,1114122,2.6632116,2.6344976,-6.6185474,39.0,0,0,0,0,1
256237250,256237235,1114122,2.7421746,2.871387,-6.5324054,39.125,0,0,0,0,1
256338294,256338279,1114122,2.778067,3.007778,-6.259624,39.0,0,0,0,0,1
256440950,256440935,1114122,2.627319,2.9718857,-6.431907,39.0,0,0,0,0,1
256535897,256535882,1114122,2.7134607,2.900101,-6.5611196,39.125,0,0,0,0,1
256635947,256635932,1114122,2.684747,3.0436704,-6.690332,39.0,0,0,0,0,1
256740971,256740956,1114122,2.7421746,2.993421,-6.3888364,38.875,0,0,0,0,1
256838542,256838527,1114122,2.8067808,2.928815,-6.5036917,38.875,0,0,0,0,1
256937605,256937590,1114122,3.007778,3.0293133,-6.431907,39.0,0,0,0,0,1
257038653,257038638,1114122,2.6057837,3.1872396,-6.2739806,39.0,0,0,0,0,1
257139238,257139221,1114122,2.7421746,2.993421,-6.518049,39.0,0,0,0,0,1
257238772,257238757,1114122,2.792424,3.022135,-6.3888364,39.0,0,0,0,0,1
257336287,257336272,1114122,2.67039,3.0005994,-6.805187,38.875,0,0,0,0,1
257439538,257439523,1114122,2.6775684,3.022135,-6.4893346,39.0,0,0,0,0,1
257538912,257538897,1114122,2.4981067,2.8570302,-6.245267,39.0,0,0,0,0,1
257639019,257639004,1114122,2.9575286,2.9072795,-6.597012,39.0,0,0,0,0,1
257736653,257736638,1114122,2.8283162,2.8929224,-6.5611196,39.0,0,0,0,0,1
257839550,257839535,1114122,2.6775684,2.9503503,-6.6185474,39.125,0,0,0,0,1
257936633,257936618,1114122,2.8929224,2.9718857,-6.6113687,39.125,0,0,0,0,1
258034160,258034145,1114122,2.8354948,2.993421,-6.5754766,39.0,0,0,0,0,1
258141721,258141706,1114122,2.8570302,2.9718857,-6.6831536,39.0,0,0,0,0,1
258239231,258239216,1114122,2.871387,3.0508487,-6.754938,39.0,0,0,0,0,1
258339352,258339334,1114122,2.8785655,2.9431717,-6.474978,39.0,0,0,0,0,1
258434945,258434930,1114122,2.6344976,2.8354948,-6.474978,39.125,0,0,0,0,1
258539419,258539401,1114122,2.792424,2.9072795,-6.5324054,39.125,0,0,0,0,1
258636969,258636954,1114122,2.6057837,2.9862425,-6.2811594,39.125,0,0,0,0,1
258736988,258736973,1114122,2.8139594,3.101098,-6.5898333,39.125,0,0,0,0,1
258837098,258837073,1114122,2.9216363,2.9359932,-7.013363,38.875,0,0,0,0,1
258937850,258937835,1114122,2.7421746,2.9647071,-6.352944,39.0,0,0,0,0,1
259040754,259040735,1114122,2.6344976,3.0508487,-6.553941,39.0,0,0,0,0,1
259137211,259137196,1114122,2.6129622,2.8498516,-6.3457656,39.0,0,0,0,0,1
259238151,259238135,1114122,2.7062824,3.101098,-6.5754766,39.125,0,0,0,0,1
259337900,259337885,1114122,2.871387,2.8785655,-6.4821563,39.125,0,0,0,0,1
259438700,259438685,1114122,2.6919253,2.9359932,-6.6041903,39.0,0,0,0,0,1
259537466,259537448,1114122,2.6919253,2.8570302,-6.7621164,39.125,0,0,0,0,1
259639947,259639932,1114122,2.6416762,2.8283162,-6.410372,39.125,0,0,0,0,1
259740046,259740031,1114122,2.6201408,2.8354948,-6.740581,39.0,0,0,0,0,1
259837563,259837543,1114122,2.7565317,3.0005994,-6.525227,39.0,0,0,0,0,1
259940605,259940590,1114122,2.6488545,2.7565317,-6.675975,39.0,0,0,0,0,1
260037693,260037678,1114122,2.6991038,2.6919253,-6.5036917,39.0,0,0,0,0,1
260140246,260140231,1114122,2.8354948,3.022135,-6.647261,39.125,0,0,0,0,1
260237803,260237788,1114122,2.57707,3.1513474,-6.6041903,39.0,0,0,0,0,1
260338550,260338535,1114122,3.007778,3.0436704,-6.740581,39.0,0,0,0,0,1
260440410,260440395,1114122,2.627319,2.7493532,-6.539584,39.0,0,0,0,0,1
260538085,260538070,1114122,2.6344976,3.0293133,-6.582655,39.125,0,0,0,0,1
260637994,260637979,1114122,2.5124638,2.979064,-6.553941,39.125,0,0,0,0,1
260738008,260737993,1114122,2.8354948,3.1082766,-6.4247284,38.875,0,0,0,0,1
260840605,260840590,1114122,2.8354948,2.7996025,-6.661618,39.0,0,0,0,0,1
260938160,260938145,1114122,2.7421746,2.9647071,-6.3744793,39.125,0,0,0,0,1
261040672,261040657,1114122,2.656033,3.022135,-6.431907,39.125,0,0,0,0,1
261140751,261140736,1114122,2.76371,2.871387,-6.539584,39.125,0,0,0,0,1
261237355,261237340,1114122,2.7206392,2.8354948,-6.6041903,39.125,0,0,0,0,1
261337100,261337085,1114122,2.778067,3.0795627,-6.525227,39.125,0,0,0,0,1
261438955,261438940,1114122,2.8067808,3.1226335,-6.3457656,39.125,0,0,0,0,1
261539753,261539738,1114122,2.8929224,2.9718857,-6.5036917,39.0,0,0,0,0,1
261633515,261633500,1114122,2.67039,3.2590244,-6.001199,39.0,0,0,0,0,1
261738579,261738564,1114122,2.9862425,3.0436704,-5.4125648,38.875,0,0,0,0,1
261836903,261836888,1114122,2.519642,3.2590244,-6.3744793,39.0,0,0,0,0,1
261936163,261936148,1114122,3.0939195,3.0364919,-6.3888364,39.0,0,0,0,0,1
262041231,262041211,1114122,3.2590244,2.562713,-6.1304116,39.125,0,0,0,0,1
262137199,262137184,1114122,3.4025936,2.8642087,-5.6135616,39.0,0,0,0,0,1
262240103,262240085,1114122,3.897908,2.9503503,-7.6522465,39.125,0,0,0,0,1
262333885,262333865,1114122,4.960321,3.9840496,-3.3882368,39.125,0,0,0,0,1
262438927,262438912,1114122,3.1944182,1.6438692,-9.267402,39.125,0,0,0,0,1
262541488,262541473,1114122,6.5036917,3.2446673,-7.7312098,39.0,0,0,0,0,1
262638056,262638035,1114122,5.7786665,3.869194,-7.12104,39.0,0,0,0,0,1
262736550,262736535,1114122,9.576076,2.979064,-6.1160545,39.125,0,0,0,0,1
262839139,262839117,1114122,6.1591253,3.1226335,-8.377272,39.125,0,0,0,0,1
262939137,262939122,1114122,6.467799,4.572684,-7.6594253,39.0,0,0,0,0,1
263036728,263036713,1114122,7.523034,2.8642087,-12.418749,39.125,0,0,0,0,1
263137858,263137843,1114122,7.9896345,1.1988041,-6.022734,39.125,0,0,0,0,1
263240753,263240738,1114122,9.174082,1.9166509,-5.2905307,39.0,0,0,0,0,1
263339468,263339453,1114122,9.253045,-2.684747,-1.6941184,39.0,0,0,0,0,1
263438150,263438135,1114122,9.037691,-5.915057,-12.023933,39.125,0,0,0,0,1
263539460,263539445,1114122,10.889735,1.1772687,3.180061,39.125,0,0,0,0,1
263639523,263639508,1114122,8.743374,-11.155339,-15.017354,39.125,0,0,0,0,1
263739627,263739612,1114122,9.303294,0.98345006,7.357929,39.0,0,0,0,0,1
263834640,263834624,1114122,24.859034,-3.8045878,-10.939984,39.0,0,0,0,0,1
263940050,263940035,1114122,4.7162533,-2.627319,-21.075981,39.125,0,0,0,0,1
264039812,264039797,1114122,9.956534,1.7443676,-4.1060834,39.125,0,0,0,0,1
264137260,264137245,1114122,10.509276,4.249653,-13.373486,39.125,0,0,0,0,1
264240350,264240335,1114122,11.370693,1.3854443,-11.370693,39.125,0,0,0,0,1
264339857,264339842,1114122,11.277372,4.141976,-11.219945,39.25,0,0,0,0,1
264439950,264439935,1114122,11.75833,3.3595228,-11.29173,39.25,0,0,0,0,1
264534986,264534971,1114122,11.5932255,5.362315,-5.6207404,39.125,0,0,0,0,1
264640024,264640008,1114122,10.358529,2.3114667,-3.668197,39.125,0,0,0,0,1
264740153,264740138,1114122,10.760523,2.7278178,-5.0105705,39.125,0,0,0,0,1
264837633,264837618,1114122,10.013963,2.734996,-3.1872396,39.125,0,0,0,0,1
264935463,264935448,1114122,9.805787,4.9531426,-4.63729,39.125,0,0,0,0,1
265040217,265040202,1114122,9.970892,3.4959137,0.94037926,39.25,0,0,0,0,1
265142808,265142793,1114122,9.174082,4.156333,-6.015556,39.25,0,0,0,0,1
265240359,265240344,1114122,8.441878,4.5224347,-9.209974,39.125,0,0,0,0,1
265340427,265340412,1114122,7.9393854,5.6135616,-14.421541,39.125,0,0,0,0,1
265438411,265438396,1114122,7.781459,6.259624,-12.46182,39.125,0,0,0,0,1
265541304,265541285,1114122,7.1066833,6.087341,-14.995819,39.125,0,0,0,0,1
265635542,265635527,1114122,7.2071815,4.5008993,-18.520447,39.125,0,0,0,0,1
265743110,265743095,1114122,5.800202,3.761517,-9.260223,39.125,0,0,0,0,1
265843709,265843685,1114122,5.649454,2.182254,-4.9674997,39.125,0,0,0,0,1
265938231,265938216,1114122,4.9459643,5.1613183,-2.239682,39.25,0,0,0,0,1
266035856,266035841,1114122,5.0751767,4.4506497,-0.7609176,39.25,0,0,0,0,1
266138342,266138327,1114122,4.54397,4.3788652,-5.197211,39.125,0,0,0,0,1
266244803,266244788,1114122,5.3982077,5.879165,-7.910671,39.125,0,0,0,0,1
266335890,266335875,1114122,4.9962134,5.9509497,-10.265209,39.375,0,0,0,0,1
266439050,266439035,1114122,4.364508,3.7399817,-1.6366906,39.125,0,0,0,0,1
266543531,266543516,1114122,4.6731825,2.928815,-0.65324056,39.25,0,0,0,0,1
266637510,266637495,1114122,4.4506497,3.682554,-3.56052,39.125,0,0,0,0,1
266735150,266735135,1114122,4.3501515,4.4721856,-1.7228322,39.125,0,0,0,0,1
266838659,266838644,1114122,4.910072,4.744967,-9.891929,39.125,0,0,0,0,1
266943705,266943690,1114122,4.3788652,4.54397,-7.465606,39.25,0,0,0,0,1
267036256,267036241,1114122,3.926622,3.3523445,-4.5008993,39.125,0,0,0,0,1
267139413,267139398,1114122,4.1635113,4.041477,-9.339187,39.125,0,0,0,0,1
267241402,267241386,1114122,4.3214374,3.574877,-8.930014,39.25,0,0,0,0,1
267337855,267337840,1114122,5.089534,4.364508,-5.893522,39.25,0,0,0,0,1
267438983,267438968,1114122,4.701896,5.304888,-8.664411,39.25,0,0,0,0,1
