timestamp,timestamp_sample,gps_hvel[0],gps_hvel[1],gps_vvel,gps_hpos[0],gps_hpos[1],gps_vpos,ev_hvel[0],ev_hvel[1],ev_vvel,ev_hpos[0],ev_hpos[1],ev_vpos,rng_vpos,baro_vpos,aux_hvel[0],aux_hvel[1],aux_vvel,flow[0],flow[1],heading,mag_field[0],mag_field[1],mag_field[2],drag[0],drag[1],airspeed,beta,hagl
186840050,186838176,0.0,0.0,0.0,0.0024259607,-0.0017883326,0.0,0.0,0.0,0.0,0.0,0.0,0.0,0.0,-0.0,0.0,0.0,nan,0.0,0.0,0.0015827268,0.0,0.0,0.0,0.0,0.0,0.0,0.0,0.0
186850588,186848181,0.0,0.0,0.0,0.0024259607,-0.0017883326,0.0,0.0,0.0,0.0,0.0,0.0,0.0,0.0,-0.0,0.0,0.0,nan,0.0,0.0,-0.0036705881,0.0,0.0,0.0,0.0,0.0,0.0,0.0,0.0
187340257,187338413,0.0,0.0,0.0,0.0018329073,-0.0035243775,0.0,0.0,0.0,0.0,0.0,0.0,0.0,0.0,-0.0,0.0,0.0,nan,0.0,0.0,-0.0041376054,0.0,0.0,0.0,0.0,0.0,0.0,0.0,0.0
187840348,187838647,0.0,0.0,0.0,0.0017420196,-0.005904312,0.0,0.0,0.0,0.0,0.0,0.0,0.0,0.0,-0.0,0.0,0.0,nan,0.0,0.0,-0.0030411333,0.0,0.0,0.0,0.0,0.0,0.0,0.0,0.0
188351279,188348890,0.0,0.0,0.0,0.0014518428,-0.006791668,0.0,0.0,0.0,0.0,0.0,0.0,0.0,0.0,0.12940884,0.0,0.0,nan,0.0,0.0,-0.0053167343,0.0,0.0,0.0,0.0,0.0,0.0,0.0,0.0
188851071,188849128,0.0,0.0,0.0,0.0007453976,-0.0072846226,0.0,0.0,0.0,0.0,0.0,0.0,0.0,0.0,-0.0,0.0,0.0,nan,0.0,0.0,-0.0035115182,0.0,0.0,0.0,0.0,0.0,0.0,0.0,0.0
189341249,189339361,0.0,0.0,0.0,-0.00071916333,-0.006782193,0.0,0.0,0.0,0.0,0.0,0.0,0.0,0.0,-0.0,0.0,0.0,nan,0.0,0.0,0.00018625706,0.0,0.0,0.0,0.0,0.0,0.0,0.0,0.0
189841301,189839599,0.0,0.0,0.0,-0.0014393798,-0.0057253023,0.0,0.0,0.0,0.0,0.0,0.0,0.0,0.0,0.046875,0.0,0.0,nan,0.0,0.0,0.0005203858,0.0,0.0,0.0,0.0,0.0,0.0,0.0,0.0
190342098,190339837,0.0,0.0,0.0,-0.0033582067,-0.0049354723,0.0,0.0,0.0,0.0,0.0,0.0,0.0,0.0,-0.0,0.0,0.0,nan,0.0,0.0,-0.005278446,0.0,0.0,0.0,0.0,0.0,0.0,0.0,0.0
190842221,190840115,0.0,0.0,0.0,4.019794e-05,-0.0026151885,0.0,0.0,0.0,0.0,0.0,0.0,0.0,0.0,-0.0,0.0,0.0,nan,0.0,0.0,-0.003363505,0.0,0.0,0.0,0.0,0.0,0.0,0.0,0.0
191342367,191340314,0.0,0.0,0.0,-0.0022143002,-0.0013545597,0.0,0.0,0.0,0.0,0.0,0.0,0.0,0.0,-0.0,0.0,0.0,nan,0.0,0.0,0.0006695837,0.0,0.0,0.0,0.0,0.0,0.0,0.0,0.0
191842600,191840552,0.0,0.0,0.0,-0.006355185,0.00021107722,0.0,0.0,0.0,0.0,0.0,0.0,0.0,0.0,-0.0,0.0,0.0,nan,0.0,0.0,-0.00072433054,0.0,0.0,0.0,0.0,0.0,0.0,0.0,0.0
192342491,192340790,0.0,0.0,0.0,-0.0070614233,0.00060837186,0.0,0.0,0.0,0.0,0.0,0.0,0.0,0.0,0.03865528,0.0,0.0,nan,0.0,0.0,-0.0033837408,0.0,0.0,0.0,0.0,0.0,0.0,0.0,0.0
192842675,192841028,0.0,0.0,0.0,-0.0070124255,0.0032810129,0.0,0.0,0.0,0.0,0.0,0.0,0.0,0.0,0.0137043,0.0,0.0,nan,0.0,0.0,-0.0009994879,0.0,0.0,0.0,0.0,0.0,0.0,0.0,0.0
193343157,193341270,0.0,0.0,0.0,-0.008969539,0.0020878715,0.0,0.0,0.0,0.0,0.0,0.0,0.0,0.0,-0.0,0.0,0.0,nan,0.0,0.0,0.0017812699,0.0,0.0,0.0,0.0,0.0,0.0,0.0,0.0
193843442,193841505,0.0,0.0,0.0,-0.009228655,0.003226361,0.0,0.0,0.0,0.0,0.0,0.0,0.0,0.0,-0.0,0.0,0.0,nan,0.0,0.0,-0.0013326555,0.0,0.0,0.0,0.0,0.0,0.0,0.0,0.0
194343619,194341752,0.0,0.0,0.0,-0.006202962,0.0035666453,0.0,0.0,0.0,0.0,0.0,0.0,0.0,0.0,-0.0,0.0,0.0,nan,0.0,0.0,0.0023498237,0.0,0.0,0.0,0.0,0.0,0.0,0.0,0.0
194843900,194841982,0.0,0.0,0.0,-0.0050053922,0.0033059937,0.0,0.0,0.0,0.0,0.0,0.0,0.0,0.0,0.011217117,0.0,0.0,nan,0.0,0.0,3.85046e-05,0.0,0.0,0.0,0.0,0.0,0.0,0.0,0.0
195343978,195342220,0.0,0.0,0.0,-0.0034674397,0.0027648588,0.0,0.0,0.0,0.0,0.0,0.0,0.0,0.0,-0.0,0.0,0.0,nan,0.0,0.0,0.005956456,0.0,0.0,0.0,0.0,0.0,0.0,0.0,0.0
195844185,195842459,0.0,0.0,0.0,-0.0051704966,0.0022294654,0.0,0.0,0.0,0.0,0.0,0.0,0.0,0.0,-0.0,0.0,0.0,nan,0.0,0.0,0.00041605532,0.0,0.0,0.0,0.0,0.0,0.0,0.0,0.0
196344410,196342705,0.0,0.0,0.0,-0.0076673143,0.0023466505,0.0,0.0,0.0,0.0,0.0,0.0,0.0,0.0,-0.0,0.0,0.0,nan,0.0,0.0,0.003836073,0.0,0.0,0.0,0.0,0.0,0.0,0.0,0.0
196845261,196842961,0.0,0.0,0.0,-0.0061363233,0.003295675,0.0,0.0,0.0,0.0,0.0,0.0,0.0,0.0,0.07302475,0.0,0.0,nan,0.0,0.0,5.9887767e-05,0.0,0.0,0.0,0.0,0.0,0.0,0.0,0.0
197345202,197343176,0.0,0.0,0.0,-0.005105645,0.0043090694,0.0,0.0,0.0,0.0,0.0,0.0,0.0,0.0,-0.0,0.0,0.0,nan,0.0,0.0,0.002527304,0.0,0.0,0.0,0.0,0.0,0.0,0.0,0.0
197845153,197843418,0.0,0.0,0.0,-0.0047516245,0.005435016,0.0,0.0,0.0,0.0,0.0,0.0,0.0,0.0,0.27935886,0.0,0.0,nan,0.0,0.0,0.00046610832,0.0,0.0,0.0,0.0,0.0,0.0,0.0,0.0
198345687,198343657,0.0,0.0,0.0,-0.0049213623,0.0061818142,0.0,0.0,0.0,0.0,0.0,0.0,0.0,0.0,-0.0,0.0,0.0,nan,0.0,0.0,-0.000699684,0.0,0.0,0.0,0.0,0.0,0.0,0.0,0.0
198845853,198843893,0.0,0.0,0.0,-0.0018304416,0.007395818,0.0,0.0,0.0,0.0,0.0,0.0,0.0,0.0,0.13124466,0.0,0.0,nan,0.0,0.0,0.0024610534,0.0,0.0,0.0,0.0,0.0,0.0,0.0,0.0
199346095,199344134,0.0,0.0,0.0,-0.0019341502,0.007407021,0.0,0.0,0.0,0.0,0.0,0.0,0.0,0.0,-0.0,0.0,0.0,nan,0.0,0.0,0.0063576847,0.0,0.0,0.0,0.0,0.0,0.0,0.0,0.0
199846406,199844378,0.0,0.0,0.0,-0.0008372412,0.007066019,0.0,0.0,0.0,0.0,0.0,0.0,0.0,0.0,0.21914482,0.0,0.0,nan,0.0,0.0,-0.003920354,0.0,0.0,0.0,0.0,0.0,0.0,0.0,0.0
200346609,200344612,0.0,0.0,0.0,0.0003664486,0.00762262,0.0,0.0,0.0,0.0,0.0,0.0,0.0,0.0,0.034841537,0.0,0.0,nan,0.0,0.0,0.0063618496,0.0,0.0,0.0,0.0,0.0,0.0,0.0,0.0
200846857,200844854,0.0,0.0,0.0,0.0011363975,0.0073309727,0.0,0.0,0.0,0.0,0.0,0.0,0.0,0.0,0.2663412,0.0,0.0,nan,0.0,0.0,-0.0016968399,0.0,0.0,0.0,0.0,0.0,0.0,0.0,0.0
201346768,201345103,0.0,0.0,0.0,0.0029946805,0.0073217964,0.0,0.0,0.0,0.0,0.0,0.0,0.0,0.0,0.14563942,0.0,0.0,nan,0.0,0.0,-0.00014796853,0.0,0.0,0.0,0.0,0.0,0.0,0.0,0.0
201847188,201845339,0.0,0.0,0.0,0.00036795158,0.0068979724,0.0,0.0,0.0,0.0,0.0,0.0,0.0,0.0,-0.0,0.0,0.0,nan,0.0,0.0,-0.0001777634,0.0,0.0,0.0,0.0,0.0,0.0,0.0,0.0
202347581,202345572,0.0,0.0,0.0,0.0052317725,0.007511813,0.0,0.0,0.0,0.0,0.0,0.0,0.0,0.0,-0.0,0.0,0.0,nan,0.0,0.0,0.0016805381,0.0,0.0,0.0,0.0,0.0,0.0,0.0,0.0
202847718,202845812,0.0,0.0,0.0,0.00069923047,0.0073717223,0.0,0.0,0.0,0.0,0.0,0.0,0.0,0.0,-0.0,0.0,0.0,nan,0.0,0.0,1.9103289e-05,0.0,0.0,0.0,0.0,0.0,0.0,0.0,0.0
203348095,203346053,0.0,0.0,0.0,0.002802364,0.0071004075,0.0,0.0,0.0,0.0,0.0,0.0,0.0,0.0,-0.0,0.0,0.0,nan,0.0,0.0,0.0017668083,0.0,0.0,0.0,0.0,0.0,0.0,0.0,0.0
203848467,203846293,0.0,0.0,0.0,0.0036267312,0.0077830325,0.0,0.0,0.0,0.0,0.0,0.0,0.0,0.0,-0.0,0.0,0.0,nan,0.0,0.0,-0.0031388253,0.0,0.0,0.0,0.0,0.0,0.0,0.0,0.0
204348177,204346534,0.0,0.0,0.0,0.0040796692,0.00797672,0.0,0.0,0.0,0.0,0.0,0.0,0.0,0.0,-0.0,0.0,0.0,nan,0.0,0.0,0.0012148991,0.0,0.0,0.0,0.0,0.0,0.0,0.0,0.0
204848621,204846775,0.0,0.0,0.0,0.0032285897,0.007992172,0.0,0.0,0.0,0.0,0.0,0.0,0.0,0.0,-0.0,0.0,0.0,nan,0.0,0.0,0.0001687333,0.0,0.0,0.0,0.0,0.0,0.0,0.0,0.0
205348639,205347016,0.0,0.0,0.0,0.002897871,0.007993798,0.0,0.0,0.0,0.0,0.0,0.0,0.0,0.0,-0.0,0.0,0.0,nan,0.0,0.0,0.0013262406,0.0,0.0,0.0,0.0,0.0,0.0,0.0,0.0
205849186,205847257,0.0,0.0,0.0,0.0026046343,0.008771267,0.0,0.0,0.0,0.0,0.0,0.0,0.0,0.0,-0.0,0.0,0.0,nan,0.0,0.0,-2.9824674e-05,0.0,0.0,0.0,0.0,0.0,0.0,0.0,0.0
206349470,206347506,0.0,0.0,0.0,0.0007365242,0.002673538,0.0,0.0,0.0,0.0,0.0,0.0,0.0,0.0,-0.0,0.0,0.0,nan,0.0,0.0,0.003518343,0.0,0.0,0.0,0.0,0.0,0.0,0.0,0.0
206840036,206837735,0.0,0.0,0.0,0.00069673546,0.0035551987,0.0,0.0,0.0,0.0,0.0,0.0,0.0,0.0,-0.0,0.0,0.0,nan,0.0,0.0,0.0016798079,0.0,0.0,0.0,0.0,0.0,0.0,0.0,0.0
207339916,207338007,0.0,0.0,0.0,0.0007607434,0.0064371936,0.0,0.0,0.0,0.0,0.0,0.0,0.0,0.0,-0.0,0.0,0.0,nan,0.0,0.0,0.0041046366,0.0,0.0,0.0,0.0,0.0,0.0,0.0,0.0
207840262,207838223,0.0,0.0,0.0,0.00269946,0.011088822,0.0,0.0,0.0,0.0,0.0,0.0,0.0,0.0,-0.0,0.0,0.0,nan,0.0,0.0,0.0021423697,0.0,0.0,0.0,0.0,0.0,0.0,0.0,0.0
208340303,208338461,0.0,0.0,0.0,0.0050032577,0.012987224,0.0,0.0,0.0,0.0,0.0,0.0,0.0,0.0,-0.0,0.0,0.0,nan,0.0,0.0,-0.004979588,0.0,0.0,0.0,0.0,0.0,0.0,0.0,0.0
208840571,208838704,0.0,0.0,0.0,0.006005337,0.013209113,0.0,0.0,0.0,0.0,0.0,0.0,0.0,0.0,-0.0,0.0,0.0,nan,0.0,0.0,0.0012972057,0.0,0.0,0.0,0.0,0.0,0.0,0.0,0.0
209351058,209348950,0.0,0.0,0.0,0.007934937,0.012140454,0.0,0.0,0.0,0.0,0.0,0.0,0.0,0.0,-0.0,0.0,0.0,nan,0.0,0.0,0.0070547163,0.0,0.0,0.0,0.0,0.0,0.0,0.0,0.0
209851311,209849193,0.0,0.0,0.0,0.011848227,0.0101854615,0.0,0.0,0.0,0.0,0.0,0.0,0.0,0.0,-0.0,0.0,0.0,nan,0.0,0.0,0.0012243316,0.0,0.0,0.0,0.0,0.0,0.0,0.0,0.0
210341085,210339431,0.0,0.0,0.0,0.01171275,0.008253616,0.0,0.0,0.0,0.0,0.0,0.0,0.0,0.0,-0.0,0.0,0.0,nan,0.0,0.0,0.002880782,0.0,0.0,0.0,0.0,0.0,0.0,0.0,0.0
210841884,210839673,0.0,0.0,0.0,0.009816432,0.0057567614,0.0,0.0,0.0,0.0,0.0,0.0,0.0,0.0,-0.0,0.0,0.0,nan,0.0,0.0,0.0011504889,0.0,0.0,0.0,0.0,0.0,0.0,0.0,0.0
211342056,211339917,0.0,0.0,0.0,0.011033325,0.0034707156,0.0,0.0,0.0,0.0,0.0,0.0,0.0,0.0,-0.0,0.0,0.0,nan,0.0,0.0,0.005807668,0.0,0.0,0.0,0.0,0.0,0.0,0.0,0.0
211841973,211840160,0.0,0.0,0.0,0.009809248,0.00091064686,0.0,0.0,0.0,0.0,0.0,0.0,0.0,0.0,-0.0,0.0,0.0,nan,0.0,0.0,0.0033183247,0.0,0.0,0.0,0.0,0.0,0.0,0.0,0.0
212342618,212340403,0.0,0.0,0.0,0.008934524,0.00014118663,0.0,0.0,0.0,0.0,0.0,0.0,0.0,0.0,-0.0,0.0,0.0,nan,0.0,0.0,-0.004737124,0.0,0.0,0.0,0.0,0.0,0.0,0.0,0.0
212842331,212840647,0.0,0.0,0.0,0.003628208,-0.0006381136,0.0,0.0,0.0,0.0,0.0,0.0,0.0,0.0,-0.0,0.0,0.0,nan,0.0,0.0,0.0044393092,0.0,0.0,0.0,0.0,0.0,0.0,0.0,0.0
213342982,213340890,0.0,0.0,0.0,0.0051870206,-0.00090885337,0.0,0.0,0.0,0.0,0.0,0.0,0.0,0.0,-0.0,0.0,0.0,nan,0.0,0.0,0.0004994869,0.0,0.0,0.0,0.0,0.0,0.0,0.0,0.0
213842858,213841134,0.0,0.0,0.0,0.0069899047,-0.001206127,0.0,0.0,0.0,0.0,0.0,0.0,0.0,0.0,-0.0,0.0,0.0,nan,0.0,0.0,0.0061870143,0.0,0.0,0.0,0.0,0.0,0.0,0.0,0.0
214343333,214341386,0.0,0.0,0.0,0.008164373,-0.0014209141,0.0,0.0,0.0,0.0,0.0,0.0,0.0,0.0,-0.0,0.0,0.0,nan,0.0,0.0,-0.0021857843,0.0,0.0,0.0,0.0,0.0,0.0,0.0,0.0
214843786,214841622,0.0,0.0,0.0,0.014450463,-8.6181826e-05,0.0,0.0,0.0,0.0,0.0,0.0,0.0,0.0,-0.0,0.0,0.0,nan,0.0,0.0,0.0045088753,0.0,0.0,0.0,0.0,0.0,0.0,0.0,0.0
215343746,215341861,0.0,0.0,0.0,0.012003165,0.0023530468,0.0,0.0,0.0,0.0,0.0,0.0,0.0,0.0,-0.0,0.0,0.0,nan,0.0,0.0,0.0013930574,0.0,0.0,0.0,0.0,0.0,0.0,0.0,0.0
215843790,215842115,0.0,0.0,0.0,0.0069528013,0.0065230485,0.0,0.0,0.0,0.0,0.0,0.0,0.0,0.0,-0.0,0.0,0.0,nan,0.0,0.0,0.001333937,0.0,0.0,0.0,0.0,0.0,0.0,0.0,0.0
216344451,216342360,0.0,0.0,0.0,0.007119762,0.010028634,0.0,0.0,0.0,0.0,0.0,0.0,0.0,0.0,-0.0,0.0,0.0,nan,0.0,0.0,0.0034678653,0.0,0.0,0.0,0.0,0.0,0.0,0.0,0.0
216844200,216842599,0.0,0.0,0.0,0.009126572,0.014096949,0.0,0.0,0.0,0.0,0.0,0.0,0.0,0.0,-0.0,0.0,0.0,nan,0.0,0.0,-0.002840586,0.0,0.0,0.0,0.0,0.0,0.0,0.0,0.0
217344738,217342843,0.0,0.0,0.0,0.010191891,0.015780747,0.0,0.0,0.0,0.0,0.0,0.0,0.0,0.0,-0.0,0.0,0.0,nan,0.0,0.0,0.0009302646,0.0,0.0,0.0,0.0,0.0,0.0,0.0,0.0
217844958,217843088,0.0,0.0,0.0,0.0093862275,0.018896962,0.0,0.0,0.0,0.0,0.0,0.0,0.0,0.0,-0.0,0.0,0.0,nan,0.0,0.0,0.002802804,0.0,0.0,0.0,0.0,0.0,0.0,0.0,0.0
218345235,218343332,0.0,0.0,0.0,0.010184046,0.019949222,0.0,0.0,0.0,0.0,0.0,0.0,0.0,0.0,-0.0,0.0,0.0,nan,0.0,0.0,0.0001244098,0.0,0.0,0.0,0.0,0.0,0.0,0.0,0.0
218845730,218843607,0.0,0.0,0.0,0.011253532,0.020395888,0.0,0.0,0.0,0.0,0.0,0.0,0.0,0.0,-0.0,0.0,0.0,nan,0.0,0.0,-0.0008973405,0.0,0.0,0.0,0.0,0.0,0.0,0.0,0.0
219345612,219343821,0.0,0.0,0.0,0.011613622,0.020138629,0.0,0.0,0.0,0.0,0.0,0.0,0.0,0.0,-0.0,0.0,0.0,nan,0.0,0.0,0.0046532825,0.0,0.0,0.0,0.0,0.0,0.0,0.0,0.0
219845949,219844072,0.0,0.0,0.0,0.01558539,0.019595023,0.0,0.0,0.0,0.0,0.0,0.0,0.0,0.0,-0.0,0.0,0.0,nan,0.0,0.0,-0.0033897907,0.0,0.0,0.0,0.0,0.0,0.0,0.0,0.0
220346321,220344311,0.0,0.0,0.0,0.017102195,0.01928328,0.0,0.0,0.0,0.0,0.0,0.0,0.0,0.0,-0.0,0.0,0.0,nan,0.0,0.0,-0.0011802316,0.0,0.0,0.0,0.0,0.0,0.0,0.0,0.0
220846224,220844557,0.0,0.0,0.0,0.018303271,0.017483057,0.0,0.0,0.0,0.0,0.0,0.0,0.0,0.0,-0.0,0.0,0.0,nan,0.0,0.0,0.00010769069,0.0,0.0,0.0,0.0,0.0,0.0,0.0,0.0
221346873,221344802,0.0,0.0,0.0,0.01595205,0.01662335,0.0,0.0,0.0,0.0,0.0,0.0,0.0,0.0,-0.0,0.0,0.0,nan,0.0,0.0,-0.0041203946,0.0,0.0,0.0,0.0,0.0,0.0,0.0,0.0
221847036,221845048,0.0,0.0,0.0,0.013669158,0.016464107,0.0,0.0,0.0,0.0,0.0,0.0,0.0,0.0,-0.0,0.0,0.0,nan,0.0,0.0,-0.0030987114,0.0,0.0,0.0,0.0,0.0,0.0,0.0,0.0
222347347,222345300,0.0,0.0,0.0,0.014475189,0.016497718,0.0,0.0,0.0,0.0,0.0,0.0,0.0,0.0,-0.0,0.0,0.0,nan,0.0,0.0,-0.0024098605,0.0,0.0,0.0,0.0,0.0,0.0,0.0,0.0
222847569,222845539,0.0,0.0,0.0,0.015032877,0.016409779,0.0,0.0,0.0,0.0,0.0,0.0,0.0,0.0,-0.0,0.0,0.0,nan,0.0,0.0,-0.0012413114,0.0,0.0,0.0,0.0,0.0,0.0,0.0,0.0
223347500,223345785,0.0,0.0,0.0,0.014304137,0.016054384,0.0,0.0,0.0,0.0,0.0,0.0,0.0,0.0,-0.0,0.0,0.0,nan,0.0,0.0,0.004252836,0.0,0.0,0.0,0.0,0.0,0.0,0.0,0.0
223847963,223846032,0.0,0.0,0.0,0.016694916,0.015217345,0.0,0.0,0.0,0.0,0.0,0.0,0.0,0.0,-0.0,0.0,0.0,nan,0.0,0.0,0.003672883,0.0,0.0,0.0,0.0,0.0,0.0,0.0,0.0
224348288,224346278,0.0,0.0,0.0,0.017008794,0.014358722,0.0,0.0,0.0,0.0,0.0,0.0,0.0,0.0,-0.0,0.0,0.0,nan,0.0,0.0,0.0013170913,0.0,0.0,0.0,0.0,0.0,0.0,0.0,0.0
224848648,224846525,0.0,0.0,0.0,0.013531165,0.013480403,0.0,0.0,0.0,0.0,0.0,0.0,0.0,0.0,-0.0,0.0,0.0,nan,0.0,0.0,0.00013122708,0.0,0.0,0.0,0.0,0.0,0.0,0.0,0.0
225348445,225346771,0.0,0.0,0.0,0.010072454,0.012740614,0.0,0.0,0.0,0.0,0.0,0.0,0.0,0.0,-0.0,0.0,0.0,nan,0.0,0.0,0.009689987,0.0,0.0,0.0,0.0,0.0,0.0,0.0,0.0
225848906,225847018,0.0,0.0,0.0,0.021823669,0.01541713,0.0,0.0,0.0,0.0,0.0,0.0,0.0,0.0,-0.0,0.0,0.0,nan,0.0,0.0,0.0066361576,0.0,0.0,0.0,0.0,0.0,0.0,0.0,0.0
226349225,226347265,0.0,0.0,0.0,0.027661948,0.01604821,0.0,0.0,0.0,0.0,0.0,0.0,0.0,0.0,-0.0,0.0,0.0,nan,0.0,0.0,0.005812496,0.0,0.0,0.0,0.0,0.0,0.0,0.0,0.0
226849426,226847512,0.0,0.0,0.0,0.03358643,0.016639784,0.0,0.0,0.0,0.0,0.0,0.0,0.0,0.0,-0.0,0.0,0.0,nan,0.0,0.0,0.0031556413,0.0,0.0,0.0,0.0,0.0,0.0,0.0,0.0
227349717,227347759,0.0,0.0,0.0,0.036985166,0.017055752,0.0,0.0,0.0,0.0,0.0,0.0,0.0,0.0,-0.0,0.0,0.0,nan,0.0,0.0,0.0044891387,0.0,0.0,0.0,0.0,0.0,0.0,0.0,0.0
227840173,227838002,0.0,0.0,0.0,0.040844746,0.017617673,0.0,0.0,0.0,0.0,0.0,0.0,0.0,0.0,-0.0,0.0,0.0,nan,0.0,0.0,0.003157325,0.0,0.0,0.0,0.0,0.0,0.0,0.0,0.0
228340050,228338272,0.0,0.0,0.0,0.041245315,0.018093217,0.0,0.0,0.0,0.0,0.0,0.0,0.0,0.0,-0.0,0.0,0.0,nan,0.0,0.0,0.0060958564,0.0,0.0,0.0,0.0,0.0,0.0,0.0,0.0
228840610,228838498,0.0,0.0,0.0,0.04023035,0.01793852,0.0,0.0,0.0,0.0,0.0,0.0,0.0,0.0,-0.0,0.0,0.0,nan,0.0,0.0,0.003289409,0.0,0.0,0.0,0.0,0.0,0.0,0.0,0.0
229340911,229338745,0.0,0.0,0.0,0.039147258,0.018052172,0.0,0.0,0.0,0.0,0.0,0.0,0.0,0.0,-0.0,0.0,0.0,nan,0.0,0.0,-0.0029048473,0.0,0.0,0.0,0.0,0.0,0.0,0.0,0.0
229841354,229838993,0.0,0.0,0.0,0.044884637,0.018624175,0.0,0.0,0.0,0.0,0.0,0.0,0.0,0.0,-0.3488121,0.0,0.0,nan,0.0,0.0,0.003040418,0.0,0.0,0.0,0.0,0.0,0.0,0.0,0.0
230341037,230339242,0.0,0.0,0.0,0.039187692,0.017232165,0.0,0.0,0.0,0.0,0.0,0.0,0.0,0.0,-0.655962,0.0,0.0,nan,0.0,0.0,-0.0063824207,0.0,0.0,0.0,0.0,0.0,0.0,0.0,0.0
230851116,230849496,0.0,0.0,0.0,0.03191278,0.014383967,0.0,0.0,0.0,0.0,0.0,0.0,0.0,0.0,-0.3140583,0.0,0.0,nan,0.0,0.0,-0.0017315,0.0,0.0,0.0,0.0,0.0,0.0,0.0,0.0
231341777,231339739,0.0,0.0,0.0,0.026608897,0.013647878,0.0,0.0,0.0,0.0,0.0,0.0,0.0,0.0,-0.47632027,0.0,0.0,nan,0.0,0.0,-0.0015703589,0.0,0.0,0.0,0.0,0.0,0.0,0.0,0.0
231842254,231839987,0.0,0.0,0.0,0.019475479,0.013760923,0.0,0.0,0.0,0.0,0.0,0.0,0.0,0.0,-0.4650154,0.0,0.0,nan,0.0,0.0,-0.00069675595,0.0,0.0,0.0,0.0,0.0,0.0,0.0,0.0
232342288,232340236,0.0,0.0,0.0,0.01722293,0.01449587,0.0,0.0,0.0,0.0,0.0,0.0,0.0,0.0,-0.47244072,0.0,0.0,nan,0.0,0.0,-0.0028378367,0.0,0.0,0.0,0.0,0.0,0.0,0.0,0.0
232842870,232840485,0.0,0.0,0.0,0.017601425,0.017182648,0.0,0.0,0.0,0.0,0.0,0.0,0.0,0.0,-0.34500885,0.0,0.0,nan,0.0,0.0,-0.0028386414,0.0,0.0,0.0,0.0,0.0,0.0,0.0,0.0
233342584,233340734,0.0,0.0,0.0,0.014751563,0.018822003,0.0,0.0,0.0,0.0,0.0,0.0,0.0,0.0,-0.33714104,0.0,0.0,nan,0.0,0.0,-0.002356276,0.0,0.0,0.0,0.0,0.0,0.0,0.0,0.0
233843106,233840983,0.0,0.0,0.0,0.013604768,0.020889618,0.0,0.0,0.0,0.0,0.0,0.0,0.0,0.0,-0.50349045,0.0,0.0,nan,0.0,0.0,-0.0049471855,0.0,0.0,0.0,0.0,0.0,0.0,0.0,0.0
234343253,234341234,0.0,0.0,0.0,0.014789585,0.022410307,0.0,0.0,0.0,0.0,0.0,0.0,0.0,0.0,-0.5090351,0.0,0.0,nan,0.0,0.0,0.00072119385,0.0,0.0,0.0,0.0,0.0,0.0,0.0,0.0
234843650,234841482,0.0,0.0,0.0,0.01551084,0.024470774,0.0,0.0,0.0,0.0,0.0,0.0,0.0,0.0,-0.7633133,0.0,0.0,nan,0.0,0.0,-0.0017867386,0.0,0.0,0.0,0.0,0.0,0.0,0.0,0.0
235343662,235341732,0.0,0.0,0.0,0.01282942,0.02572404,0.0,0.0,0.0,0.0,0.0,0.0,0.0,0.0,-0.38046074,0.0,0.0,nan,0.0,0.0,-0.0029588118,0.0,0.0,0.0,0.0,0.0,0.0,0.0,0.0
235844431,235841982,0.0,0.0,0.0,0.016217563,0.027792584,0.0,0.0,0.0,0.0,0.0,0.0,0.0,0.0,-0.5405712,0.0,0.0,nan,0.0,0.0,0.00027553737,0.0,0.0,0.0,0.0,0.0,0.0,0.0,0.0
236344128,236342231,0.0,0.0,0.0,0.014050309,0.02829119,0.0,0.0,0.0,0.0,0.0,0.0,0.0,0.0,-0.5589142,0.0,0.0,nan,0.0,0.0,-0.00015450269,0.0,0.0,0.0,0.0,0.0,0.0,0.0,0.0
236844542,236842478,0.0,0.0,0.0,0.011438818,0.02954081,0.0,0.0,0.0,0.0,0.0,0.0,0.0,0.0,-0.3189621,0.0,0.0,nan,0.0,0.0,-0.00027345866,0.0,0.0,0.0,0.0,0.0,0.0,0.0,0.0
237344431,237342736,0.0,0.0,0.0,0.009775147,0.030227363,0.0,0.0,0.0,0.0,0.0,0.0,0.0,0.0,-0.17865372,0.0,0.0,nan,0.0,0.0,3.33786e-06,0.0,0.0,0.0,0.0,0.0,0.0,0.0,0.0
237845560,237842982,0.0,0.0,0.0,0.0016784534,0.008803617,0.0,0.0,0.0,0.0,0.0,0.0,0.0,0.0,-0.2028904,0.0,0.0,nan,0.0,0.0,-0.0009303093,0.0,0.0,0.0,0.0,0.0,0.0,0.0,0.0
238344871,238343267,0.0,0.0,0.0,0.0009208739,0.008994704,0.0,0.0,0.0,0.0,0.0,0.0,0.0,0.0,-0.42136192,0.0,0.0,nan,0.0,0.0,0.0024672076,0.0,0.0,0.0,0.0,0.0,0.0,0.0,0.0
238845721,238843491,0.0,0.0,0.0,0.0011062665,0.011073034,0.0,0.0,0.0,0.0,0.0,0.0,0.0,0.0,-0.17817879,0.0,0.0,nan,0.0,0.0,0.0031976104,0.0,0.0,0.0,0.0,0.0,0.0,0.0,0.0
239345413,239343734,0.0,0.0,0.0,0.0011467374,0.011019528,0.0,0.0,0.0,0.0,0.0,0.0,0.0,0.0,-0.079214096,0.0,0.0,nan,0.0,0.0,0.00015470386,0.0,0.0,0.0,0.0,0.0,0.0,0.0,0.0
239846284,239843986,0.0,0.0,0.0,0.0013582007,0.009706264,0.0,0.0,0.0,0.0,0.0,0.0,0.0,0.0,-0.23412323,0.0,0.0,nan,0.0,0.0,0.0041068047,0.0,0.0,0.0,0.0,0.0,0.0,0.0,0.0
240346120,240344236,0.0,0.0,0.0,0.0014794801,0.008636179,0.0,0.0,0.0,0.0,0.0,0.0,0.0,0.0,-0.06479645,0.0,0.0,nan,0.0,0.0,-0.002418086,0.0,0.0,0.0,0.0,0.0,0.0,0.0,0.0
240846907,240844488,0.0,0.0,0.0,0.0024876702,0.0072571263,0.0,0.0,0.0,0.0,0.0,0.0,0.0,0.0,-0.0,0.0,0.0,nan,0.0,0.0,0.003874816,0.0,0.0,0.0,0.0,0.0,0.0,0.0,0.0
241346411,241344739,0.0,0.0,0.0,0.0027271644,0.006425979,0.0,0.0,0.0,0.0,0.0,0.0,0.0,0.0,-0.0,0.0,0.0,nan,0.0,0.0,0.004782364,0.0,0.0,0.0,0.0,0.0,0.0,0.0,0.0
241847359,241844991,0.0,0.0,0.0,0.0028544264,0.0056062415,0.0,0.0,0.0,0.0,0.0,0.0,0.0,0.0,-0.0,0.0,0.0,nan,0.0,0.0,0.00063282996,0.0,0.0,0.0,0.0,0.0,0.0,0.0,0.0
242347154,242345242,0.0,0.0,0.0,0.002927245,0.0052572917,0.0,0.0,0.0,0.0,0.0,0.0,0.0,0.0,-0.0,0.0,0.0,nan,0.0,0.0,0.0026988387,0.0,0.0,0.0,0.0,0.0,0.0,0.0,0.0
242848056,242845494,0.0,0.0,0.0,0.0035680016,0.0067870393,0.0,0.0,0.0,0.0,0.0,0.0,0.0,0.0,-0.0,0.0,0.0,nan,0.0,0.0,-6.2286854e-05,0.0,0.0,0.0,0.0,0.0,0.0,0.0,0.0
243347955,243345746,0.0,0.0,0.0,0.005816371,0.011336801,0.0,0.0,0.0,0.0,0.0,0.0,0.0,0.0,-0.0,0.0,0.0,nan,0.0,0.0,0.002426982,0.0,0.0,0.0,0.0,0.0,0.0,0.0,0.0
243848331,243846005,0.0,0.0,0.0,0.0071892105,0.018493362,0.0,0.0,0.0,0.0,0.0,0.0,0.0,0.0,-0.0,0.0,0.0,nan,0.0,0.0,0.0015651584,0.0,0.0,0.0,0.0,0.0,0.0,0.0,0.0
244348011,244346250,0.0,0.0,0.0,0.010373078,0.02244895,0.0,0.0,0.0,0.0,0.0,0.0,0.0,0.0,-0.0,0.0,0.0,nan,0.0,0.0,0.00013694167,0.0,0.0,0.0,0.0,0.0,0.0,0.0,0.0
244848969,244846503,0.0,0.0,0.0,0.0097778505,0.02566279,0.0,0.0,0.0,0.0,0.0,0.0,0.0,0.0,-0.0,0.0,0.0,nan,0.0,0.0,0.0040630177,0.0,0.0,0.0,0.0,0.0,0.0,0.0,0.0
245338711,245336750,0.0,0.0,0.0,0.009004711,0.025581647,0.0,0.0,0.0,0.0,0.0,0.0,0.0,0.0,-0.0,0.0,0.0,nan,0.0,0.0,0.004979402,0.0,0.0,0.0,0.0,0.0,0.0,0.0,0.0
245849242,245847008,0.0,0.0,0.0,0.007251718,0.023336459,0.0,0.0,0.0,0.0,0.0,0.0,0.0,0.0,-0.0,0.0,0.0,nan,0.0,0.0,0.001351811,0.0,0.0,0.0,0.0,0.0,0.0,0.0,0.0
246348988,246347260,0.0,0.0,0.0,0.0006378632,0.0042090476,0.0,0.0,0.0,0.0,0.0,0.0,0.0,0.0,-0.0,0.0,0.0,nan,0.0,0.0,0.0025685132,0.0,0.0,0.0,0.0,0.0,0.0,0.0,0.0
246849630,246847513,0.0,0.0,0.0,0.00021583057,0.0047913133,0.0,0.0,0.0,0.0,0.0,0.0,0.0,0.0,-0.0,0.0,0.0,nan,0.0,0.0,0.0037776008,0.0,0.0,0.0,0.0,0.0,0.0,0.0,0.0
247349706,247347766,0.0,0.0,0.0,-0.00027626855,0.0049834596,0.0,0.0,0.0,0.0,0.0,0.0,0.0,0.0,-0.0,0.0,0.0,nan,0.0,0.0,0.0015336499,0.0,0.0,0.0,0.0,0.0,0.0,0.0,0.0
247850317,247848019,0.0,0.0,0.0,-0.00017982122,0.0043453234,0.0,0.0,0.0,0.0,0.0,0.0,0.0,0.0,-0.0,0.0,0.0,nan,0.0,0.0,0.0035340264,0.0,0.0,0.0,0.0,0.0,0.0,0.0,0.0
248339959,248338268,0.0,0.0,0.0,-0.00021279993,0.004077176,0.0,0.0,0.0,0.0,0.0,0.0,0.0,0.0,-0.0,0.0,0.0,nan,0.0,0.0,-0.00037698448,0.0,0.0,0.0,0.0,0.0,0.0,0.0,0.0
248840472,248838521,0.0,0.0,0.0,3.5231067e-05,0.0035845616,0.0,0.0,0.0,0.0,0.0,0.0,0.0,0.0,-0.0,0.0,0.0,nan,0.0,0.0,0.0007005781,0.0,0.0,0.0,0.0,0.0,0.0,0.0,0.0
249340465,249338779,0.0,0.0,0.0,0.0007006706,0.002489112,0.0,0.0,0.0,0.0,0.0,0.0,0.0,0.0,-0.0,0.0,0.0,nan,0.0,0.0,0.0013097525,0.0,0.0,0.0,0.0,0.0,0.0,0.0,0.0
249840732,249839033,0.0,0.0,0.0,0.0013200913,0.0023733403,0.0,0.0,0.0,0.0,0.0,0.0,0.0,0.0,-0.0,0.0,0.0,nan,0.0,0.0,0.0034995526,0.0,0.0,0.0,0.0,0.0,0.0,0.0,0.0
250341617,250339281,0.0,0.0,0.0,0.002422876,0.0029555229,0.0,0.0,0.0,0.0,0.0,0.0,0.0,0.0,-0.0,0.0,0.0,nan,0.0,0.0,2.013892e-05,0.0,0.0,0.0,0.0,0.0,0.0,0.0,0.0
250841646,250839535,0.0,0.0,0.0,0.0030273576,0.0031563656,0.0,0.0,0.0,0.0,0.0,0.0,0.0,0.0,-0.0,0.0,0.0,nan,0.0,0.0,0.0025229529,0.0,0.0,0.0,0.0,0.0,0.0,0.0,0.0
251341539,251339822,0.0,0.0,0.0,0.0027119736,0.0033625348,0.0,0.0,0.0,0.0,0.0,0.0,0.0,0.0,-0.0,0.0,0.0,nan,0.0,0.0,0.0074197203,0.0,0.0,0.0,0.0,0.0,0.0,0.0,0.0
251841833,251840043,0.0,0.0,0.0,0.004468401,0.005237849,0.0,0.0,0.0,0.0,0.0,0.0,0.0,0.0,-0.0,0.0,0.0,nan,0.0,0.0,-0.0030643046,0.0,0.0,0.0,0.0,0.0,0.0,0.0,0.0
252342032,252340297,0.0,0.0,0.0,0.0069863303,0.00824088,0.0,0.0,0.0,0.0,0.0,0.0,0.0,0.0,-0.0,0.0,0.0,nan,0.0,0.0,-0.0058704764,0.0,0.0,0.0,0.0,0.0,0.0,0.0,0.0
252842636,252840551,0.0,0.0,0.0,0.008551751,0.010190931,0.0,0.0,0.0,0.0,0.0,0.0,0.0,0.0,-0.0,0.0,0.0,nan,0.0,0.0,-0.0004963204,0.0,0.0,0.0,0.0,0.0,0.0,0.0,0.0
253342483,253340805,0.0,0.0,0.0,0.010862768,0.012517623,0.0,0.0,0.0,0.0,0.0,0.0,0.0,0.0,-0.0,0.0,0.0,nan,0.0,0.0,-0.0058057904,0.0,0.0,0.0,0.0,0.0,0.0,0.0,0.0
253842802,253841059,0.0,0.0,0.0,0.011492348,0.013711449,0.0,0.0,0.0,0.0,0.0,0.0,0.0,0.0,-0.0,0.0,0.0,nan,0.0,0.0,-0.00035318732,0.0,0.0,0.0,0.0,0.0,0.0,0.0,0.0
254343182,254341314,0.0,0.0,0.0,0.01174121,0.014514788,0.0,0.0,0.0,0.0,0.0,0.0,0.0,0.0,-0.0,0.0,0.0,nan,0.0,0.0,-2.3290515e-05,0.0,0.0,0.0,0.0,0.0,0.0,0.0,0.0
254843530,254841569,0.0,0.0,0.0,0.011963178,0.014878976,0.0,0.0,0.0,0.0,0.0,0.0,0.0,0.0,-0.0,0.0,0.0,nan,0.0,0.0,-0.005109191,0.0,0.0,0.0,0.0,0.0,0.0,0.0,0.0
255343896,255341824,0.0,0.0,0.0,0.012922364,0.015390888,0.0,0.0,0.0,0.0,0.0,0.0,0.0,0.0,-0.0,0.0,0.0,nan,0.0,0.0,-0.0013537928,0.0,0.0,0.0,0.0,0.0,0.0,0.0,0.0
255843766,255842078,0.0,0.0,0.0,0.014160862,0.01611219,0.0,0.0,0.0,0.0,0.0,0.0,0.0,0.0,-0.0,0.0,0.0,nan,0.0,0.0,-0.00102029,0.0,0.0,0.0,0.0,0.0,0.0,0.0,0.0
256344160,256342333,0.0,0.0,0.0,0.015768962,0.017928712,0.0,0.0,0.0,0.0,0.0,0.0,0.0,0.0,-0.0,0.0,0.0,nan,0.0,0.0,0.00013168901,0.0,0.0,0.0,0.0,0.0,0.0,0.0,0.0
256844270,256842588,0.0,0.0,0.0,0.017109564,0.019311378,0.0,0.0,0.0,0.0,0.0,0.0,0.0,0.0,-0.0,0.0,0.0,nan,0.0,0.0,0.0011878237,0.0,0.0,0.0,0.0,0.0,0.0,0.0,0.0
257344915,257342847,0.0,0.0,0.0,0.019434089,0.021534327,0.0,0.0,0.0,0.0,0.0,0.0,0.0,0.0,-0.0,0.0,0.0,nan,0.0,0.0,0.002992496,0.0,0.0,0.0,0.0,0.0,0.0,0.0,0.0
257845204,257843099,0.0,0.0,0.0,0.020685738,0.02286163,0.0,0.0,0.0,0.0,0.0,0.0,0.0,0.0,-0.0,0.0,0.0,nan,0.0,0.0,0.0017080456,0.0,0.0,0.0,0.0,0.0,0.0,0.0,0.0
258345279,258343355,0.0,0.0,0.0,0.022572275,0.024793535,0.0,0.0,0.0,0.0,0.0,0.0,0.0,0.0,-0.0,0.0,0.0,nan,0.0,0.0,0.0039037392,0.0,0.0,0.0,0.0,0.0,0.0,0.0,0.0
258845361,258843619,0.0,0.0,0.0,0.02361378,0.025756508,0.0,0.0,0.0,0.0,0.0,0.0,0.0,0.0,-0.0,0.0,0.0,nan,0.0,0.0,0.0014239848,0.0,0.0,0.0,0.0,0.0,0.0,0.0,0.0
259345717,259343866,0.0,0.0,0.0,0.025508204,0.026561059,0.0,0.0,0.0,0.0,0.0,0.0,0.0,0.0,-0.0,0.0,0.0,nan,0.0,0.0,0.0026964545,0.0,0.0,0.0,0.0,0.0,0.0,0.0,0.0
259846208,259844122,0.0,0.0,0.0,0.026444182,0.02658814,0.0,0.0,0.0,0.0,0.0,0.0,0.0,0.0,-0.0,0.0,0.0,nan,0.0,0.0,-5.7071447e-05,0.0,0.0,0.0,0.0,0.0,0.0,0.0,0.0
260346205,260344386,0.0,0.0,0.0,0.027970066,0.02683615,0.0,0.0,0.0,0.0,0.0,0.0,0.0,0.0,-0.0,0.0,0.0,nan,0.0,0.0,-0.0030910075,0.0,0.0,0.0,0.0,0.0,0.0,0.0,0.0
260846604,260844661,0.0,0.0,0.0,0.02883106,0.026904441,0.0,0.0,0.0,0.0,0.0,0.0,0.0,0.0,-0.0,0.0,0.0,nan,0.0,0.0,0.0010021329,0.0,0.0,0.0,0.0,0.0,0.0,0.0,0.0
261346819,261344890,0.0,0.0,0.0,0.029056923,0.026994973,0.0,0.0,0.0,0.0,0.0,0.0,0.0,0.0,-0.0,0.0,0.0,nan,0.0,0.0,-0.00022467971,0.0,0.0,0.0,0.0,0.0,0.0,0.0,0.0
261847063,261845147,0.0,0.0,0.0,0.029263087,0.027084043,0.0,0.0,0.0,0.0,0.0,0.0,0.0,0.0,-0.0,0.0,0.0,nan,0.0,0.0,0.0037572533,0.0,0.0,0.0,0.0,0.0,0.0,0.0,0.0
262347042,262345407,0.0,0.0,0.0,0.04170382,0.028235447,0.0,0.0,0.0,0.0,0.0,0.0,0.0,0.0,-0.0,0.0,0.0,nan,0.0,0.0,0.020199612,0.0,0.0,0.0,0.0,0.0,0.0,0.0,0.0
262847542,262845660,0.0,0.0,0.0,0.17674579,0.038907748,0.0,0.0,0.0,0.0,0.0,0.0,0.0,0.0,-0.0,0.0,0.0,nan,0.0,0.0,0.03655903,0.0,0.0,0.0,0.0,0.0,0.0,0.0,0.0
263347721,263345917,0.0,0.0,0.0,0.91238135,0.19393685,0.0,0.0,0.0,0.0,0.0,0.0,0.0,0.0,0.9686279,0.0,0.0,nan,0.0,0.0,0.08014424,0.0,0.0,0.0,0.0,0.0,0.0,0.0,0.0
263847891,263846174,0.0,0.0,0.0,2.3408692,0.0967888,0.0,0.0,0.0,0.0,0.0,0.0,0.0,0.0,0.6897745,0.0,0.0,nan,0.0,0.0,-0.00070130825,0.0,0.0,0.0,0.0,0.0,0.0,0.0,0.0
264348394,264346446,0.0,0.0,0.0,6.3232236,-2.6308696,0.0,0.0,0.0,0.0,0.0,0.0,0.0,0.0,-0.0,0.0,0.0,nan,0.0,0.0,0.03983313,0.0,0.0,0.0,0.0,0.0,0.0,0.0,0.0
264848686,264846689,0.0,0.0,0.0,9.89764,-5.4876018,0.0,0.0,0.0,0.0,0.0,0.0,0.0,0.0,0.35657215,0.0,0.0,nan,0.0,0.0,0.09225109,0.0,0.0,0.0,0.0,0.0,0.0,0.0,0.0
265348825,265346947,0.0,0.0,0.0,16.78328,-9.815467,0.0,0.0,0.0,0.0,0.0,0.0,0.0,0.0,1.0945358,0.0,0.0,nan,0.0,0.0,0.0,0.01082921,0.0057853684,0.0059170127,0.0,0.0,0.0,0.0,0.0
265852560,265847205,0.0,0.0,0.0,22.1267,-12.944376,0.0,0.0,0.0,0.0,0.0,0.0,0.0,0.0,0.97601986,0.0,0.0,nan,0.0,0.0,0.0,0.012716189,0.0069867466,0.010386914,0.0,0.0,0.0,0.0,0.0
266342653,266337457,0.0,0.0,0.0,29.594374,-17.850035,0.0,0.0,0.0,0.0,0.0,0.0,0.0,0.0,1.2006693,0.0,0.0,nan,0.0,0.0,0.0,0.0075342953,0.009802662,-0.0020980835,0.0,0.0,0.0,0.0,0.0
266842932,266837715,0.0,0.0,0.0,34.113605,-21.083336,0.0,0.0,0.0,0.0,0.0,0.0,0.0,0.0,1.2383814,0.0,0.0,nan,0.0,0.0,0.0,-0.0021163523,-0.0029539764,-0.019286215,0.0,0.0,0.0,0.0,0.0
267339662,267337974,0.0,0.0,0.0,40.163086,-25.043346,0.0,0.0,0.0,0.0,0.0,0.0,0.0,0.0,0.7731714,0.0,0.0,nan,0.0,0.0,0.0,0.0015500784,-0.0039355755,-0.014655024,0.0,0.0,0.0,0.0,0.0
267840073,267838235,0.0,0.0,0.0,43.381615,-26.478613,0.0,0.0,0.0,0.0,0.0,0.0,0.0,0.0,1.0146284,0.0,0.0,nan,0.0,0.0,0.0,0.013551906,0.004357919,-0.01349479,0.0,0.0,0.0,0.0,0.0
268350216,268348496,0.0,0.0,0.0,46.004612,-26.477285,0.0,0.0,0.0,0.0,0.0,0.0,0.0,0.0,1.5177002,0.0,0.0,nan,0.0,0.0,0.0,0.01882635,0.011792913,-0.010417491,0.0,0.0,0.0,0.0,0.0
268854164,268848754,0.0,0.0,0.0,45.78615,-25.18056,0.0,0.0,0.0,0.0,0.0,0.0,0.0,0.0,1.8187885,0.0,0.0,nan,0.0,0.0,0.0,0.015249923,0.01228226,-0.00844115,0.0,0.0,0.0,0.0,0.0
269353991,269349013,0.0,0.0,0.0,42.924397,-21.983595,0.0,0.0,0.0,0.0,0.0,0.0,0.0,0.0,1.4412746,0.0,0.0,nan,0.0,0.0,0.0,0.02636537,0.020891089,-0.009901255,0.0,0.0,0.0,0.0,0.0
269840978,269839266,0.0,0.0,0.0,39.54116,-19.232424,0.0,0.0,0.0,0.0,0.0,0.0,0.0,0.0,2.2899113,0.0,0.0,nan,0.0,0.0,0.0,0.007781267,0.0044354573,-0.01173085,0.0,0.0,0.0,0.0,0.0
270341533,270339526,0.0,0.0,0.0,33.531475,-14.453494,0.0,0.0,0.0,0.0,0.0,0.0,0.0,0.0,3.1086454,0.0,0.0,nan,0.0,0.0,0.0,4.1157007e-05,0.00191205,-0.009879023,0.0,0.0,0.0,0.0,0.0
270841815,270839784,0.0,0.0,0.0,29.514832,-11.095181,0.0,0.0,0.0,0.0,0.0,0.0,0.0,0.0,3.1681614,0.0,0.0,nan,0.0,0.0,0.0,0.009285033,0.0005842373,-0.008282959,0.0,0.0,0.0,0.0,0.0
271345274,271340043,0.0,0.0,0.0,22.995163,-5.573793,0.0,0.0,0.0,0.0,0.0,0.0,0.0,0.0,2.6878176,0.0,0.0,nan,0.0,0.0,0.0,0.009523928,-0.0060436726,-0.0019970238,0.0,0.0,0.0,0.0,0.0
271845518,271840323,0.0,0.0,0.0,18.01622,-1.2910663,0.0,0.0,0.0,0.0,0.0,0.0,0.0,0.0,4.4654856,0.0,0.0,nan,0.0,0.0,0.0,0.010896787,-0.007019788,0.0040741563,0.0,0.0,0.0,0.0,0.0
272345707,272340562,0.0,0.0,0.0,10.012387,4.8955374,0.0,0.0,0.0,0.0,0.0,0.0,0.0,0.0,4.4261265,0.0,0.0,nan,0.0,0.0,0.0,0.013037756,-0.003485687,0.0019525886,0.0,0.0,0.0,0.0,0.0
272845933,272840821,0.0,0.0,0.0,5.0141563,8.457373,0.0,0.0,0.0,0.0,0.0,0.0,0.0,0.0,4.2532005,0.0,0.0,nan,0.0,0.0,0.0,0.017345533,0.00637839,0.0016328394,0.0,0.0,0.0,0.0,0.0
273342761,273341088,0.0,0.0,0.0,-1.6335155,13.152725,0.0,0.0,0.0,0.0,0.0,0.0,0.0,0.0,3.5689182,0.0,0.0,nan,0.0,0.0,0.0,0.012589991,0.00129994,0.0016163588,0.0,0.0,0.0,0.0,0.0
273843193,273841341,0.0,0.0,0.0,-5.809484,16.123823,0.0,0.0,0.0,0.0,0.0,0.0,0.0,0.0,4.3100643,0.0,0.0,nan,0.0,0.0,0.0,0.011273503,-0.0021274462,0.004088074,0.0,0.0,0.0,0.0,0.0
274343423,274341600,0.0,0.0,0.0,-11.63524,20.002369,0.0,0.0,0.0,0.0,0.0,0.0,0.0,0.0,3.294077,0.0,0.0,nan,0.0,0.0,0.0,0.0041714683,-0.0059326887,0.006093025,0.0,0.0,0.0,0.0,0.0
274843563,274841872,0.0,0.0,0.0,-15.602443,22.515345,0.0,0.0,0.0,0.0,0.0,0.0,0.0,0.0,2.5403118,0.0,0.0,nan,0.0,0.0,0.0,0.004333377,-0.0075237453,0.005561352,0.0,0.0,0.0,0.0,0.0
275343919,275342121,0.0,0.0,0.0,-21.906395,26.226719,0.0,0.0,0.0,0.0,0.0,0.0,0.0,0.0,2.1047974,0.0,0.0,nan,0.0,0.0,0.0,7.408857e-05,-0.0106619075,0.007199526,0.0,0.0,0.0,0.0,0.0
275844390,275842389,0.0,0.0,0.0,-26.506273,28.501345,0.0,0.0,0.0,0.0,0.0,0.0,0.0,0.0,1.5592899,0.0,0.0,nan,0.0,0.0,0.0,0.0031133862,-0.007647494,0.008650929,0.0,0.0,0.0,0.0,0.0
276347580,276342684,0.0,0.0,0.0,-33.790104,31.564323,0.0,0.0,0.0,0.0,0.0,0.0,0.0,0.0,0.84682655,0.0,0.0,nan,0.0,0.0,0.0,-0.001148425,-0.0072318166,0.0033053458,0.0,0.0,0.0,0.0,0.0
276848005,276842905,0.0,0.0,0.0,-38.819836,33.290833,0.0,0.0,0.0,0.0,0.0,0.0,0.0,0.0,-0.020877838,0.0,0.0,nan,0.0,0.0,0.0,0.0011415854,-0.006297875,0.0059043765,0.0,0.0,0.0,0.0,0.0
277348510,277343161,0.0,0.0,0.0,-46.297596,35.233334,0.0,0.0,0.0,0.0,0.0,0.0,0.0,0.0,-0.54242706,0.0,0.0,nan,0.0,0.0,0.0,0.008812815,0.0033639,0.001031965,0.0,0.0,0.0,0.0,0.0
277845103,277843422,0.0,0.0,0.0,-50.896168,36.425827,0.0,0.0,0.0,0.0,0.0,0.0,0.0,0.0,-1.0714169,0.0,0.0,nan,0.0,0.0,0.0,0.010204092,0.0060336143,-0.0048850775,0.0,0.0,0.0,0.0,0.0
278345480,278343682,0.0,0.0,0.0,-56.619694,37.751167,0.0,0.0,0.0,0.0,0.0,0.0,0.0,0.0,-1.6961288,0.0,0.0,nan,0.0,0.0,0.0,0.0068725348,0.00641872,-0.005518317,0.0,0.0,0.0,0.0,0.0
278845789,278843943,0.0,0.0,0.0,-59.640945,38.57533,0.0,0.0,0.0,0.0,0.0,0.0,0.0,0.0,-1.8933582,0.0,0.0,nan,0.0,0.0,0.0,0.004126191,0.0015307963,-0.0016797185,0.0,0.0,0.0,0.0,0.0
279345968,279344233,0.0,0.0,0.0,-63.401875,39.512505,0.0,0.0,0.0,0.0,0.0,0.0,0.0,0.0,-2.4356728,0.0,0.0,nan,0.0,0.0,0.0,0.0021528825,0.00039945543,-0.0042004287,0.0,0.0,0.0,0.0,0.0
279846365,279844479,0.0,0.0,0.0,-65.50337,39.855556,0.0,0.0,0.0,0.0,0.0,0.0,0.0,0.0,-2.9490948,0.0,0.0,nan,0.0,0.0,0.0,0.004924774,0.002905205,-0.0036018789,0.0,0.0,0.0,0.0,0.0
280349715,280344726,0.0,0.0,0.0,-67.85066,39.796597,0.0,0.0,0.0,0.0,0.0,0.0,0.0,0.0,-3.4352036,0.0,0.0,nan,0.0,0.0,0.0,0.0014928281,0.00027537346,-0.00028517842,0.0,0.0,0.0,0.0,0.0
280846790,280845008,0.0,0.0,0.0,-68.97853,39.4063,0.0,0.0,0.0,0.0,0.0,0.0,0.0,0.0,-2.7857876,0.0,0.0,nan,0.0,0.0,0.0,-0.0014051199,-0.0034949034,0.0010341406,0.0,0.0,0.0,0.0,0.0
281347060,281345248,0.0,0.0,0.0,-70.35494,38.278996,0.0,0.0,0.0,0.0,0.0,0.0,0.0,0.0,-3.8194199,0.0,0.0,nan,0.0,0.0,0.0,-0.0055674314,-0.004896058,0.002001822,0.0,0.0,0.0,0.0,0.0
281847211,281845509,0.0,0.0,0.0,-71.16289,36.946037,0.0,0.0,0.0,0.0,0.0,0.0,0.0,0.0,-4.149458,0.0,0.0,nan,0.0,0.0,0.0,-0.007873863,-0.007670261,0.0040711164,0.0,0.0,0.0,0.0,0.0
282350983,282345803,0.0,0.0,0.0,-72.1062,33.71318,0.0,0.0,0.0,0.0,0.0,0.0,0.0,0.0,-4.125414,0.0,0.0,nan,0.0,0.0,0.0,-0.005599126,-0.0052512297,0.0021072626,0.0,0.0,0.0,0.0,0.0
282851282,282846031,0.0,0.0,0.0,-72.378944,30.997084,0.0,0.0,0.0,0.0,0.0,0.0,0.0,0.0,-3.3466473,0.0,0.0,nan,0.0,0.0,0.0,0.0011108667,0.0026275143,-0.0026331246,0.0,0.0,0.0,0.0,0.0
283351565,283346293,0.0,0.0,0.0,-71.50337,26.659285,0.0,0.0,0.0,0.0,0.0,0.0,0.0,0.0,-3.2701244,0.0,0.0,nan,0.0,0.0,0.0,0.007077828,0.012105465,-0.011948064,0.0,0.0,0.0,0.0,0.0
283838245,283836568,0.0,0.0,0.0,-69.81073,24.18621,0.0,0.0,0.0,0.0,0.0,0.0,0.0,0.0,-3.7365513,0.0,0.0,nan,0.0,0.0,0.0,0.0028886795,0.0048927367,-0.010546386,0.0,0.0,0.0,0.0,0.0
284352244,284346812,0.0,0.0,0.0,-65.09263,20.97596,0.0,0.0,0.0,0.0,0.0,0.0,0.0,0.0,-2.739355,0.0,0.0,nan,0.0,0.0,0.0,-0.0022207052,0.0013252795,-0.006428957,0.0,0.0,0.0,0.0,0.0
284852212,284847077,0.0,0.0,0.0,-61.138935,18.659105,0.0,0.0,0.0,0.0,0.0,0.0,0.0,0.0,-1.8294125,0.0,0.0,nan,0.0,0.0,0.0,0.0020809025,0.0062390864,-0.007946223,0.0,0.0,0.0,0.0,0.0
285349081,285347363,0.0,0.0,0.0,-54.397293,15.429413,0.0,0.0,0.0,0.0,0.0,0.0,0.0,0.0,-1.5404892,0.0,0.0,nan,0.0,0.0,0.0,0.0064043105,0.011979759,-0.0198742,0.0,0.0,0.0,0.0,0.0
285852897,285847601,0.0,0.0,0.0,-49.592613,13.748536,0.0,0.0,0.0,0.0,0.0,0.0,0.0,0.0,-0.14100838,0.0,0.0,nan,0.0,0.0,0.0,0.013560504,0.012250215,-0.020373136,0.0,0.0,0.0,0.0,0.0
286349664,286347863,0.0,0.0,0.0,-41.56097,12.519896,0.0,0.0,0.0,0.0,0.0,0.0,0.0,0.0,0.17160225,0.0,0.0,nan,0.0,0.0,0.0,0.012725398,0.01224637,-0.024019748,0.0,0.0,0.0,0.0,0.0
286849826,286848162,0.0,0.0,0.0,-35.635513,12.296435,0.0,0.0,0.0,0.0,0.0,0.0,0.0,0.0,1.3618526,0.0,0.0,nan,0.0,0.0,0.0,0.013669431,0.010151476,-0.02071023,0.0,0.0,0.0,0.0,0.0
287340456,287338390,0.0,0.0,0.0,-25.441114,12.28112,0.0,0.0,0.0,0.0,0.0,0.0,0.0,0.0,2.9543552,0.0,0.0,nan,0.0,0.0,0.0,0.009433016,0.0059566796,-0.01995334,0.0,0.0,0.0,0.0,0.0
287840435,287838644,0.0,0.0,0.0,-18.272593,11.91884,0.0,0.0,0.0,0.0,0.0,0.0,0.0,0.0,3.6592464,0.0,0.0,nan,0.0,0.0,0.0,0.0064627826,0.0007465035,-0.0110862255,0.0,0.0,0.0,0.0,0.0
288344124,288338912,0.0,0.0,0.0,-8.428195,10.452542,0.0,0.0,0.0,0.0,0.0,0.0,0.0,0.0,6.0859756,0.0,0.0,nan,0.0,0.0,0.0,0.011841781,0.0025837123,-0.013104349,0.0,0.0,0.0,0.0,0.0
288841135,288839168,0.0,0.0,0.0,-2.6472383,9.0068865,0.0,0.0,0.0,0.0,0.0,0.0,0.0,0.0,6.7594833,0.0,0.0,nan,0.0,0.0,0.0,0.008267939,0.0010133833,-0.006991774,0.0,0.0,0.0,0.0,0.0
289344587,289339431,0.0,0.0,0.0,4.5878024,6.6259546,0.0,0.0,0.0,0.0,0.0,0.0,0.0,0.0,7.094391,0.0,0.0,nan,0.0,0.0,0.0,0.0076490194,0.0005633682,0.0010954142,0.0,0.0,0.0,0.0,0.0
289844915,289839748,0.0,0.0,0.0,8.254242,4.9772716,0.0,0.0,0.0,0.0,0.0,0.0,0.0,0.0,6.783146,0.0,0.0,nan,0.0,0.0,0.0,0.004963599,-0.0016907007,0.0043715537,0.0,0.0,0.0,0.0,0.0
290345349,290339955,0.0,0.0,0.0,12.544917,2.794571,0.0,0.0,0.0,0.0,0.0,0.0,0.0,0.0,6.8861847,0.0,0.0,nan,0.0,0.0,0.0,-0.0016427636,-0.0022528097,0.0056658387,0.0,0.0,0.0,0.0,0.0
290845125,290840218,0.0,0.0,0.0,14.363834,1.2917393,0.0,0.0,0.0,0.0,0.0,0.0,0.0,0.0,6.664915,0.0,0.0,nan,0.0,0.0,0.0,-0.0066629946,-0.0039169937,0.0073446333,0.0,0.0,0.0,0.0,0.0
291345902,291340501,0.0,0.0,0.0,15.857998,-1.3588358,0.0,0.0,0.0,0.0,0.0,0.0,0.0,0.0,6.3530865,0.0,0.0,nan,0.0,0.0,0.0,-0.009059161,-0.0032606162,0.0054870546,0.0,0.0,0.0,0.0,0.0
291845878,291840744,0.0,0.0,0.0,16.145895,-3.5078812,0.0,0.0,0.0,0.0,0.0,0.0,0.0,0.0,6.725313,0.0,0.0,nan,0.0,0.0,0.0,-0.012988925,-0.00016576052,0.00650388,0.0,0.0,0.0,0.0,0.0
292346200,292341006,0.0,0.0,0.0,15.502184,-7.529421,0.0,0.0,0.0,0.0,0.0,0.0,0.0,0.0,6.2357235,0.0,0.0,nan,0.0,0.0,0.0,-0.017132193,0.0019971132,-0.00052279234,0.0,0.0,0.0,0.0,0.0
292843231,292841278,0.0,0.0,0.0,14.465577,-10.776484,0.0,0.0,0.0,0.0,0.0,0.0,0.0,0.0,5.500017,0.0,0.0,nan,0.0,0.0,0.0,-0.013688773,-0.0040084273,0.00700891,0.0,0.0,0.0,0.0,0.0
293346687,293341532,0.0,0.0,0.0,13.037074,-16.457335,0.0,0.0,0.0,0.0,0.0,0.0,0.0,0.0,5.176325,0.0,0.0,nan,0.0,0.0,0.0,-0.00838235,-0.007490203,0.0074708313,0.0,0.0,0.0,0.0,0.0
293847141,293841795,0.0,0.0,0.0,12.709372,-20.119219,0.0,0.0,0.0,0.0,0.0,0.0,0.0,0.0,4.2422085,0.0,0.0,nan,0.0,0.0,0.0,-0.013630688,-0.005226895,0.004661903,0.0,0.0,0.0,0.0,0.0
294347320,294342071,0.0,0.0,0.0,13.0177555,-25.133944,0.0,0.0,0.0,0.0,0.0,0.0,0.0,0.0,4.243635,0.0,0.0,nan,0.0,0.0,0.0,-0.014275253,-0.002892673,0.004198283,0.0,0.0,0.0,0.0,0.0
294844154,294842321,0.0,0.0,0.0,13.541261,-28.301216,0.0,0.0,0.0,0.0,0.0,0.0,0.0,0.0,4.207651,0.0,0.0,nan,0.0,0.0,0.0,-0.0104426,0.0012485981,-0.0036212355,0.0,0.0,0.0,0.0,0.0
295344367,295342585,0.0,0.0,0.0,14.55136,-33.05333,0.0,0.0,0.0,0.0,0.0,0.0,0.0,0.0,3.373457,0.0,0.0,nan,0.0,0.0,0.0,-0.0043332726,0.011798799,-0.018294219,0.0,0.0,0.0,0.0,0.0
295847899,295842858,0.0,0.0,0.0,15.695009,-36.567078,0.0,0.0,0.0,0.0,0.0,0.0,0.0,0.0,1.1972561,0.0,0.0,nan,0.0,0.0,0.0,0.005129479,0.014275342,-0.017267019,0.0,0.0,0.0,0.0,0.0
296348249,296343111,0.0,0.0,0.0,19.60805,-42.822086,0.0,0.0,0.0,0.0,0.0,0.0,0.0,0.0,1.2408848,0.0,0.0,nan,0.0,0.0,0.0,0.006051883,0.010746598,-0.01064783,0.0,0.0,0.0,0.0,0.0
296848357,296843381,0.0,0.0,0.0,23.923851,-46.811245,0.0,0.0,0.0,0.0,0.0,0.0,0.0,0.0,0.70285606,0.0,0.0,nan,0.0,0.0,0.0,0.0060306937,0.014754027,-0.011726778,0.0,0.0,0.0,0.0,0.0
297345316,297343633,0.0,0.0,0.0,32.373505,-51.315918,0.0,0.0,0.0,0.0,0.0,0.0,0.0,0.0,-0.11039543,0.0,0.0,nan,0.0,0.0,0.0,0.008171022,0.018314809,-0.008856062,0.0,0.0,0.0,0.0,0.0
297848970,297843902,0.0,0.0,0.0,38.888653,-52.932377,0.0,0.0,0.0,0.0,0.0,0.0,0.0,0.0,-0.5617809,0.0,0.0,nan,0.0,0.0,0.0,0.0070263445,0.01835969,-0.00700137,0.0,0.0,0.0,0.0,0.0
298345934,298344170,0.0,0.0,0.0,49.034077,-53.106167,0.0,0.0,0.0,0.0,0.0,0.0,0.0,0.0,-1.0199223,0.0,0.0,nan,0.0,0.0,0.0,0.0044574738,0.021129161,-0.0071377605,0.0,0.0,0.0,0.0,0.0
298849337,298844440,0.0,0.0,0.0,55.648987,-51.60936,0.0,0.0,0.0,0.0,0.0,0.0,0.0,0.0,-1.4566803,0.0,0.0,nan,0.0,0.0,0.0,0.010790318,0.026636899,-0.0076600164,0.0,0.0,0.0,0.0,0.0
299349760,299344692,0.0,0.0,0.0,64.660645,-47.19667,0.0,0.0,0.0,0.0,0.0,0.0,0.0,0.0,-0.98545074,0.0,0.0,nan,0.0,0.0,0.0,0.014101297,0.025285795,-0.004997194,0.0,0.0,0.0,0.0,0.0
299846680,299844957,0.0,0.0,0.0,69.67216,-43.278576,0.0,0.0,0.0,0.0,0.0,0.0,0.0,0.0,-2.114849,0.0,0.0,nan,0.0,0.0,0.0,0.022543967,0.011022847,-0.0041410476,0.0,0.0,0.0,0.0,0.0
300350651,300345221,0.0,0.0,0.0,75.911224,-37.1306,0.0,0.0,0.0,0.0,0.0,0.0,0.0,0.0,-2.0611172,0.0,0.0,nan,0.0,0.0,0.0,0.02288419,0.004545043,-0.0036530495,0.0,0.0,0.0,0.0,0.0
300847273,300845488,0.0,0.0,0.0,79.35106,-33.381615,0.0,0.0,0.0,0.0,0.0,0.0,0.0,0.0,-1.8092937,0.0,0.0,nan,0.0,0.0,0.0,0.01707077,0.016681548,-0.0008775443,0.0,0.0,0.0,0.0,0.0
301350861,301345752,0.0,0.0,0.0,83.6067,-27.675299,0.0,0.0,0.0,0.0,0.0,0.0,0.0,0.0,-2.04887,0.0,0.0,nan,0.0,0.0,0.0,0.015185297,0.02652821,-0.0037128627,0.0,0.0,0.0,0.0,0.0
301851332,301846012,0.0,0.0,0.0,85.67036,-23.581533,0.0,0.0,0.0,0.0,0.0,0.0,0.0,0.0,-1.3926449,0.0,0.0,nan,0.0,0.0,0.0,0.015778214,0.026966318,-0.0022050142,0.0,0.0,0.0,0.0,0.0
302351195,302346276,0.0,0.0,0.0,87.6864,-16.475044,0.0,0.0,0.0,0.0,0.0,0.0,0.0,0.0,-1.9952574,0.0,0.0,nan,0.0,0.0,0.0,0.010127008,0.018246219,-0.0020838976,0.0,0.0,0.0,0.0,0.0
302851828,302846540,0.0,0.0,0.0,88.23327,-11.23433,0.0,0.0,0.0,0.0,0.0,0.0,0.0,0.0,-2.776842,0.0,0.0,nan,0.0,0.0,0.0,0.010190189,0.012985697,-0.0006417334,0.0,0.0,0.0,0.0,0.0
303348536,303346804,0.0,0.0,0.0,88.32029,-3.090449,0.0,0.0,0.0,0.0,0.0,0.0,0.0,0.0,-2.4336758,0.0,0.0,nan,0.0,0.0,0.0,0.010675132,0.002355747,0.0009264648,0.0,0.0,0.0,0.0,0.0
303848828,303847068,0.0,0.0,0.0,87.74527,1.8140814,0.0,0.0,0.0,0.0,0.0,0.0,0.0,0.0,0.22788048,0.0,0.0,nan,0.0,0.0,0.0,0.010285884,-0.004933089,-0.0085582435,0.0,0.0,0.0,0.0,0.0
304352636,304347332,0.0,0.0,0.0,85.73026,7.4034004,0.0,0.0,0.0,0.0,0.0,0.0,0.0,0.0,0.43890476,0.0,0.0,nan,0.0,0.0,0.0,0.0060096085,-0.0064249784,-0.007981867,0.0,0.0,0.0,0.0,0.0
304842787,304837585,0.0,0.0,0.0,83.829926,9.994601,0.0,0.0,0.0,0.0,0.0,0.0,0.0,0.0,-0.22599602,0.0,0.0,nan,0.0,0.0,0.0,-0.0016436279,0.019676879,0.0050264895,0.0,0.0,0.0,0.0,0.0
305343336,305337855,0.0,0.0,0.0,80.3635,13.528544,0.0,0.0,0.0,0.0,0.0,0.0,0.0,0.0,0.27998638,0.0,0.0,nan,0.0,0.0,0.0,0.0065083206,0.0040646866,0.00074240565,0.0,0.0,0.0,0.0,0.0
305843240,305838119,0.0,0.0,0.0,77.50793,15.893433,0.0,0.0,0.0,0.0,0.0,0.0,0.0,0.0,0.39115334,0.0,0.0,nan,0.0,0.0,0.0,0.007248491,-0.007912099,-0.0044007897,0.0,0.0,0.0,0.0,0.0
306343824,306338392,0.0,0.0,0.0,72.90732,18.271355,0.0,0.0,0.0,0.0,0.0,0.0,0.0,0.0,2.0352287,0.0,0.0,nan,0.0,0.0,0.0,0.0001989901,-0.0138454735,-0.009984314,0.0,0.0,0.0,0.0,0.0
306840425,306838653,0.0,0.0,0.0,69.57746,18.854322,0.0,0.0,0.0,0.0,0.0,0.0,0.0,0.0,2.4642305,0.0,0.0,nan,0.0,0.0,0.0,0.0029095113,-0.020518318,-0.011205435,0.0,0.0,0.0,0.0,0.0
307350695,307348918,0.0,0.0,0.0,63.977913,18.13418,0.0,0.0,0.0,0.0,0.0,0.0,0.0,0.0,3.0973644,0.0,0.0,nan,0.0,0.0,0.0,-0.0038523972,-0.007101018,0.006326616,0.0,0.0,0.0,0.0,0.0
307854459,307849182,0.0,0.0,0.0,59.962635,17.534893,0.0,0.0,0.0,0.0,0.0,0.0,0.0,0.0,0.8591223,0.0,0.0,nan,0.0,0.0,0.0,-0.005691737,0.0033606365,0.006792158,0.0,0.0,0.0,0.0,0.0
308341228,308339442,0.0,0.0,0.0,53.872437,17.290085,0.0,0.0,0.0,0.0,0.0,0.0,0.0,0.0,1.8684921,0.0,0.0,nan,0.0,0.0,0.0,-0.006087959,-0.0061408393,0.0030376613,0.0,0.0,0.0,0.0,0.0
308841465,308839706,0.0,0.0,0.0,49.83352,17.15009,0.0,0.0,0.0,0.0,0.0,0.0,0.0,0.0,4.7012353,0.0,0.0,nan,0.0,0.0,0.0,-0.0044413507,-0.011111911,0.001916647,0.0,0.0,0.0,0.0,0.0
309341768,309339976,0.0,0.0,0.0,43.84463,16.737827,0.0,0.0,0.0,0.0,0.0,0.0,0.0,0.0,3.7093658,0.0,0.0,nan,0.0,0.0,0.0,-0.0055306554,-0.0051586907,0.006620407,0.0,0.0,0.0,0.0,0.0
309842094,309840239,0.0,0.0,0.0,39.80112,16.314154,0.0,0.0,0.0,0.0,0.0,0.0,0.0,0.0,4.2396197,0.0,0.0,nan,0.0,0.0,0.0,-0.01326707,-0.004090138,0.0071017444,0.0,0.0,0.0,0.0,0.0
310345720,310340500,0.0,0.0,0.0,33.764194,15.905784,0.0,0.0,0.0,0.0,0.0,0.0,0.0,0.0,3.8195477,0.0,0.0,nan,0.0,0.0,0.0,-0.027143106,-0.0015281066,0.006780535,0.0,0.0,0.0,0.0,0.0
310842433,310840767,0.0,0.0,0.0,29.435349,16.002726,0.0,0.0,0.0,0.0,0.0,0.0,0.0,0.0,6.3340144,0.0,0.0,nan,0.0,0.0,0.0,-0.0265048,-0.019463863,0.0049505234,0.0,0.0,0.0,0.0,0.0
311342907,311341043,0.0,0.0,0.0,22.965914,16.025719,0.0,0.0,0.0,0.0,0.0,0.0,0.0,0.0,6.0335193,0.0,0.0,nan,0.0,0.0,0.0,-0.018444553,-0.012314916,-0.00024172664,0.0,0.0,0.0,0.0,0.0
311846501,311841294,0.0,0.0,0.0,18.911835,15.778875,0.0,0.0,0.0,0.0,0.0,0.0,0.0,0.0,6.502836,0.0,0.0,nan,0.0,0.0,0.0,-0.015193254,-0.0040754154,0.003047675,0.0,0.0,0.0,0.0,0.0
312343369,312341562,0.0,0.0,0.0,13.5260105,15.136226,0.0,0.0,0.0,0.0,0.0,0.0,0.0,0.0,6.2967706,0.0,0.0,nan,0.0,0.0,0.0,-0.009672999,0.008633733,0.0036748946,0.0,0.0,0.0,0.0,0.0
312843584,312841823,0.0,0.0,0.0,10.398026,14.991334,0.0,0.0,0.0,0.0,0.0,0.0,0.0,0.0,5.9746437,0.0,0.0,nan,0.0,0.0,0.0,-0.022017539,0.007257849,0.0018517375,0.0,0.0,0.0,0.0,0.0
313347271,313342088,0.0,0.0,0.0,6.1115074,17.038383,0.0,0.0,0.0,0.0,0.0,0.0,0.0,0.0,7.674932,0.0,0.0,nan,0.0,0.0,0.0,-0.014455795,0.012255564,-0.0027869344,0.0,0.0,0.0,0.0,0.0
313847279,313842361,0.0,0.0,0.0,3.5037901,18.765333,0.0,0.0,0.0,0.0,0.0,0.0,0.0,0.0,7.470397,0.0,0.0,nan,0.0,0.0,0.0,-0.0038351566,0.0035433024,0.0009778142,0.0,0.0,0.0,0.0,0.0
314344540,314342618,0.0,0.0,0.0,-0.12873855,21.549,0.0,0.0,0.0,0.0,0.0,0.0,0.0,0.0,6.7549257,0.0,0.0,nan,0.0,0.0,0.0,-0.0031458735,-0.00094997045,-3.194809e-05,0.0,0.0,0.0,0.0,0.0
314844635,314842882,0.0,0.0,0.0,-2.4275444,23.292696,0.0,0.0,0.0,0.0,0.0,0.0,0.0,0.0,7.7597437,0.0,0.0,nan,0.0,0.0,0.0,-0.001578182,-0.006742537,-0.0035191476,0.0,0.0,0.0,0.0,0.0
315348109,315343148,0.0,0.0,0.0,-5.618257,24.793308,0.0,0.0,0.0,0.0,0.0,0.0,0.0,0.0,7.612712,0.0,0.0,nan,0.0,0.0,0.0,-0.0029465854,-0.0022998059,0.002255112,0.0,0.0,0.0,0.0,0.0
315845187,315843413,0.0,0.0,0.0,-7.6901927,25.537857,0.0,0.0,0.0,0.0,0.0,0.0,0.0,0.0,6.817995,0.0,0.0,nan,0.0,0.0,0.0,-0.0037848353,0.0036190003,0.0034912825,0.0,0.0,0.0,0.0,0.0
316348856,316343677,0.0,0.0,0.0,-10.788841,26.766327,0.0,0.0,0.0,0.0,0.0,0.0,0.0,0.0,6.3477993,0.0,0.0,nan,0.0,0.0,0.0,-0.0013346523,-0.0025059339,-0.0017966032,0.0,0.0,0.0,0.0,0.0
316845840,316843943,0.0,0.0,0.0,-12.7833185,27.586956,0.0,0.0,0.0,0.0,0.0,0.0,0.0,0.0,5.641264,0.0,0.0,nan,0.0,0.0,0.0,0.0029289871,-0.0059475023,-0.00045251846,0.0,0.0,0.0,0.0,0.0
317349454,317344208,0.0,0.0,0.0,-15.79552,28.880018,0.0,0.0,0.0,0.0,0.0,0.0,0.0,0.0,5.3026085,0.0,0.0,nan,0.0,0.0,0.0,0.005148366,-0.0044099838,-0.0064752996,0.0,0.0,0.0,0.0,0.0
317846307,317844473,0.0,0.0,0.0,-17.760878,29.775043,0.0,0.0,0.0,0.0,0.0,0.0,0.0,0.0,5.620672,0.0,0.0,nan,0.0,0.0,0.0,0.0044570416,-0.0032354938,-0.0028120875,0.0,0.0,0.0,0.0,0.0
318346642,318344762,0.0,0.0,0.0,-20.605232,31.098955,0.0,0.0,0.0,0.0,0.0,0.0,0.0,0.0,3.6506863,0.0,0.0,nan,0.0,0.0,0.0,0.0020074397,-0.002270855,0.001414746,0.0,0.0,0.0,0.0,0.0
318850239,318845003,0.0,0.0,0.0,-22.774677,32.257523,0.0,0.0,0.0,0.0,0.0,0.0,0.0,0.0,3.74304,0.0,0.0,nan,0.0,0.0,0.0,0.0012674779,-0.004310337,6.484985e-05,0.0,0.0,0.0,0.0,0.0
319350537,319345272,0.0,0.0,0.0,-26.541965,34.307716,0.0,0.0,0.0,0.0,0.0,0.0,0.0,0.0,2.0370579,0.0,0.0,nan,0.0,0.0,0.0,-0.005008541,-0.007802924,0.00011616945,0.0,0.0,0.0,0.0,0.0
319847314,319845534,0.0,0.0,0.0,-29.557207,35.763004,0.0,0.0,0.0,0.0,0.0,0.0,0.0,0.0,1.3048992,0.0,0.0,nan,0.0,0.0,0.0,-0.0102687925,-0.0061661527,0.0035355687,0.0,0.0,0.0,0.0,0.0
320347582,320345799,0.0,0.0,0.0,-34.94384,37.715603,0.0,0.0,0.0,0.0,0.0,0.0,0.0,0.0,1.4382763,0.0,0.0,nan,0.0,0.0,0.0,-0.006433625,-0.010368779,-0.00013411045,0.0,0.0,0.0,0.0,0.0
320851124,320846068,0.0,0.0,0.0,-38.688152,38.808437,0.0,0.0,0.0,0.0,0.0,0.0,0.0,0.0,0.65198326,0.0,0.0,nan,0.0,0.0,0.0,-0.008332942,-0.010646164,-0.004233271,0.0,0.0,0.0,0.0,0.0
321351591,321346349,0.0,0.0,0.0,-44.326736,40.32819,0.0,0.0,0.0,0.0,0.0,0.0,0.0,0.0,-1.6782207,0.0,0.0,nan,0.0,0.0,0.0,0.0001937598,-0.009485751,-0.03764975,0.0,0.0,0.0,0.0,0.0
321848280,321846606,0.0,0.0,0.0,-47.21611,41.535347,0.0,0.0,0.0,0.0,0.0,0.0,0.0,0.0,-1.2164478,0.0,0.0,nan,0.0,0.0,0.0,0.0031974316,-0.0058250427,-0.030256748,0.0,0.0,0.0,0.0,0.0
322342092,322336862,0.0,0.0,0.0,-49.07071,43.10274,0.0,0.0,0.0,0.0,0.0,0.0,0.0,0.0,-0.5392723,0.0,0.0,nan,0.0,0.0,0.0,-0.0015943572,-0.009856969,-0.014797032,0.0,0.0,0.0,0.0,0.0
322838965,322837123,0.0,0.0,0.0,-49.581387,43.62239,0.0,0.0,0.0,0.0,0.0,0.0,0.0,0.0,-1.9692955,0.0,0.0,nan,0.0,0.0,0.0,-0.0035772398,-0.013361171,-0.015114844,0.0,0.0,0.0,0.0,0.0
323352823,323347393,0.0,0.0,0.0,-49.827515,44.019707,0.0,0.0,0.0,0.0,0.0,0.0,0.0,0.0,-1.275837,0.0,0.0,nan,0.0,0.0,0.0,-0.005084038,-0.013853267,-0.018315852,0.0,0.0,0.0,0.0,0.0
323849478,323847656,0.0,0.0,0.0,-49.508595,43.682644,0.0,0.0,0.0,0.0,0.0,0.0,0.0,0.0,-1.5663967,0.0,0.0,nan,0.0,0.0,0.0,-0.0037021488,-0.015014559,-0.014386475,0.0,0.0,0.0,0.0,0.0
324349730,324347921,0.0,0.0,0.0,-48.781387,42.493065,0.0,0.0,0.0,0.0,0.0,0.0,0.0,0.0,-0.53507996,0.0,0.0,nan,0.0,0.0,0.0,0.001435332,-0.013728589,-0.007207185,0.0,0.0,0.0,0.0,0.0
324850060,324848187,0.0,0.0,0.0,-48.237965,41.349705,0.0,0.0,0.0,0.0,0.0,0.0,0.0,0.0,-1.0661755,0.0,0.0,nan,0.0,0.0,0.0,-0.0013602749,-0.016068757,-0.0048389733,0.0,0.0,0.0,0.0,0.0
325350246,325348452,0.0,0.0,0.0,-47.569595,39.409096,0.0,0.0,0.0,0.0,0.0,0.0,0.0,0.0,-2.5609703,0.0,0.0,nan,0.0,0.0,0.0,-0.009871818,-0.020859256,-0.004418373,0.0,0.0,0.0,0.0,0.0
325840515,325838712,0.0,0.0,0.0,-47.622684,37.832977,0.0,0.0,0.0,0.0,0.0,0.0,0.0,0.0,-1.8802738,0.0,0.0,nan,0.0,0.0,0.0,-0.013416335,-0.02107498,-0.005427003,0.0,0.0,0.0,0.0,0.0
326340811,326338978,0.0,0.0,0.0,-47.98411,35.055122,0.0,0.0,0.0,0.0,0.0,0.0,0.0,0.0,-2.0442085,0.0,0.0,nan,0.0,0.0,0.0,-0.017103821,-0.023247827,-0.0031731725,0.0,0.0,0.0,0.0,0.0
326841142,326839262,0.0,0.0,0.0,-48.514977,32.884106,0.0,0.0,0.0,0.0,0.0,0.0,0.0,0.0,-0.9647007,0.0,0.0,nan,0.0,0.0,0.0,-0.012654588,-0.023739278,-0.007587731,0.0,0.0,0.0,0.0,0.0
327344814,327339509,0.0,0.0,0.0,-49.396996,29.455963,0.0,0.0,0.0,0.0,0.0,0.0,0.0,0.0,-0.06852913,0.0,0.0,nan,0.0,0.0,0.0,-0.012056425,-0.024031438,-0.0055924654,0.0,0.0,0.0,0.0,0.0
327845055,327839781,0.0,0.0,0.0,-49.81947,27.189558,0.0,0.0,0.0,0.0,0.0,0.0,0.0,0.0,-0.15472984,0.0,0.0,nan,0.0,0.0,0.0,-0.020891562,-0.022268832,0.0058810115,0.0,0.0,0.0,0.0,0.0
328342117,328340039,0.0,0.0,0.0,-50.697556,23.597992,0.0,0.0,0.0,0.0,0.0,0.0,0.0,0.0,-0.14168358,0.0,0.0,nan,0.0,0.0,0.0,-0.022064015,-0.025903083,0.0019429922,0.0,0.0,0.0,0.0,0.0
328842192,328840305,0.0,0.0,0.0,-51.43114,21.086731,0.0,0.0,0.0,0.0,0.0,0.0,0.0,0.0,-0.41594696,0.0,0.0,nan,0.0,0.0,0.0,-0.0150626,-0.027984932,-0.014058471,0.0,0.0,0.0,0.0,0.0
329345899,329340602,0.0,0.0,0.0,-52.510956,17.592537,0.0,0.0,0.0,0.0,0.0,0.0,0.0,0.0,-0.73231316,0.0,0.0,nan,0.0,0.0,0.0,-0.008246839,-0.02769439,-0.026237532,0.0,0.0,0.0,0.0,0.0
329842586,329840836,0.0,0.0,0.0,-52.5441,16.157166,0.0,0.0,0.0,0.0,0.0,0.0,0.0,0.0,0.10017204,0.0,0.0,nan,0.0,0.0,0.0,-0.0032824874,-0.02430594,-0.034857273,0.0,0.0,0.0,0.0,0.0
330342886,330341115,0.0,0.0,0.0,-51.14124,15.376514,0.0,0.0,0.0,0.0,0.0,0.0,0.0,0.0,0.98412514,0.0,0.0,nan,0.0,0.0,0.0,0.007627368,-0.014105678,-0.05774542,0.0,0.0,0.0,0.0,0.0
330846724,330841395,0.0,0.0,0.0,-49.00595,15.732342,0.0,0.0,0.0,0.0,0.0,0.0,0.0,0.0,2.1125698,0.0,0.0,nan,0.0,0.0,0.0,0.011613131,-0.012223512,-0.032329917,0.0,0.0,0.0,0.0,0.0
331343455,331341661,0.0,0.0,0.0,-44.10411,16.790089,0.0,0.0,0.0,0.0,0.0,0.0,0.0,0.0,3.1503048,0.0,0.0,nan,0.0,0.0,0.0,0.013957724,-0.014027029,-0.032973498,0.0,0.0,0.0,0.0,0.0
331843611,331841897,0.0,0.0,0.0,-40.394085,17.598946,0.0,0.0,0.0,0.0,0.0,0.0,0.0,0.0,2.3590946,0.0,0.0,nan,0.0,0.0,0.0,0.0093932,-0.011293292,-0.027421221,0.0,0.0,0.0,0.0,0.0
332343943,332342168,0.0,0.0,0.0,-34.504105,18.49899,0.0,0.0,0.0,0.0,0.0,0.0,0.0,0.0,4.073969,0.0,0.0,nan,0.0,0.0,0.0,0.014352649,-0.0067977607,-0.012156516,0.0,0.0,0.0,0.0,0.0
332847646,332842429,0.0,0.0,0.0,-30.401033,18.825235,0.0,0.0,0.0,0.0,0.0,0.0,0.0,0.0,4.25947,0.0,0.0,nan,0.0,0.0,0.0,0.0041093156,-0.0049935877,0.0012863576,0.0,0.0,0.0,0.0,0.0
333347985,333342694,0.0,0.0,0.0,-24.971125,18.678455,0.0,0.0,0.0,0.0,0.0,0.0,0.0,0.0,3.854887,0.0,0.0,nan,0.0,0.0,0.0,-0.0020797998,-0.008324884,0.005880803,0.0,0.0,0.0,0.0,0.0
333844635,333842960,0.0,0.0,0.0,-22.181162,18.02444,0.0,0.0,0.0,0.0,0.0,0.0,0.0,0.0,3.8475742,0.0,0.0,nan,0.0,0.0,0.0,0.0005568713,-0.015579596,0.00067958236,0.0,0.0,0.0,0.0,0.0
334345136,334343224,0.0,0.0,0.0,-18.785223,16.43512,0.0,0.0,0.0,0.0,0.0,0.0,0.0,0.0,4.1764164,0.0,0.0,nan,0.0,0.0,0.0,0.0045635253,-0.017908841,-0.02269049,0.0,0.0,0.0,0.0,0.0
334845457,334843490,0.0,0.0,0.0,-16.581284,15.425782,0.0,0.0,0.0,0.0,0.0,0.0,0.0,0.0,3.9030857,0.0,0.0,nan,0.0,0.0,0.0,0.015437707,-0.013129383,-0.0549937,0.0,0.0,0.0,0.0,0.0
335348879,335343756,0.0,0.0,0.0,-12.203806,14.762883,0.0,0.0,0.0,0.0,0.0,0.0,0.0,0.0,4.7229977,0.0,0.0,nan,0.0,0.0,0.0,0.02758398,-0.00432986,-0.056116305,0.0,0.0,0.0,0.0,0.0
335849177,335844032,0.0,0.0,0.0,-8.339724,14.563213,0.0,0.0,0.0,0.0,0.0,0.0,0.0,0.0,4.832201,0.0,0.0,nan,0.0,0.0,0.0,0.030006956,0.0063714385,-0.034067154,0.0,0.0,0.0,0.0,0.0
336346321,336344288,0.0,0.0,0.0,-1.0753254,14.042449,0.0,0.0,0.0,0.0,0.0,0.0,0.0,0.0,5.3742313,0.0,0.0,nan,0.0,0.0,0.0,0.020503853,0.010611832,-0.008570492,0.0,0.0,0.0,0.0,0.0
336849444,336844552,0.0,0.0,0.0,4.1011953,13.626591,0.0,0.0,0.0,0.0,0.0,0.0,0.0,0.0,5.664728,0.0,0.0,nan,0.0,0.0,0.0,0.014793046,0.018514797,0.006937176,0.0,0.0,0.0,0.0,0.0
337346610,337344817,0.0,0.0,0.0,10.862138,13.09624,0.0,0.0,0.0,0.0,0.0,0.0,0.0,0.0,4.6814137,0.0,0.0,nan,0.0,0.0,0.0,0.00773664,0.016018271,0.006655216,0.0,0.0,0.0,0.0,0.0
337846865,337845082,0.0,0.0,0.0,14.182546,12.809544,0.0,0.0,0.0,0.0,0.0,0.0,0.0,0.0,5.470892,0.0,0.0,nan,0.0,0.0,0.0,0.005989181,0.013371527,0.00598228,0.0,0.0,0.0,0.0,0.0
338350249,338345348,0.0,0.0,0.0,17.464405,12.147732,0.0,0.0,0.0,0.0,0.0,0.0,0.0,0.0,4.720644,0.0,0.0,nan,0.0,0.0,0.0,0.002833262,0.01134754,0.00944674,0.0,0.0,0.0,0.0,0.0
338847413,338845613,0.0,0.0,0.0,18.64476,11.495341,0.0,0.0,0.0,0.0,0.0,0.0,0.0,0.0,4.7790623,0.0,0.0,nan,0.0,0.0,0.0,0.0012993813,0.007562883,0.008956492,0.0,0.0,0.0,0.0,0.0
339347657,339345878,0.0,0.0,0.0,19.210833,10.04951,0.0,0.0,0.0,0.0,0.0,0.0,0.0,0.0,4.731985,0.0,0.0,nan,0.0,0.0,0.0,-0.0016039908,0.008110248,0.012341231,0.0,0.0,0.0,0.0,0.0
339848118,339846176,0.0,0.0,0.0,18.786495,8.773629,0.0,0.0,0.0,0.0,0.0,0.0,0.0,0.0,4.449915,0.0,0.0,nan,0.0,0.0,0.0,-0.0012673438,0.006737139,0.01626867,0.0,0.0,0.0,0.0,0.0
340348281,340346409,0.0,0.0,0.0,17.129593,6.5545144,0.0,0.0,0.0,0.0,0.0,0.0,0.0,0.0,3.9767132,0.0,0.0,nan,0.0,0.0,0.0,0.002380699,0.0017800089,0.01426816,0.0,0.0,0.0,0.0,0.0
340851538,340846674,0.0,0.0,0.0,15.386995,4.9989114,0.0,0.0,0.0,0.0,0.0,0.0,0.0,0.0,3.6901836,0.0,0.0,nan,0.0,0.0,0.0,0.005098209,-0.0026358552,0.015167475,0.0,0.0,0.0,0.0,0.0
341349033,341346940,0.0,0.0,0.0,12.087959,2.6632104,0.0,0.0,0.0,0.0,0.0,0.0,0.0,0.0,3.1258945,0.0,0.0,nan,0.0,0.0,0.0,0.006208673,-0.0044031166,0.019171864,0.0,0.0,0.0,0.0,0.0
341849191,341847205,0.0,0.0,0.0,9.477068,1.0560435,0.0,0.0,0.0,0.0,0.0,0.0,0.0,0.0,3.052866,0.0,0.0,nan,0.0,0.0,-0.08985877,0.0042283237,-0.008523826,0.015634358,0.0,0.0,0.0,0.0,0.0
342349514,342347470,0.0,0.0,0.0,4.924919,-1.5783012,0.0,0.0,0.0,0.0,0.0,0.0,0.0,0.0,1.2516117,0.0,0.0,nan,0.0,0.0,-0.08631897,0.0042283237,-0.008523826,0.015634358,0.0,0.0,0.0,0.0,0.0
342849610,342847736,0.0,0.0,0.0,1.5273154,-4.1043043,0.0,0.0,0.0,0.0,0.0,0.0,0.0,0.0,2.1682987,0.0,0.0,nan,0.0,0.0,0.27270603,0.008153498,-0.008131295,-0.002301842,0.0,0.0,0.0,0.0,0.0
343343422,343337996,0.0,0.0,0.0,-3.7236264,-9.559973,0.0,0.0,0.0,0.0,0.0,0.0,0.0,0.0,1.6983662,0.0,0.0,nan,0.0,0.0,0.27270603,0.009125099,-0.0057531595,-0.00021988153,0.0,0.0,0.0,0.0,0.0
343840118,343838261,0.0,0.0,0.0,-6.800649,-14.620335,0.0,0.0,0.0,0.0,0.0,0.0,0.0,0.0,-0.10738945,0.0,0.0,nan,0.0,0.0,0.27270603,0.019144222,-0.012417853,0.017951652,0.0,0.0,0.0,0.0,0.0
344340298,344338561,0.0,0.0,0.0,-10.157713,-23.345005,0.0,0.0,0.0,0.0,0.0,0.0,0.0,0.0,0.22839546,0.0,0.0,nan,0.0,0.0,0.27270603,0.015670002,-0.0076871812,0.013081431,0.0,0.0,0.0,0.0,0.0
344840701,344838791,0.0,0.0,0.0,-11.155695,-29.331041,0.0,0.0,0.0,0.0,0.0,0.0,0.0,0.0,-0.49572563,0.0,0.0,nan,0.0,0.0,0.27270603,0.020024486,-0.015392423,0.011775583,0.0,0.0,0.0,0.0,0.0
345341009,345339056,0.0,0.0,0.0,-11.145876,-38.194004,0.0,0.0,0.0,0.0,0.0,0.0,0.0,0.0,-1.539568,0.0,0.0,nan,0.0,0.0,0.27270603,0.017398912,-0.010723442,-0.0040617734,0.0,0.0,0.0,0.0,0.0
345844704,345839322,0.0,0.0,0.0,-9.963564,-44.15946,0.0,0.0,0.0,0.0,0.0,0.0,0.0,0.0,-2.0588932,0.0,0.0,nan,0.0,0.0,0.27270603,0.015004579,-0.011009961,0.002650112,0.0,0.0,0.0,0.0,0.0
346341441,346339587,0.0,0.0,0.0,-5.965954,-52.832092,0.0,0.0,0.0,0.0,0.0,0.0,0.0,0.0,-3.663866,0.0,0.0,nan,0.0,0.0,0.27270603,0.005823523,-0.012136519,0.0060027987,0.0,0.0,0.0,0.0,0.0
346841589,346839852,0.0,0.0,0.0,-1.5081708,-58.03135,0.0,0.0,0.0,0.0,0.0,0.0,0.0,0.0,-5.1476,0.0,0.0,nan,0.0,0.0,0.27270603,-0.0087634325,-0.017870516,0.011383424,0.0,0.0,0.0,0.0,0.0
347345313,347340117,0.0,0.0,0.0,7.9276385,-64.197845,0.0,0.0,0.0,0.0,0.0,0.0,0.0,0.0,-5.863035,0.0,0.0,nan,0.0,0.0,0.27270603,-0.011531085,-0.022989899,0.011426762,0.0,0.0,0.0,0.0,0.0
347845546,347840391,0.0,0.0,0.0,15.059494,-66.9134,0.0,0.0,0.0,0.0,0.0,0.0,0.0,0.0,-6.550955,0.0,0.0,nan,0.0,0.0,0.27270603,-0.011492878,-0.01818502,-0.0016597211,0.0,0.0,0.0,0.0,0.0
348342668,348340647,0.0,0.0,0.0,25.792234,-69.17382,0.0,0.0,0.0,0.0,0.0,0.0,0.0,0.0,-7.074835,0.0,0.0,nan,0.0,0.0,0.27270603,-0.0009874105,-0.008009195,-0.010645837,0.0,0.0,0.0,0.0,0.0
348846125,348840920,0.0,0.0,0.0,32.27425,-69.70417,0.0,0.0,0.0,0.0,0.0,0.0,0.0,0.0,-5.7796307,0.0,0.0,nan,0.0,0.0,0.27270603,0.00092464685,1.2174249e-05,-0.014926478,0.0,0.0,0.0,0.0,0.0
349342939,349341189,0.0,0.0,0.0,40.654003,-69.48369,0.0,0.0,0.0,0.0,0.0,0.0,0.0,0.0,-5.481085,0.0,0.0,nan,0.0,0.0,0.27270603,0.007784009,-0.0013742447,-0.021130055,0.0,0.0,0.0,0.0,0.0
349843602,349841453,0.0,0.0,0.0,45.199936,-68.46223,0.0,0.0,0.0,0.0,0.0,0.0,0.0,0.0,-5.755701,0.0,0.0,nan,0.0,0.0,0.27270603,0.0050373077,3.0115247e-05,-0.017457858,0.0,0.0,0.0,0.0,0.0
350346978,350341708,0.0,0.0,0.0,51.148937,-65.91525,0.0,0.0,0.0,0.0,0.0,0.0,0.0,0.0,-6.380987,0.0,0.0,nan,0.0,0.0,0.27270603,0.010107547,-0.002761811,-0.011927471,0.0,0.0,0.0,0.0,0.0
350843768,350841972,0.0,0.0,0.0,54.738335,-63.486027,0.0,0.0,0.0,0.0,0.0,0.0,0.0,0.0,-7.465269,0.0,0.0,nan,0.0,0.0,0.27270603,0.0075030625,-0.003279835,-0.010519594,0.0,0.0,0.0,0.0,0.0
351347564,351342237,0.0,0.0,0.0,59.69299,-58.56659,0.0,0.0,0.0,0.0,0.0,0.0,0.0,0.0,-4.7811203,0.0,0.0,nan,0.0,0.0,0.27270603,0.0058575273,0.00038455427,-0.012470245,0.0,0.0,0.0,0.0,0.0
351847716,351842503,0.0,0.0,0.0,62.60334,-54.461914,0.0,0.0,0.0,0.0,0.0,0.0,0.0,0.0,-4.969221,0.0,0.0,nan,0.0,0.0,0.27270603,0.0058557987,-6.80536e-05,-0.011599079,0.0,0.0,0.0,0.0,0.0
352344423,352342767,0.0,0.0,0.0,66.036575,-47.11645,0.0,0.0,0.0,0.0,0.0,0.0,0.0,0.0,-3.8151913,0.0,0.0,nan,0.0,0.0,0.27270603,0.004781306,-0.0031339824,-0.014511988,0.0,0.0,0.0,0.0,0.0
352848428,352843032,0.0,0.0,0.0,67.34049,-41.90726,0.0,0.0,0.0,0.0,0.0,0.0,0.0,0.0,-3.3570194,0.0,0.0,nan,0.0,0.0,0.27270603,0.0033220649,0.0002908334,-0.014833629,0.0,0.0,0.0,0.0,0.0
353345076,353343303,0.0,0.0,0.0,67.726944,-33.69673,0.0,0.0,0.0,0.0,0.0,0.0,0.0,0.0,-2.4620361,0.0,0.0,nan,0.0,0.0,0.27270603,0.0036446154,-0.002183631,-0.010457963,0.0,0.0,0.0,0.0,0.0
353845361,353843562,0.0,0.0,0.0,67.145386,-27.974304,0.0,0.0,0.0,0.0,0.0,0.0,0.0,0.0,-1.3066578,0.0,0.0,nan,0.0,0.0,0.27270603,0.0045665503,0.00019032508,-0.0148148835,0.0,0.0,0.0,0.0,0.0
354348993,354343827,0.0,0.0,0.0,65.31927,-19.091127,0.0,0.0,0.0,0.0,0.0,0.0,0.0,0.0,1.1721611,0.0,0.0,nan,0.0,0.0,0.27270603,0.008606166,-0.0038415343,-0.013920873,0.0,0.0,0.0,0.0,0.0
354849365,354844092,0.0,0.0,0.0,63.395466,-13.610801,0.0,0.0,0.0,0.0,0.0,0.0,0.0,0.0,1.0225677,0.0,0.0,nan,0.0,0.0,0.27270603,0.002199769,0.0062075034,-0.018490762,0.0,0.0,0.0,0.0,0.0
355346214,355344357,0.0,0.0,0.0,59.79039,-5.9053283,0.0,0.0,0.0,0.0,0.0,0.0,0.0,0.0,2.7661839,0.0,0.0,nan,0.0,0.0,0.27270603,0.0049361587,0.010208519,-0.030542374,0.0,0.0,0.0,0.0,0.0
355846407,355844622,0.0,0.0,0.0,57.024326,-1.3703448,0.0,0.0,0.0,0.0,0.0,0.0,0.0,0.0,2.2256203,0.0,0.0,nan,0.0,0.0,0.27270603,0.0013575554,0.009901086,-0.029343873,0.0,0.0,0.0,0.0,0.0
356350172,356344887,0.0,0.0,0.0,53.243946,4.8402796,0.0,0.0,0.0,0.0,0.0,0.0,0.0,0.0,3.5111637,0.0,0.0,nan,0.0,0.0,0.27270603,0.00059333444,0.0053534433,-0.022964314,0.0,0.0,0.0,0.0,0.0
356847023,356845152,0.0,0.0,0.0,51.02526,8.721979,0.0,0.0,0.0,0.0,0.0,0.0,0.0,0.0,3.1603622,0.0,0.0,nan,0.0,0.0,0.27270603,-0.00076910853,0.00044440106,-0.014376938,0.0,0.0,0.0,0.0,0.0
357350765,357345420,0.0,0.0,0.0,47.84516,14.722455,0.0,0.0,0.0,0.0,0.0,0.0,0.0,0.0,5.645446,0.0,0.0,nan,0.0,0.0,0.27270603,-0.0006917715,-0.0047273263,-0.013714701,0.0,0.0,0.0,0.0,0.0
357847549,357845681,0.0,0.0,0.0,45.49647,18.747244,0.0,0.0,0.0,0.0,0.0,0.0,0.0,0.0,5.300872,0.0,0.0,nan,0.0,0.0,0.27270603,-0.0010372996,0.0018625818,-0.018093169,0.0,0.0,0.0,0.0,0.0
358347692,358345946,0.0,0.0,0.0,41.335083,24.211771,0.0,0.0,0.0,0.0,0.0,0.0,0.0,0.0,4.649505,0.0,0.0,nan,0.0,0.0,0.27270603,0.002576977,0.017638646,-0.040714085,0.0,0.0,0.0,0.0,0.0
358851294,358846211,0.0,0.0,0.0,38.296764,27.044846,0.0,0.0,0.0,0.0,0.0,0.0,0.0,0.0,6.6324677,0.0,0.0,nan,0.0,0.0,0.27270603,0.008276194,0.02600263,-0.05001411,0.0,0.0,0.0,0.0,0.0
359351739,359346476,0.0,0.0,0.0,33.504803,29.638712,0.0,0.0,0.0,0.0,0.0,0.0,0.0,0.0,6.421115,0.0,0.0,nan,0.0,0.0,0.27270603,0.011366248,-0.004845936,-0.021160498,0.0,0.0,0.0,0.0,0.0
359852077,359846741,0.0,0.0,0.0,30.193827,30.600914,0.0,0.0,0.0,0.0,0.0,0.0,0.0,0.0,5.5141373,0.0,0.0,nan,0.0,0.0,0.27270603,0.0010181665,-0.005001854,-0.017934278,0.0,0.0,0.0,0.0,0.0
360348804,360347005,0.0,0.0,0.0,25.349136,32.04051,0.0,0.0,0.0,0.0,0.0,0.0,0.0,0.0,5.6452193,0.0,0.0,nan,0.0,0.0,0.27270603,0.008391231,0.0025370605,-0.03724946,0.0,0.0,0.0,0.0,0.0
360842497,360837265,0.0,0.0,0.0,22.212374,32.697624,0.0,0.0,0.0,0.0,0.0,0.0,0.0,0.0,4.887817,0.0,0.0,nan,0.0,0.0,0.27270603,0.0147536695,0.011240117,-0.04383132,0.0,0.0,0.0,0.0,0.0
