timestamp,timestamp_sample,xyz[0],xyz[1],xyz[2]
186846544,186845680,-0.013446603,-4.109816e-05,-0.0145772165
186851557,186850681,-0.0106232865,-0.0003230545,-0.0143695455
186869055,186868186,-0.004292722,-0.0008236653,-0.012480599
186886551,186885695,0.0051899925,-0.0015107613,-0.008003274
186906570,186905704,0.012561947,-0.0005658667,-0.006460565
186926579,186925713,0.016357388,-0.0019513782,-0.0026976967
186949090,186948224,0.010395416,-0.0024795467,0.0014823386
186966603,186965733,0.00516032,0.00094164343,0.0039821756
186986614,186985742,-0.0023921165,0.0007226743,0.006348905
187009122,187008253,-0.010685844,0.0008056631,0.008836818
187026632,187025761,-0.014471431,0.00075940543,0.009198094
187046628,187045771,-0.0046811546,-0.0009474788,0.008226231
187066655,187065780,-0.014787527,-0.0050980398,0.017346833
187089148,187088291,-0.029368564,-0.000885847,0.012493664
187106668,187105799,-0.017559003,0.008259401,0.009912894
187126679,187125809,-0.028432263,0.005804705,0.009651293
187149181,187148313,0.003587333,0.0010905585,0.015721384
187166710,187165828,0.00091898645,0.0019948967,0.013146569
187186695,187185838,0.0072867335,0.002247943,0.019659348
187206718,187205847,-0.0057114135,-0.0013195359,0.011859062
187229228,187228358,-0.0064956183,0.0010694818,-0.0013258891
187246723,187245866,0.0029365476,0.0071098097,-0.0033420888
187266750,187265883,0.031653132,-0.0013417044,-0.01304606
187286754,187285895,0.03331032,-0.0113198,-0.0150754005
187306765,187305895,0.010838319,-0.012739121,-0.023822024
187326779,187325907,0.009807704,-0.0038366374,-0.04258248
187346779,187345914,0.019619834,0.002107315,-0.041116998
187369294,187368427,0.014836065,-0.0056020464,-0.030943312
187386810,187385941,0.0117890155,-0.013726859,-0.028578615
187406816,187405950,-0.008171589,-0.013425065,-0.03369631
187426849,187425983,-0.017754512,-0.0023318771,-0.03948491
187449323,187448465,-0.015021356,0.004497056,-0.037052236
187466842,187465988,-0.018441638,-0.0021225358,-0.03954495
187486838,187485979,-0.024978379,-0.010435035,-0.03665823
187509351,187508493,-0.036518466,-0.010570083,-0.03916234
187526867,187525998,-0.03664578,-0.00027591444,-0.035938114
187546859,187546007,-0.02210622,0.0067736576,-0.02651604
187566878,187566017,-0.0030652029,0.0023081377,-0.017138569
187589398,187588531,-0.00071305933,-0.008748816,-0.011214693
187606904,187606036,-0.0037340645,-0.0107649835,-0.009748697
187626930,187626066,-0.010813537,0.00052302354,-0.010835653
187649433,187648556,-0.008464965,0.006668689,-0.010137877
187666922,187666065,-0.0068054907,0.002138888,-0.0028152107
187686931,187686074,-0.007407176,-0.0041129095,0.00029023492
187706946,187706084,-0.0056762025,-0.0035783383,0.0025235603
187729467,187728599,-0.012972989,0.0013064079,-0.003911471
187746954,187746103,-0.02045265,0.00082086195,-0.012579482
187766964,187766112,-0.030776603,-0.0003496746,-0.010722594
187789482,187788627,-0.024884522,-0.0012833589,-0.00797624
187806994,187806131,-0.023103068,0.0005875748,-0.0013375328
187826994,187826142,-0.011866965,0.00069449877,0.008588546
187847003,187846151,-0.0013728192,0.0028729206,0.020554032
187869513,187868661,-0.0070309965,0.004957567,0.03159066
187887043,187886176,-0.008112008,0.001814826,0.029235454
187907031,187906179,-0.02225335,0.0029821051,0.02118631
187929552,187928690,-0.02442731,0.007133993,0.010332219
187947050,187946198,-0.008875897,0.0059790295,-0.0045905635
187967067,187966207,0.0065105082,-0.003935467,-0.020994037
187987064,187986212,0.00952382,-0.008515288,-0.019747075
188009580,188008728,0.013499494,-0.0018789541,-0.019131212
188027088,188026236,0.008272079,0.0022442406,-0.008842469
188047103,188046246,-0.006923791,-0.0011622306,-0.008028173
188069626,188068753,-0.0062648915,-0.0035392242,-0.027303508
188087128,188086265,-0.0079481285,-0.0040852507,-0.03140573
188107130,188106278,-0.0016095387,-0.001987013,-0.019356558
188127136,188126284,0.003875307,-0.00015660556,0.0071561076
188149657,188148802,0.0077538025,0.0031234054,0.034123894
188167155,188166303,0.010164333,0.007985258,0.037983857
188187164,188186312,0.0107630575,0.0036739195,0.023621602
188209720,188208826,-0.005901813,8.940988e-05,0.011376121
188227192,188226331,-0.0028588793,0.00083030114,0.009738282
188247196,188246341,0.012291876,0.0069368137,0.012339904
188267217,188266350,0.01683115,0.0035865358,0.010583678
188289719,188288861,-0.012723067,-0.0046329885,-0.0005188416
188307255,188306397,-0.036023036,-0.005492133,-0.0051246737
188327271,188326416,-0.044392824,0.008117035,0.0060631004
188349763,188348890,-0.032780427,0.01546687,0.015155306
188367260,188366407,-0.012593914,0.006217301,0.0052122567
188387260,188386408,1.17789605e-05,-0.008676436,-0.009032121
188407285,188406421,0.008347252,-0.01073125,-0.018534958
188429780,188428928,0.011526668,-0.00012528338,-0.004359862
188447288,188446436,0.005721065,0.0051244134,0.0032879987
188467298,188466446,0.0030902482,0.00079930236,0.0064546163
188487307,188486455,0.0012191631,-0.00625872,0.0011007441
188504817,188503964,-0.0012358233,-0.007244494,-0.0057486705
188527334,188526474,-0.008165479,-0.0013644382,-0.0043632244
188547343,188546484,-0.009570799,0.0027983002,0.0022228612
188569848,188568992,0.00079522637,0.0020144475,0.006997006
188587355,188586503,0.008548839,0.0003097713,0.0055226423
188607368,188606516,-0.0052544847,-0.004062364,0.0047120354
188627393,188626522,-0.021607151,-0.004255106,-0.008683144
188644882,188644030,-0.043188237,0.00034104087,-0.016644815
188667423,188666541,-0.060615115,0.006816903,-0.024708537
188687443,188686576,-0.04959376,0.004612281,-0.021873033
188709913,188709061,-0.026677417,-0.005440437,-0.021306809
188727438,188726571,-0.0074612373,-0.010198913,-0.019361017
188747436,188746573,-0.013502207,-0.011329515,-0.021982204
188767462,188766594,-0.044892356,-0.007718106,-0.025617551
188784948,188784097,-0.038044866,-0.001549106,-0.021665689
188807499,188806637,-0.029470356,0.0030766176,-0.02305644
188827480,188826624,-0.0125761675,-0.0080883475,-0.015799873
188849980,188849128,0.018745052,-0.015086433,-0.014577902
188867510,188866640,-0.011401241,-0.00132148,0.020056887
188887514,188886646,0.01298842,0.007542197,0.017939743
188907530,188906655,0.042975433,-0.00082939316,0.006991719
188925020,188924163,0.03489813,-0.008624649,0.009381915
188947531,188946674,-0.0032391408,-8.2927e-05,0.021091718
188967545,188966684,-0.008551429,0.012077392,0.025022179
188990052,188989194,-0.01790369,0.011841551,0.012162851
189007560,189006703,-0.014721799,0.0061235297,0.021197258
189027583,189026712,-0.006622641,0.0034884666,0.015256884
189047589,189046725,-0.019355357,0.00844459,0.0065649278
189065086,189064234,0.005727119,0.0056280387,0.0012514917
189087602,189086741,-0.005130581,0.0044189272,-0.0040508187
189107607,189106750,-0.017161125,0.0021039299,0.004924514
189130134,189129261,0.008457165,0.000633801,-0.016701018
189147632,189146769,0.009777219,-0.00017548195,-0.008583359
189167631,189166779,0.0052581867,-0.0070541343,-0.008702958
189187648,189186788,-0.0018825616,-0.009767736,-0.02441538
189205149,189204297,-0.009385242,-0.006441443,-0.020241162
189227675,189226807,-0.01389766,-0.0003214539,-0.025729686
189247669,189246817,0.00220698,-0.006666141,-0.033688776
189270194,189269329,-0.004668762,-0.008528713,-0.03924053
189287695,189286836,0.0068056462,-0.01066283,-0.030423295
189307709,189306845,0.0032905904,-0.002891406,-0.005915332
189327717,189326857,-0.0054881363,0.0036801663,0.013857082
189345225,189344364,-0.0065591033,0.0018233974,0.027588306
189367726,189366874,-0.0012353203,0.0019670988,0.030302946
189387766,189386911,0.015705174,0.0067782793,0.020112073
189407746,189406893,0.013848883,0.011058389,0.019453686
189427771,189426903,-0.013940141,0.0014569361,-0.020866118
189447770,189446912,-0.046723865,0.0059101703,-0.025584469
189467780,189466922,-0.022423578,0.0030370299,-0.047198817
189485293,189484441,-0.0076944833,0.0053271647,0.0015959057
189507793,189506941,0.04446992,0.0028079236,0.028480774
189527803,189526950,0.052738342,0.007381425,0.058645684
189547812,189546960,-0.014508061,0.0023702052,0.05310205
189565329,189564468,-0.049502987,-0.0031956183,0.019482581
189587835,189586979,-0.04130825,0.0042342516,-0.004489894
189607843,189606988,-0.025741111,0.008893318,-0.024728546
189625354,189624497,-0.009782138,-0.0010471515,-0.031638578
189647862,189647010,-0.017485548,-0.022201493,-0.04620095
189667873,189667017,-0.038260218,-0.017904663,-0.05443405
189687890,189687027,-0.03966084,-0.0016043029,-0.043933194
189705394,189704535,-0.018708942,-0.0012386205,-0.04422513
189727905,189727046,-0.025867611,-0.010540249,-0.015966767
189747917,189747061,-0.01811619,-0.01977392,-0.011215799
189765427,189764563,0.003571789,-0.010921434,0.0009944853
189787934,189787074,0.0007923864,0.012182875,0.009801545
189807946,189807084,-0.019677255,0.016362378,0.00719369
189827960,189827093,-0.024150338,-0.0059970263,0.005586612
189845478,189844601,-0.016939774,-0.015354715,0.01701786
189867968,189867112,-0.02266216,-0.007909888,0.013977276
189887974,189887122,-0.018376976,0.00799898,-0.01015526
189905482,189904630,-0.00096258003,0.01122692,-0.030102069
189927993,189927141,0.0043810387,0.00055879995,-0.023255682
189948003,189947150,-0.0034579907,-0.0076401774,0.011145342
189968012,189967160,0.028157279,-0.006405435,0.012085048
189985527,189984668,0.026059307,-0.0015813507,0.021214975
190008035,190007179,0.02212413,0.0074039833,0.018105853
190028041,190027189,0.026640406,0.012582619,0.025630327
190045552,190044697,0.034106128,0.006329732,0.016044153
190068063,190067207,0.050533578,-0.0023026573,0.016141191
190088076,190087225,0.05493037,0.0010952514,0.008553341
190108108,190107243,0.027167665,0.007330929,0.011211358
190125587,190124735,0.03295595,0.0021625005,0.016234599
190148128,190147264,0.0692137,5.706615e-05,0.023340467
190168138,190167278,0.09950343,0.00894243,0.007472622
190185615,190184763,0.08144085,0.0082503725,-0.0012934859
190208150,190207281,0.0704594,-0.0041648834,-0.029513747
190228142,190227284,0.039319254,-0.0016362121,-0.023727205
190248153,190247293,0.0072368584,0.007357922,-0.014012354
190265661,190264802,0.018209962,0.014608411,-0.020987209
190288164,190287312,0.0071861395,0.015095393,-0.029072171
190308183,190307325,0.003420653,0.0031380984,-0.064763196
190325693,190324837,0.012857125,-0.005318203,-0.055715296
190348198,190347341,-0.009625442,-0.005534349,-0.052219424
190368230,190367350,0.04205511,-0.00869118,-0.098977245
190388236,190387360,0.036644418,-0.0016425987,-0.09184871
190405723,190404868,0.040357858,-0.013356136,-0.11431385
190428255,190427390,0.037410643,-0.019913508,-0.08490751
190448276,190447416,-0.0007664278,-0.016054565,-0.058302917
190465753,190464897,0.02195589,-0.014553693,-0.06101099
190485758,190484907,0.007589996,-0.0028092344,-0.034670457
190508275,190507417,0.00860337,-0.0020753648,-0.005476817
190528287,190527426,0.0055968384,0.0009834917,0.010257424
190545787,190544935,-0.012492641,0.0011381125,0.03818304
190568305,190567446,-0.022319721,0.012217674,0.04338375
190588318,190587455,-0.0070576393,0.011528297,0.037574526
190605816,190604964,-0.011382931,0.008076659,0.037188124
190625828,190624976,-0.0021698617,0.00790689,0.03636208
190648336,190647484,0.03409287,0.008992134,0.0256925
190668353,190667497,0.045220762,0.014748195,0.024074793
190685858,190685002,0.02971964,0.010489595,0.017592119
190708365,190707513,0.008505863,-0.0034074457,0.016391685
190728389,190727522,-0.018504338,-0.0047836057,0.035428062
190745882,190745030,-0.023301732,0.003971902,0.0292637
190765896,190765040,-0.04284366,0.00065006176,0.03721015
190788424,190787550,-0.02422015,-0.018075444,0.03839612
190808422,190807562,-0.025683627,-0.011777051,0.043168593
190825941,190825086,0.00200367,-0.0025159311,0.047141537
190848440,190847579,0.019467883,0.019114234,0.03013072
190868469,190867588,0.022719419,0.013402469,0.02065884
190885956,190885104,0.009513441,0.003733668,0.009278474
190905966,190905107,0.0049697342,-0.0069215284,0.011585892
190928479,190927617,-0.029773831,-0.0014500044,0.0066424026
190948486,190947634,-0.015848996,0.004156254,0.013711927
190965988,190965135,-0.020977672,0.008568991,0.015366256
190988498,190987646,-0.012586212,0.006953444,0.019147478
191008507,191007655,-0.017622657,0.007395147,0.016687322
191026025,191025163,-0.01674568,0.005303195,0.019155355
191046040,191045174,0.0019911348,0.0036721602,0.015320662
191068540,191067687,0.013146637,-0.004213099,0.0018981422
191088546,191087694,0.007742339,-0.0013198234,0.010775731
191106059,191105202,-0.01001022,0.0025580032,0.0066909506
191128565,191127712,-0.009689178,-0.0018384092,0.0006554266
191148581,191147729,-0.010359354,-0.003472614,-0.012794512
191166085,191165230,-0.013279243,-0.0074179005,-0.005542196
191186102,191185247,-0.007891574,-0.003305362,0.007987302
191208603,191207751,-0.00812873,0.0022446518,0.015809603
191228623,191227760,-0.01811291,0.0061223223,0.015034415
191246124,191245268,-0.01716964,0.002139933,0.014457568
191268642,191267779,-0.021327015,-0.0025953474,0.014880309
191288641,191287789,-0.021945613,-0.0013645448,0.023824608
191306154,191305297,-0.026194107,-0.0014941738,0.02309797
191326162,191325306,-0.020561716,-0.002841169,0.016843092
191348673,191347817,-0.010210226,0.0022506737,0.015770424
191368681,191367827,-0.0066149808,0.0067794723,0.021864299
191386187,191385335,0.010368822,0.0044298572,0.034460112
191408702,191407846,0.0072235893,0.0033382108,0.036785282
191428715,191427855,0.0069341213,-0.00068952516,0.028486596
191446225,191445364,0.014192694,0.0009207719,0.017228477
191466241,191465380,0.0116576515,0.002488821,0.0031372204
191488745,191487887,0.023092147,0.0005173207,-0.004363077
191506264,191505406,0.024883024,-0.0026368685,-0.0055563534
191526254,191525402,0.017843297,-0.0016767291,-0.0014395817
191546267,191545415,0.015951289,0.0018616415,0.0009700843
191568794,191567929,0.010363854,-0.000522646,-0.001719065
191586282,191585431,-0.0006319111,-0.002568949,0.0037539352
191606296,191605440,-0.02083025,0.001152177,0.014338334
191628820,191627951,-0.009747824,0.0015940028,0.010418981
191646334,191645475,0.0047677,0.0043190243,0.01939166
191666321,191665469,0.008060105,0.0048076455,0.017471967
191686331,191685479,0.0037990336,0.0021440778,0.0152061805
191708846,191707989,0.00998209,-0.0011354869,0.00040658098
191726355,191725497,0.016835012,-0.0026551434,-0.00031229923
191746390,191745524,0.009571691,-0.0021880097,0.0026900661
191768878,191768017,0.0042936234,-0.00072928926,0.008376674
191786386,191785526,0.011536895,0.003275706,0.01647582
191806407,191805535,0.0041908016,0.0022953465,0.023773573
191826405,191825545,-0.0030981705,0.0013193479,0.027845144
191848923,191848055,-0.0022790295,-0.0043346807,0.010245542
191866441,191865564,-0.014300326,-0.010142123,-0.0051260227
191886445,191885573,-0.021831872,-0.011617579,-0.017422318
191908936,191908084,-0.017417464,-0.0022530085,-0.022215407
191926453,191925593,-0.0065641394,0.012535627,-0.010821933
191946462,191945602,0.007124857,0.009368036,-0.011997608
191966478,191965613,0.004083178,-0.0053603565,-0.0059959064
191988974,191988122,-0.01583721,-0.012950848,-0.008405848
192006485,192005631,-0.018811358,-0.006306253,-0.015136532
192026502,192025646,-0.031737406,0.0031304,-0.025462385
192049003,192048151,-0.035383873,0.0014900463,-0.031503502
192066536,192065660,-0.036825255,-0.006548401,-0.027441744
192086521,192085669,-0.019880794,-0.0134366,-0.022696942
192106533,192105678,-0.027212774,-0.003070483,0.0014503734
192129041,192128189,-0.040778227,0.0081019765,0.022981806
192146549,192145697,-0.018952243,0.0115726795,0.014218886
192166569,192165713,-0.02752665,0.011414141,0.007704743
192189070,192188218,-0.045725305,0.0044026435,-0.0016527589
192206613,192205744,-0.03926683,-0.001995448,-0.0098854285
192226632,192225773,-0.032700896,-0.00387498,-0.01613799
192246608,192245752,-0.028793735,-0.0060472493,-0.021496685
192269126,192268255,-0.038405277,-0.012886222,-0.008394242
192286623,192285764,-0.057272825,-0.017474677,0.00072682713
192306647,192305773,-0.034484677,-0.018635726,-0.007803784
192329154,192328284,-0.021140367,-0.017426653,-0.00010286179
192346684,192345812,-0.030946644,-0.016216343,-0.0059786136
192366660,192365802,-0.01304016,-0.016387424,-0.025662465
192386669,192385812,-0.001081512,-0.004711059,-0.021758568
192409181,192408322,-0.00795778,0.0066448958,-0.026684197
192426700,192425831,-0.0021254888,0.0037843469,-0.03286675
192446719,192445840,0.00469819,0.00087070174,-0.019545384
192469225,192468351,-0.0221575,0.0009352277,0.0017860682
192486720,192485859,-0.01361111,-0.0087883435,0.0075404844
192506726,192505869,0.013221877,-0.0046545505,-0.009376152
192526739,192525878,0.016067114,0.005588564,-0.004672495
192549250,192548392,0.01642237,0.0073407874,0.0045610797
192566749,192565897,0.029981356,0.004084916,-0.012356883
192586773,192585907,0.009718609,0.002243864,-0.005123573
192606768,192605916,-0.0011622903,-0.00404906,0.009364943
192629286,192628428,0.02866152,-0.008780811,-0.0021264802
192646791,192645935,0.045663025,0.011393512,0.017290806
192666797,192665945,0.19274816,0.016911428,-0.15287378
192689308,192688456,0.13496295,0.041970845,-0.13819605
192706814,192705962,0.14904945,-0.016501501,-0.2135445
192726837,192725974,0.08006505,-0.0356497,-0.22474885
192746839,192745983,0.05177253,-0.051819947,-0.19886376
192769346,192768494,-0.018216131,-0.046578106,-0.14681475
192786859,192786002,-0.042981133,-0.044818502,-0.060630467
192806866,192806012,-0.086954504,-0.02671608,-0.032282688
192829397,192828526,-0.09347953,0.0050989394,-0.035135835
192846886,192846034,-0.04786246,0.002181411,-0.038712632
192866895,192866040,-0.03592531,-0.0058846916,-0.058930997
192886902,192886050,-0.02745585,-0.014297989,-0.05342976
192909458,192908587,-0.031991996,-0.014702934,-0.04986922
192926921,192926069,-0.055029158,-0.01052739,-0.02791096
192946934,192946078,-0.055569768,0.0023505394,0.0012465867
192969475,192968589,-0.03071118,0.017054426,0.021201031
192986960,192986097,0.0044696815,0.023000432,0.045655403
193006969,193006111,0.032929547,0.018785762,0.06200451
193026969,193026116,0.044127513,0.014907345,0.06622789
193049490,193048627,0.04588693,0.017572222,0.07086178
193066991,193066136,0.03515887,0.017165728,0.06556746
193086997,193086145,0.021704875,0.017346237,0.057687663
193109513,193108656,0.019414779,0.013155611,0.05310839
193127022,193126164,0.016383328,0.013771931,0.054636408
193147044,193146183,0.013697639,0.015523813,0.056619596
193167035,193166183,0.018738998,0.015056301,0.054943465
193189561,193188694,0.047097705,0.0055029425,0.04971102
193207058,193206202,0.07543652,-0.0002843046,0.050561726
193227064,193226212,0.059909936,-0.007542653,0.05945926
193249584,193248722,0.049363904,-0.0067987335,0.076667145
193267086,193266231,0.05872545,0.0028606243,0.08697291
193287100,193286241,0.07992774,0.01572629,0.093230225
193307121,193306250,0.09000831,0.021892596,0.09103768
193329618,193328761,0.069928125,0.023996761,0.07659432
193347121,193346269,0.04108149,0.021065634,0.066290416
193367131,193366279,0.021791669,0.009934211,0.044480722
193389662,193388789,0.012740456,-0.0012994894,0.019232297
193407182,193406312,0.022210738,-0.005293132,0.0015912484
193427169,193426312,0.03634463,-0.011171359,-0.011952902
193447173,193446317,0.0138283195,-0.012015,-0.014836775
193469698,193468828,-0.037580136,0.009697943,-0.022929052
193487194,193486336,-0.02257084,0.012459029,-0.02310214
193507218,193506345,0.00444615,-0.008123032,-0.02622374
193529718,193528856,0.01759214,-0.014589237,-0.022721125
193547238,193546372,0.03039492,-0.008090412,-0.015262921
193567266,193566394,0.029754274,0.011587968,-0.007835911
193587276,193586421,0.045684066,0.019234702,0.0003953345
193609754,193608894,-0.009053673,0.023809534,-0.01637423
193627277,193626403,-0.058023892,0.011476984,-0.05796999
193647275,193646412,-0.06958949,-0.007322724,-0.07801132
193669780,193668923,-0.05369731,-0.012176761,-0.081088975
193684782,193683930,-0.035312727,-0.005768288,-0.054961286
193707300,193706441,-0.01680083,0.0017479259,-0.03023985
193727312,193726450,-0.055004474,-0.0021890132,-0.026504016
193749813,193748961,-0.028509779,-0.0100004,-0.02875006
193767342,193766477,0.0065205223,-0.023679066,-0.029286258
193787336,193786479,0.055653337,-0.022053668,0.026794914
193807350,193806489,0.114746675,0.013342936,0.06558987
193824856,193824004,0.13760006,0.040086005,0.09230647
193847377,193846508,0.004318985,0.057619646,0.08900445
193867375,193866517,-0.032233972,0.032285955,0.07464589
193889880,193889028,-0.08620672,-0.011677426,0.07102247
193907396,193906536,-0.08401585,-0.023998259,0.08143167
193927412,193926546,-0.051968317,-0.025934232,0.09096656
193947415,193946555,0.019269478,-0.0007908144,0.0901781
193964923,193964064,-0.011095103,0.04013105,0.078047924
193987447,193986574,-0.0016561532,0.03268203,0.071163096
194007444,194006584,-0.0063224086,0.0053174766,0.08063167
194029954,194029095,0.018976418,-0.019255573,0.090300806
194047469,194046603,0.032641232,-0.007950989,0.07747564
194067472,194066612,0.04564949,0.019321712,0.07479433
194087474,194086622,0.04382663,0.016833799,0.05452909
194104985,194104131,0.05441849,-0.0015918809,0.053319056
194127493,194126641,0.020790288,-0.006188982,0.052251026
194147503,194146651,0.00019701605,0.001260778,0.04158015
194170013,194169161,-0.004426541,0.0020033042,0.03413598
194187531,194186669,-0.0036419558,0.001093191,0.023420416
194207531,194206679,-0.0088681495,0.004062542,0.004391605
194227545,194226688,-0.03715216,0.0017790874,-0.022965562
194245099,194244243,-0.031798154,-0.006103299,-0.036857985
194267563,194266708,-0.0235965,-0.01101305,-0.037577122
194287571,194286717,-0.019953068,-0.004858928,-0.035793692
194310103,194309235,-0.013302837,0.0034116586,-0.023171054
194327607,194326739,-0.0035726614,0.005433143,-0.005893156
194347598,194346746,-0.004173849,0.001308966,-3.844696e-06
194367607,194366755,0.02176941,-0.0034323018,0.0073308805
194385116,194384264,0.028028214,-0.0019970909,-0.002745277
194407629,194406774,0.0039231125,-0.0011412717,-0.019242866
194427643,194426784,-0.010175761,-0.0030271271,-0.021474928
194450182,194449295,-2.1923865e-05,-0.005216124,-0.0034503287
194467682,194466816,0.020957476,-0.00038482458,0.01864393
194487665,194486813,0.030906944,0.010102786,0.020585932
194507678,194506822,0.012951053,0.008876702,0.004494909
194525189,194524332,-0.008899807,-0.0014567472,-0.006104232
194547724,194546841,-0.00440794,-0.017599542,-0.010361117
194567703,194566851,0.006696499,-0.012142431,-0.0040709577
194590232,194589361,0.008516622,0.0041153105,5.0980125e-05
194607722,194606870,0.0037110893,0.0092241345,0.0014613661
194627732,194626879,0.0014045321,-0.0002883263,-0.004387125
194647749,194646889,0.0014360956,-0.005025985,0.007389513
194665259,194664397,0.017975215,-0.010606921,-0.013801296
194687783,194686925,0.040284045,-0.0039483514,-0.034342825
194707774,194706918,0.029160392,-0.00910903,-0.024569208
194727779,194726927,-0.009964354,-0.0019203747,-0.0018577029
194745292,194744436,-0.019435517,0.0065846206,0.0019208885
194767803,194766946,-0.0038563106,-0.0016564078,-0.029311504
194787808,194786956,0.018306708,-0.017865704,-0.033279136
194805317,194804464,0.00021297287,-0.01435749,-0.015699968
194827860,194826997,0.018927366,-0.0014544592,-0.023820927
194847837,194846985,0.017878814,0.010382562,-0.020561256
194867850,194866994,0.007421855,0.017368184,-0.02842435
194885354,194884502,-0.0074207704,0.012325612,-0.016276497
194907865,194907013,-0.009975636,0.0030046543,-0.003454704
194927892,194927037,0.009249919,-0.0020220014,0.0042647654
194945428,194944557,0.014654531,-0.0005515551,0.01528083
194967938,194967073,-0.005436428,0.006647033,0.022738647
194987925,194987058,-0.009142679,0.015448543,0.012187696
195007921,195007061,-0.002247595,0.007953814,-5.3868313e-05
195025443,195024569,0.00517373,-0.01942701,-0.021365015
195047943,195047080,-0.035871297,-0.0019130142,-0.0072728093
195067948,195067092,-0.07629031,0.045280613,0.00867471
195085460,195084598,-0.03248377,0.05645216,-0.027358435
195107970,195107109,0.01483525,-0.009980638,-0.036565136
195127976,195127118,-0.017859785,-0.051643714,-0.02429531
195147985,195147127,-0.00034473385,-0.038306862,-0.00944513
195165491,195164636,0.008586391,0.0017910174,0.0106992405
195188004,195187147,0.0025362512,0.021962488,0.012431332
195208017,195207156,0.018704355,-0.00028322288,0.010752251
195225516,195224664,0.03787314,-0.021120884,0.019130211
195248060,195247175,0.025747316,-0.011625811,0.028173152
195268041,195267185,-0.0009805721,0.008109166,0.03407348
195288046,195287194,-0.0017659187,0.01261358,0.017076612
195305570,195304711,-0.013497025,0.011941577,0.005237664
195328068,195327213,-0.0041770614,0.0045342445,0.012594288
195348075,195347223,0.002263121,0.008431345,0.020183966
195365589,195364731,-0.00828991,0.008004662,0.018145887
195388105,195387242,-0.013103065,-0.004901853,0.00067079003
195408107,195407251,-0.0043546148,-0.011160395,-0.0060617668
195428121,195427265,0.0011928799,-0.006824232,-0.01276978
195445622,195444770,-0.00051228364,0.0016470326,-0.019680459
195468136,195467280,-0.0060815574,-0.0016421779,-0.01390205
195488145,195487290,-0.009937915,-0.0049030427,-0.017194778
195505650,195504798,-0.0011378409,-0.0063563325,-0.01846174
195528219,195527346,0.0070166634,-0.0036992799,-0.010001033
195548174,195547318,0.00515671,0.0058495086,-0.003382616
195568180,195567328,-0.0009392088,0.0051671932,-0.0051141996
195585692,195584840,0.009800257,-0.004112833,-0.011346646
195608208,195607347,0.015012846,-0.01102616,-0.016598012
195628219,195627356,0.014797768,-0.0027109496,-0.0034899586
195645788,195644933,-0.009178042,0.010852803,0.00034042413
195665729,195664869,0.0005379853,0.0066289594,-0.0010218092
195688254,195687395,-0.0023055028,-0.0022398308,-0.008351398
195708248,195707396,-0.0013909227,-0.0076224944,0.0036170871
195725773,195724903,0.014539415,-0.008029841,-0.00032659626
195748270,195747418,0.010646717,-0.0047768746,0.002959222
195768276,195767424,0.004073249,0.003462594,0.0041695177
195785799,195784939,-0.01047723,0.016548242,0.011874395
195805799,195804941,-0.017193504,0.004683123,0.0045764423
195828305,195827452,0.022211764,-0.01655053,-0.025019344
195848314,195847462,0.0007425822,-0.006792502,-0.022202624
195865827,195864970,4.1204832e-05,0.0017162887,-0.029186517
195888339,195887483,-0.0010471499,0.0049718455,-0.013566343
195908342,195907490,0.00043487828,0.0033641588,-0.01430114
195925860,195924999,-0.008725792,0.006343543,0.0012801572
195945869,195945008,-0.01091045,0.005184667,0.012054961
195968371,195967519,-0.005225084,0.0036663283,0.006996518
195988389,195987529,-0.004987059,-0.0017302424,-0.0029862511
196005916,196005061,-0.00090490404,-0.0061562723,-0.0049093603
196028409,196027548,-0.0009359828,-0.0070238374,-0.0006061228
196048429,196047557,0.0026499259,0.0036124964,0.007908777
196065924,196065066,0.0008592704,0.010897414,0.009169262
196085952,196085088,-0.0024593233,0.013164095,0.025817493
196108459,196107586,0.0032189277,-0.0070536193,0.015589169
196128463,196127595,0.008042756,-0.010185397,0.006896641
196145960,196145104,-0.011952241,-0.011292091,0.0052786926
196168469,196167614,-0.010428369,0.0030678157,-0.0053047137
196188480,196187624,-0.018621909,0.014980602,-0.0061787954
196205984,196205132,-0.01861388,0.007885584,-0.0043076007
196225994,196225142,-0.018615963,-0.0012612111,-0.0051889294
196248533,196247669,-0.002603319,-0.016136099,-0.008378916
196268521,196267668,0.0019220968,-0.00905287,-0.009157477
196286022,196285170,-0.009305432,0.012930286,0.00014173197
196308559,196307699,0.010055665,0.017421624,0.013265837
196328586,196327728,0.01100772,0.0060717924,0.014954901
196346058,196345199,0.0099988915,-0.0063396366,0.003909993
196366070,196365217,0.014771517,-0.013861443,0.0045515485
196388595,196387740,0.012549497,-0.012193902,0.006160075
196408591,196407729,0.012475782,0.004289443,0.014130402
196426098,196425237,0.02128101,0.008667308,0.018294698
196448615,196447748,0.0069911336,0.012238052,0.026343271
196468619,196467758,0.0043235538,-0.015878454,0.013150535
196486118,196485266,0.0062572127,-0.0075613977,0.0024367478
196506128,196505276,-0.013602886,0.004463559,-0.0028081175
196528666,196527790,0.011318403,-0.005579967,-0.006319332
196548658,196547796,0.0017001069,-0.0077789575,-0.008720955
196566156,196565304,0.0016352565,-0.0149178915,-0.014775138
196588692,196587821,0.004767937,-0.015731065,-0.008275629
196608686,196607825,0.029959362,-0.003069276,-0.0097497385
196626188,196625336,0.018742824,0.010980685,-0.00402193
196646205,196645342,0.007991198,0.0052658306,0.0011972837
196668707,196667854,-0.00693801,-0.008982127,-0.014158995
196688715,196687863,0.009944603,-0.007656415,-0.010511011
196706242,196705387,0.013636879,0.002765661,0.00014263524
196728740,196727882,0.008987563,0.0002925847,0.0049975566
196748743,196747891,0.0147112245,-0.010278493,0.00569896
196766252,196765400,0.010001472,-0.011764897,0.0021735157
196786277,196785409,0.01746163,-0.0075297626,-0.011892712
196808772,196807920,-0.0034705852,-0.0051381886,-0.013287176
196828782,196827929,-0.011319973,-0.005909769,0.0076013287
196846292,196845438,0.01888332,-0.0029270211,0.0045048683
196866311,196865448,0.03328198,-0.008363235,0.0023239236
196888810,196887958,0.0049824836,-0.0081861755,0.008330959
196906343,196905484,0.003523352,0.0017308107,-0.004947305
196926355,196925496,0.0129171945,0.0061444473,-0.004593768
196948839,196947987,0.012704181,-0.02205175,-0.004095685
196968866,196967997,0.022678273,-0.025806857,-0.010094361
196986394,196985529,0.015354667,-0.0075902026,-0.018838912
197006403,197005539,0.0006198069,0.0035691746,-0.008271496
197028879,197028025,0.0025649653,0.00033840002,-0.005606852
197046413,197045541,0.007975045,-0.0018864699,-0.01030644
197066426,197065553,-0.006124292,0.0029764343,-0.017608233
197088906,197088054,0.018172968,0.0049173813,-0.009702942
197108915,197108063,0.0035996893,-0.002432215,-0.019893976
197126440,197125572,-0.027177928,-0.008602858,-0.01594674
197146460,197145581,-0.043435164,-0.0027556652,-0.038637567
197168948,197168092,0.03925273,0.0148160625,-0.03598401
197186471,197185600,-0.01628128,0.008663932,-0.032151803
197206480,197205610,-0.022439927,-0.014369637,-0.013177205
197228976,197228121,-0.005299624,-0.007050669,-0.0072919396
197248991,197248139,-0.014589547,0.0043429118,-0.009025374
197266513,197265639,0.0012083129,0.008663762,-0.0005235901
197286508,197285648,0.0028578509,0.01218509,-0.024948057
197309011,197308159,0.020258231,0.015345078,-0.017652322
197326523,197325668,0.018827163,0.015414754,-0.013528906
197346529,197345677,0.020360127,0.00064765,-0.0060739648
197369050,197368188,0.033298206,-0.011737778,0.012178002
197386558,197385703,0.0062999884,-0.012049815,0.0043850187
197406565,197405706,9.247654e-05,-0.0077103274,0.0046334914
197426582,197425720,0.0023961244,0.0067321085,-0.0022051516
197449082,197448226,-0.01260941,0.026628977,-0.014964549
197466590,197465738,-0.003996384,0.03772558,-0.010549131
197486603,197485744,-0.0072219814,0.030895978,-0.011691979
197509124,197508255,-0.011806902,0.0046060556,-0.00039729092
197529120,197528264,-0.0053030658,-0.014562099,0.0063134804
197546625,197545773,0.0051553245,-0.015043007,0.0022861438
197566634,197565782,0.024321532,-0.0018041612,-0.0014252111
197589145,197588293,0.028558882,0.004083461,-0.004765992
197606656,197605801,0.016459271,0.009800823,0.00010672593
197626681,197625811,0.02189617,-0.0049581663,-0.003900775
197649198,197648332,0.036466055,-0.012010694,-0.0032708743
197666699,197665830,0.009933875,-0.005649615,0.0019985035
197686695,197685839,0.0023687659,0.0066945045,-0.0002748603
197706703,197705851,-0.020688862,0.015936349,0.00026269708
197729228,197728367,-0.024603643,0.0062286262,-0.004831137
197746720,197745868,-0.0117417425,-0.0028975261,-0.004719513
197766766,197765911,0.0064464607,-0.007053399,-0.0030245497
197786758,197785892,0.022991272,-0.0045995065,-0.0022983113
197806759,197805897,0.010432446,0.0009299914,0.005927616
197826761,197825908,0.0048092925,-0.0022528768,0.004021917
197846777,197845916,0.01708478,-0.007174433,0.010010404
197869285,197868427,0.0068954024,-0.0019626329,0.010799965
197886791,197885935,0.021324292,-0.0035869782,0.009595194
197906800,197905945,0.027727835,-0.0020229858,0.0027572913
197926806,197925954,0.008251213,-0.0036841463,0.006379877
197949323,197948465,0.0014077395,-0.003222282,0.0066497866
197966826,197965973,-0.0005800877,0.002280822,0.0054059355
197986838,197985983,-2.3657558e-05,0.008979847,0.008885572
198009350,198008494,0.005205146,0.0047411616,0.007390018
198026854,198026002,0.007885211,-0.00019053358,-0.00026481124
198046864,198046012,0.010230405,-0.0061804424,0.0012296585
198066879,198066023,-0.008472674,-0.0011405959,0.0026358175
198089405,198088532,-0.0056917835,0.005913123,-0.0049054185
198106900,198106040,0.002529252,0.0056712567,-0.009946128
198126917,198126062,0.0048821326,-0.006611706,-0.008002502
198149428,198148560,0.0066527817,-0.008955462,0.00038180125
198166925,198166069,0.016169613,-0.0030362825,-0.0036967432
198186936,198186079,0.0051481705,0.0034086327,0.0063062725
198206949,198206088,-0.011452611,0.0027476642,0.015772212
198229460,198228599,-0.004470858,0.004910431,0.018217858
198246959,198246107,4.377085e-05,0.0071551874,0.022987237
198266970,198266118,0.0010789068,0.0055812374,0.020679254
198289480,198288627,0.012974465,-0.005720142,0.0204462
198306992,198306137,0.0050818548,-0.012043624,0.030377937
198327005,198326153,-0.013891911,-0.0059108497,0.03862334
198347029,198346170,-0.01826726,0.005367436,0.041637674
198369522,198368670,-0.024732143,0.013855769,0.017175864
198387068,198386213,0.0016312941,0.0147708,-0.00010737602
198407043,198406191,0.010618759,0.0073550106,0.0053290185
198429563,198428694,-0.022400111,0.0013395951,-0.011081266
198447063,198446203,-0.006897711,-0.0041944236,-0.005159539
198467075,198466213,0.007036793,-0.010281941,-0.002024743
198487101,198486246,0.0051870113,-0.005437756,0.011147875
198509585,198508733,-0.005675831,-0.0003303287,0.0050915107
198527100,198526241,-0.032268837,0.002958457,-0.0101513695
198547114,198546251,-0.039552815,0.008988085,-0.013240092
198569642,198568761,-0.047728516,-0.00721546,-0.01942512
198587127,198586270,-0.01818468,-0.006301618,-0.0056024934
198607140,198606279,-0.0108905025,-0.0066458485,0.0044928826
198627164,198626293,-0.0044091376,-0.008853268,0.010899104
198649656,198648800,-0.0076968865,-0.00033720024,0.020009574
198667179,198666312,0.0018425834,0.0024340502,0.02804218
198687170,198686318,0.005408694,0.009911783,0.03616395
198709691,198708829,0.006848954,0.002572714,0.025695125
198727191,198726337,0.0059046135,0.0014261889,0.014724376
198747207,198746346,-0.0055385157,-0.0090510575,0.010161292
198767219,198766356,0.0020177893,-0.009955786,0.001122418
198789719,198788868,0.00492868,-0.0010982142,-0.006113588
198807250,198806384,-0.018845659,0.005813788,-0.01305425
198827280,198826425,0.0098466715,0.0034533693,-0.012596328
198849754,198848901,0.012352597,-0.0072244043,-0.0076549044
198864763,198863907,0.021581624,-0.01223501,0.007993053
198887275,198886414,0.029330395,-0.0011958528,0.019398596
198907281,198906423,0.022154417,0.011368745,0.019209776
198929791,198928934,0.02906329,-0.0009476185,0.019601895
198947295,198946442,0.02762557,-0.0076055694,0.017054928
198967304,198966452,0.02468624,-0.0025453987,0.0061480585
198987317,198986462,0.024467845,0.0013922045,0.001886035
199004829,199003977,0.034880903,-0.0064695305,-0.008827027
199027337,199026481,0.041954342,-0.0275536,-0.0057253554
199047350,199046490,0.036962435,-0.017714942,-0.010311807
199069893,199069038,0.024969636,0.0024088793,-0.007869027
199087365,199086513,0.008366007,0.010511416,-0.005430242
199107371,199106519,0.020196702,0.0022310775,0.00016624949
199127406,199126528,0.02475384,-0.010038524,0.012452807
199144903,199144037,0.019832898,-0.0079747625,0.01326695
199167420,199166551,-0.0076325,0.011201909,-0.0023395736
199187437,199186564,-0.008071528,0.005555931,-0.01938306
199209926,199209068,0.016892044,-0.0038088136,-0.01824572
199227451,199226588,-0.0015412145,-0.0069476725,-0.007287757
199247461,199246586,0.01152235,-0.011791649,0.0017329896
199267465,199266596,0.01715533,-0.0040050265,0.0070818295
199284961,199284104,0.020748654,-0.0016581608,0.004277613
199307483,199306615,0.017164057,0.0039266036,0.0012247184
199327476,199326624,0.016788743,0.0013833272,0.0034330527
199349996,199349135,0.0059935423,0.0047985036,0.0025466345
199367504,199366650,-0.0023222687,0.0065267775,0.0056831646
199387509,199386657,-0.002461235,-0.0024992954,0.008278008
199407514,199406662,-0.02255223,-0.0063717896,0.012882207
199425030,199424175,-0.031642325,-0.0009259669,0.008949446
199447539,199446686,-0.03775538,0.01811387,0.010043175
199467550,199466691,-0.024138793,0.018317407,0.015317499
199490056,199489202,-0.0017651349,0.0014631307,0.011333213
199507571,199506711,0.003341921,-0.012911771,0.01144648
199527596,199526734,0.0010745291,-0.0053011524,0.0025506064
199547582,199546730,-0.001168543,0.0042453804,0.0058245757
199565090,199564238,-0.013515892,0.01091064,-0.0018131605
199587605,199586749,-0.014475987,0.010744121,0.005133567
199607619,199606758,-0.03748306,0.0049684774,0.0024843046
199625119,199624267,0.011928912,-0.0028289128,0.0013383153
199647654,199646778,-0.035562236,0.007015067,-0.0004924282
199665181,199664311,-0.11273783,0.022285473,-0.020890286
199687657,199686803,-0.15212731,0.04876778,-0.019426363
199705157,199704305,-0.025972683,0.023019738,-0.028043654
199727694,199726839,0.038409613,-0.032879982,-0.014401903
199747709,199746850,0.011794568,-0.05072471,0.02083793
199770191,199769336,0.024371538,-0.0036373353,0.031273983
199787717,199786852,-0.012987844,0.03776529,0.013426195
199807715,199806854,0.01294138,0.020518145,0.0067269844
199827734,199826870,0.027084438,-0.011879441,0.010886183
199845242,199844378,0.05690817,-0.029670594,0.010796436
199867756,199866887,0.029576687,-0.011006845,0.003559347
199887780,199886919,-0.0033344505,0.010686605,0.00036083165
199907771,199906902,-0.05070818,0.027400307,-0.007890838
199925271,199924411,-0.07598978,0.02525265,-0.014127663
199947779,199946921,-0.0009794668,0.007092333,-0.0059820004
199967794,199966931,0.02815364,-0.022026984,0.0020311198
199985291,199984439,0.025447743,-0.03183978,0.008239801
200007812,200006950,0.004635257,-0.0012597627,0.015752114
200025330,200024475,0.00285371,0.021295398,0.011507545
200047827,200046969,0.016955169,0.01019266,0.0052651046
200065348,200064478,0.009907873,-0.013991847,-0.0021174515
200087848,200086996,0.02070999,-0.015930153,-0.0074661225
200107853,200106998,0.0074072094,-0.003583131,-0.00807469
200125358,200124506,0.0019448461,-0.0017592221,-0.0054548285
200147869,200147017,0.02087413,-0.0045199855,0.016431432
200167880,200167027,0.022175219,-0.008176551,0.017853465
200187888,200187036,-0.004856408,0.0105364,0.014844352
200205420,200204545,0.0049860156,0.012897771,0.01601117
200227928,200227056,0.010010653,-0.0029982985,0.013787743
200247914,200247061,0.0044163703,-0.0058089322,0.016858634
200265444,200264577,0.011435051,-0.0012901233,0.016946847
200287937,200287084,0.0075080297,-8.324819e-05,0.009561299
200307961,200307101,0.012790365,-0.0006293928,0.0062442645
200327960,200327103,0.009053043,0.0016181418,0.00031371543
200345468,200344612,-0.0010722133,-0.0011113649,0.0009668291
200367985,200367122,0.002564563,-0.00073235703,-0.0048948843
200387985,200387132,0.00044875714,0.0011645795,-0.0077093286
200405507,200404652,0.0004969433,0.0038418104,-0.008651353
200428008,200427151,0.019522918,-0.003861383,-0.0007379682
200445552,200444692,0.0081867585,-0.012857355,0.0017345159
200465541,200464683,-0.008330783,-0.0035361564,-0.011141604
200485538,200484679,-0.00026815702,0.008864198,-0.009995422
200508045,200507190,-0.0022268197,-0.0025843661,-0.0093293805
200528055,200527203,0.015251251,-0.010930059,-0.0013097797
200545559,200544708,0.009774159,-0.0047519514,0.004533615
200568074,200567222,-0.0031732628,0.0048159687,0.0035610935
200588112,200587257,-0.0075395475,0.0053460724,0.0070519974
200608096,200607245,-0.005382662,0.00031936602,0.0064113787
200625607,200624746,0.001136764,0.002807335,0.00118699
200648125,200647257,0.0062839882,-0.0009660728,0.00018185105
200668124,200667266,0.011193471,-0.0008852063,-0.0004898856
200685632,200684775,0.0008156754,-0.000632267,0.0041683237
200708148,200707285,-0.01689767,0.0044519464,0.0059201247
200728147,200727295,-0.022811854,-0.006566912,0.0063125268
200748156,200747305,0.022597982,-0.015101731,-0.007216541
200765669,200764813,0.014886609,-0.0011117876,0.0051106103
200788193,200787324,0.0023288222,0.0072932458,-0.0029716855
200805700,200804833,0.013500888,0.0010285978,0.0073204264
200825698,200824846,0.005824078,-0.014740815,-0.0038298136
200848214,200847353,0.016505972,-0.023070853,0.0047662016
200865720,200864861,0.022211324,-0.01684874,0.010753062
200885727,200884871,0.0017726623,0.0013187451,0.017825369
200905730,200904879,0.0033189724,0.0072562825,0.027362045
200928266,200927411,-0.0009534139,-0.00681001,0.027257698
200945752,200944899,-0.009836351,-0.010076324,0.027582482
200965761,200964909,-0.021660862,-0.008214561,0.015038567
200985775,200984919,-0.03851067,0.011755428,0.009469196
201008287,201007430,-0.098089516,0.02433899,-0.010779214
201025795,201024938,-0.12190735,0.024461735,-0.027856182
201045808,201044948,-0.087254904,0.020660633,-0.031494126
201068335,201067480,0.002718755,-0.0072199074,-0.036787294
201085850,201084992,0.022640431,-0.02204516,-0.019536415
201105833,201104976,0.010312702,-0.021647593,-0.0060345447
201125843,201124986,0.0779493,-0.0051987227,0.007040397
201148363,201147504,0.032489706,0.0011886738,0.0126206735
201165860,201165008,0.0208124,0.004420588,0.013913296
201185869,201185015,-0.012679618,0.005741101,-0.001018161
201208403,201207525,-0.00060398586,-0.0027516875,-0.005716115
201225890,201225034,0.007972594,-0.008657873,-0.005847302
201245899,201245043,0.008210451,-0.008588915,0.00088646397
201265905,201265053,-0.020696867,0.022971395,0.007928312
201288440,201287571,-0.012731596,0.022788,0.007862617
201305932,201305072,0.0038842596,-0.004913217,0.022537693
201325934,201325082,-0.0036761037,-0.02320346,0.012161952
201348472,201347601,-0.025123151,0.01962192,0.018226512
201365957,201365101,-0.031160174,0.038881224,0.011027691
201385963,201385111,0.0031044197,0.008264214,-0.0037801205
201405976,201405120,0.014664875,-0.017281244,0.008738525
201428498,201427632,0.017479805,-0.015166268,-0.006131262
201446001,201445145,-0.0076367985,0.0059753843,-0.007444257
201466002,201465149,0.010400328,0.0068425513,-0.018172774
201488512,201487660,0.014360295,-0.012080191,-0.015306694
201506036,201505168,0.00040949744,-0.022770837,-0.008586823
201526030,201525178,-0.046218287,-0.013080687,-0.014285211
201546043,201545188,-0.026423737,0.011724068,-0.0012273531
201568555,201567698,-0.027914714,0.002810503,0.008895955
201586069,201585217,0.020843254,-0.017494548,0.015667247
201606073,201605216,-0.02538194,-0.0019064104,0.014693061
201628580,201627727,-0.002414619,0.010472977,-7.518037e-05
201646109,201645236,-0.005484096,0.012347905,-0.01413808
201666097,201665245,-0.037511565,-0.00081681693,-0.012993791
201686107,201685255,-0.05092098,-0.008357062,-0.019265942
201708623,201707766,0.0038767247,-0.009282096,-0.032806918
201726134,201725283,0.028411092,-0.008847275,-0.038469877
201746142,201745287,0.047766007,-0.01751184,-0.031129047
201768664,201767795,0.019725325,-0.020598112,-0.016421862
201786205,201785343,-0.010946703,-0.007846614,-0.010946089
201806198,201805336,-0.009521803,0.016331337,-0.004930484
201826233,201825363,0.001286656,0.022847397,-0.0024954549
201848685,201847833,0.013185433,0.011964654,0.009030949
201866213,201865341,-0.0027764963,0.0032158731,0.037424263
201886218,201885351,0.0057811043,0.004866958,0.04494454
201908718,201907862,-0.010276417,0.024319002,0.053621255
201928724,201927871,-0.0025447449,0.015545923,0.037411932
201946240,201945388,0.039642185,0.008908749,0.03560196
201966249,201965392,0.022257475,0.015315886,0.03961648
201988759,201987900,-0.005017808,0.021928756,0.039360423
202006270,202005409,0.019859752,0.0091845235,0.034077734
202026285,202025418,0.0494057,-0.020100674,0.018083774
202046289,202045428,0.023751993,-0.01388872,0.018831259
202068814,202067938,0.025602639,0.012993777,0.012445513
202086304,202085447,0.031213759,0.018261207,0.007954933
202106314,202105457,0.027208075,-0.0006911812,0.0031065065
202128823,202127967,-0.01206272,-0.012151293,-0.0013631264
202146375,202145515,-0.025203357,-0.0017849139,-0.0079615135
202166342,202165485,-0.030923033,0.009038144,-0.018954001
202186347,202185495,-0.0023970092,-0.004772184,-0.02155331
202208858,202208006,0.02383958,-0.017948195,-0.024192274
202226370,202225514,0.018635277,-0.018989738,-0.015829867
202246390,202245524,0.015303729,-0.005487037,-0.038955603
202268891,202268035,-0.011081536,-0.00848317,-0.06063764
202286403,202285543,-0.0023717133,-0.018449415,-0.07244174
202306428,202305559,-0.03256962,-0.020139033,-0.07390268
202326429,202325562,-0.024405094,-0.01998586,-0.061769687
202348936,202348081,-0.043065697,-0.005476705,-0.051668346
202366442,202365581,-0.036562905,0.0029763486,-0.024774637
202386458,202385591,-0.03644339,0.010018428,0.0035262057
202408954,202408102,-0.030261928,0.012027512,0.033422172
202426471,202425610,-0.0075123645,0.00740957,0.06804989
202446472,202445620,0.02415993,0.010206174,0.0794482
202466482,202465629,0.07938162,0.016446225,0.074436
202489024,202488162,0.06548191,0.009280449,0.044285756
202506501,202505649,0.051346928,-0.0028269687,0.023808962
202526511,202525658,0.046651833,-0.013908546,0.020721886
202549032,202548169,-0.008223974,-0.013919964,-0.0017377039
202566544,202565678,-0.047954667,-0.008019251,-0.024499167
202586539,202585687,-0.025752107,-0.0139136575,-0.05340765
202606549,202605697,-0.014555166,-0.014300502,-0.072078764
202629061,202628208,-0.03205653,-0.015362081,-0.07183464
202646572,202645716,-0.040146932,0.002598389,-0.071473695
202666581,202665725,-0.02879265,0.0038792463,-0.06915342
202689122,202688236,-0.0469632,0.0015790141,-0.053063046
202706612,202705746,-0.03857029,-0.0005671371,-0.046822093
202726610,202725754,-0.031339817,0.003664174,-0.032518186
202746616,202745764,-0.09478805,0.023095265,-0.021149607
202769133,202768275,-0.024432221,0.02064773,-0.026811203
202786639,202785783,-0.0020032667,0.0039362726,-0.010384265
202806653,202805793,0.00923409,-0.012721511,-0.012548154
202829182,202828311,-0.004039641,-0.010659185,0.0055408087
202846681,202845812,-0.02450425,-0.007624273,0.014096554
202866674,202865822,-0.0044081,0.0014258849,-0.00043694236
202886683,202885831,0.02424358,0.008242039,-0.0059247366
202909201,202908342,0.034186646,0.0028482836,-0.014259277
202926705,202925851,0.0131102,0.0035563756,-0.02151868
202946716,202945860,0.008056873,-0.0054125744,-0.024534509
202969234,202968371,-0.010094583,-0.00696122,-0.032937683
202989241,202988389,0.021941794,-0.0043841107,-0.036398116
203006745,203005893,0.036769878,-0.0014373192,-0.036318615
203026751,203025899,0.033026867,0.0031054646,-0.03388733
203049272,203048410,0.06427297,0.015710367,-0.047556724
203066770,203065918,0.02199456,0.012174809,-0.017773848
203086780,203085928,-0.0026079707,-0.018394796,-0.021160033
203106795,203105940,-0.031244986,-0.025835248,-0.010698519
203129306,203128448,-0.014583192,0.006339466,-0.018616904
203146813,203145958,0.026857829,0.02735413,-0.011095223
203166844,203165983,0.05759048,0.012347329,0.03627133
203189333,203188481,0.011359733,-0.0071163382,0.09089517
203206881,203206022,-0.019920597,-0.002457872,0.11107408
203226854,203226002,-0.052923188,0.008472521,0.12054504
203246873,203246004,-0.066621915,0.002561415,0.1304142
203269367,203268515,-0.0405379,0.0098191295,0.1105795
203286886,203286024,0.0070830975,0.018785438,0.10270718
203306892,203306033,0.02655411,0.030200686,0.10194606
203329412,203328544,0.039714824,0.021017624,0.08353981
203346910,203346053,0.086406514,-0.010375902,0.07728093
203366924,203366062,0.06522376,-0.011862854,0.06396311
203386929,203386072,0.051052533,-0.0012836687,0.043375254
203409469,203408607,0.0068801306,0.009014013,0.019921489
203426949,203426091,-0.02711913,0.010398496,0.005399327
203446958,203446101,-0.048548833,0.007776672,-0.008330487
203469480,203468614,-0.06535764,-0.006592595,-0.02507677
203486977,203486120,-0.060038015,-0.0108159585,-0.029889297
203506997,203506129,-0.031457502,-0.0018255832,-0.042952757
203527002,203526139,0.011391487,-0.0011890919,-0.04708783
203549506,203548654,0.03632446,-0.013332435,-0.044867463
203567017,203566159,0.054952957,-0.017405633,-0.045287944
203587024,203586168,0.05764403,-0.012158581,-0.04568587
203609531,203608679,0.042712003,-0.009216159,-0.043209635
203627048,203626187,0.012236979,-0.0033563091,-0.03735937
203647053,203646197,-0.014212097,-8.2314655e-05,-0.033080045
203667062,203666206,-0.038631883,-0.0018084538,-0.02706166
203689569,203688717,-0.04868422,-0.0018520532,-0.017177505
203707081,203706226,-0.044565786,0.0027642194,-0.011067457
203727091,203726240,-0.030676005,0.0025528357,-0.0004798258
203749619,203748746,-0.0009861768,0.0022968724,0.008553381
203767124,203766255,0.017168907,0.004662496,0.013381431
203787124,203786264,0.033539552,0.00047154314,0.019925674
203807126,203806274,0.036623094,-0.0001520387,0.025956392
203829659,203828788,0.022897145,0.0042899563,0.026727825
203847148,203846293,0.010287471,0.0046454426,0.024823876
203867160,203866303,-0.0092048105,0.0032693385,0.02174659
203889692,203888826,-0.027072212,0.0030710925,0.016596457
203907195,203906329,-0.02846571,0.0037878007,0.011595902
203927188,203926332,-0.02368624,0.0026583318,0.008221833
203947200,203946342,-0.013235619,0.0012604634,0.003053756
203969712,203968852,0.0061406754,0.00032230682,-0.002418044
203987227,203986361,0.016816985,-0.0019474826,-0.00595201
204007231,204006370,0.02532742,-0.0038084737,-0.010352547
204029755,204028881,0.022512512,-0.0034965128,-0.012854761
204047252,204046396,0.018690826,-0.0038194251,-0.015488092
204067259,204066403,0.0042260974,-0.0027347999,-0.015182033
204087261,204086409,-0.005848057,-0.0014874253,-0.016334062
204109787,204108927,-0.016464643,-0.0010703043,-0.013854707
204127284,204126428,-0.01674542,-0.0011642987,-0.010282587
204147294,204146441,-0.013162577,-0.00072835555,-0.006119966
204167300,204166448,-0.004102413,-0.0005717682,-0.0019651293
204184817,204183956,0.0043334407,-0.0006792994,0.0025498366
204207319,204206467,0.01194693,0.00010941876,0.0075546475
204227329,204226476,0.017570779,0.0022280742,0.010806171
204249843,204248987,0.011777277,0.0011859911,0.012040585
204267350,204266498,0.004161123,0.0008218756,0.012141393
204287361,204286505,-0.004018885,0.0023780258,0.011308357
204307372,204306515,-0.011975552,0.002934151,0.010780581
204324875,204324023,-0.012560226,0.0014917754,0.00860437
204347402,204346534,-0.0091651045,0.0024063617,0.0057126586
204367411,204366544,-0.0056860154,-0.0006962156,0.0018006003
204389907,204389054,0.0034215278,-0.0018185866,-0.0030831918
204407423,204406563,0.00491949,-0.00072349684,-0.003984403
204427439,204426573,0.008405688,-0.0015387184,-0.005484042
204447450,204446582,0.006290619,-0.0015541206,-0.008128791
204464952,204464091,0.003219622,-0.003245764,-0.008882851
204487462,204486602,-0.0025940423,-0.0025045315,-0.010329529
204507469,204506617,-0.007932537,-0.0008378503,-0.0085860845
204529979,204529122,-0.00896582,-0.0008375991,-0.0058361846
204547499,204546644,-0.008453802,0.00023267051,-0.0044758487
204567530,204566666,-0.0024623487,0.00068974314,-0.002349421
204587553,204586692,0.0010846835,0.0006182238,0.0006964301
204605010,204604158,0.004904079,0.00066296523,0.0030955276
204627527,204626669,0.008419951,0.00010149635,0.005520303
204647549,204646679,0.009790133,-0.0005341048,0.0064213225
204670045,204669193,0.0039747776,0.0010637287,0.006348961
204687555,204686698,0.0015064201,0.0023956276,0.007344621
204707569,204706707,-0.004253641,0.00211128,0.004839299
204727575,204726717,-0.008683561,0.00148247,0.004445754
204745094,204744236,-0.005964696,8.6546526e-05,0.0027279342
204767594,204766736,-0.0036636395,-0.0010671273,0.0001347776
204787607,204786746,0.0024588713,-0.001681915,-0.0008873273
204810130,204809257,0.005571436,-0.0019862477,-0.00253926
204827633,204826765,0.0074243643,-0.002723801,-0.0035221188
204847636,204846775,0.010832696,-0.0013020642,-0.0053077405
204867642,204866784,0.006847988,-0.0011363709,-0.005741095
204885145,204884293,-0.00045337767,-0.0008160674,-0.005577474
204907656,204906804,-0.003805831,-0.000398452,-0.0038294022
204927665,204926813,-0.006984473,0.0013378724,-0.0026245136
204950192,204949324,-0.0076500066,-0.0005546308,-0.0001894146
204967695,204966833,-0.00538272,0.00024568508,-0.00014271258
204987695,204986843,0.0011968832,-1.8789433e-06,0.0029655967
205007704,205006852,0.0023111405,0.0011308026,0.0036934318
205025222,205024361,0.003618473,0.0014435065,0.004836347
205047728,205046871,0.0061031366,0.00033117874,0.004892658
205067737,205066881,0.0025083565,0.0012233749,0.0042233756
205090249,205089397,-0.0031843516,0.00019343395,0.0041555734
205105272,205104409,-0.0026963942,0.00020502764,0.003605457
205127762,205126910,-0.0058223107,0.0009495429,0.0017535889
205147772,205146919,-0.0050505204,-0.0001502076,0.00097643246
205165299,205164435,-0.004070795,-0.0015495669,-0.0015652978
205187791,205186939,-0.0009430391,-0.0015698867,-0.002732319
205207804,205206948,0.00160774,-0.00077566184,-0.0041020904
205227817,205226958,0.004829683,-0.0011942021,-0.004322611
205245345,205244484,0.005476863,-0.0021314782,-0.005027464
205267834,205266977,0.006585701,-0.0010748643,-0.004876368
205287850,205286987,0.0005506624,-0.0005705576,-0.0035880965
205305368,205304509,-0.0054924926,0.0006438356,-0.0033915748
205327859,205327007,-0.007559382,0.000671874,-0.0015664864
205347868,205347016,-0.006355178,0.0004698617,-0.00034765375
205367899,205367039,-0.0047524627,-4.8288726e-05,0.0010023207
205385402,205384534,-0.0018414919,0.00051499554,0.0023723836
205407897,205407045,0.0017598695,0.00016351527,0.0030793543
205427911,205427055,0.0064099454,0.0005326235,0.0048219003
205445429,205444557,0.005195008,-0.0012109457,0.004068834
205467931,205467075,0.006914396,-0.00041549263,0.0040811845
205487939,205487083,0.0041478937,0.00068115955,0.002898968
205507950,205507094,0.00093449384,0.00056196813,0.0006634388
205525472,205524602,-0.0046833274,0.00027790683,0.00042707316
205547965,205547112,-0.0041509382,-0.00051656034,-0.0007818958
205567975,205567122,-0.004428953,0.00059465953,-0.0010006957
205585483,205584631,-0.0017635585,-0.000772549,-0.0028709609
205607994,205607141,0.0006840589,-0.0017036302,-0.003509157
205628008,205627151,0.0054641073,-0.0014444275,-0.0042356686
205648020,205647161,0.0025621178,-0.0014656617,-0.0034357822
205665537,205664669,0.0021570006,-0.0011389765,-0.002915296
205688036,205687180,0.002123093,-0.0003491501,-0.0014825447
205708042,205707190,0.00011240221,0.00059890235,-0.0010339534
205725554,205724702,-0.004139856,-2.1386135e-05,0.0005086646
205748065,205747209,-0.0041503687,-0.00019483163,0.0013431241
205768071,205767219,-0.0045003253,0.00059087644,0.0027243504
205788084,205787229,-0.0026167277,0.0014200389,0.0037236034
205805594,205804741,-0.0016925578,0.0013493667,0.0034669118
205828110,205827248,0.0048435465,-0.00023649423,0.003597729
205848113,205847257,0.0049046115,-4.2915402e-05,0.0036687052
205865626,205864766,0.0048547103,0.0018220216,0.0037122085
205888152,205887282,0.002712389,3.680348e-05,0.0023814482
205908140,205907288,0.0014866872,-0.0007634671,0.00065480295
205928183,205927316,-0.0018904447,0.0007788015,-0.0012876429
205945660,205944808,0.0015668808,0.00030682824,-0.0015403129
205968212,205967348,-0.00057706167,-0.00094920147,-0.0020776205
205988188,205987332,-0.0024029717,-0.00076714804,-0.0027338099
206005685,206004833,-0.00021813126,-0.0012739431,-0.003139093
206028220,206027344,0.0017153929,-0.0011280519,-0.003268269
206048224,206047354,0.0022793938,-0.0013479935,-0.0029388322
206068233,206067364,0.0025860763,-0.0006349781,-0.0022208137
206085728,206084872,0.0026060583,0.00022219808,-0.0006054532
206108253,206107393,0.002196379,-0.000386415,0.0008770755
206128259,206127395,0.0009984514,0.00028884635,0.0019775555
206145767,206144904,0.0021467092,-0.00030568492,0.0022191352
206165771,206164911,-0.0016560233,0.00037380905,0.0022723651
206188282,206187421,-0.0038418078,-0.00015691202,0.0038404316
206208294,206207431,-0.0026642648,0.00065957505,0.0023138048
206225798,206224940,-0.00037674123,0.00036992758,0.0024126605
206248312,206247450,0.0003503632,0.00019919488,0.0022556838
206268329,206267460,0.0031791183,0.00012557325,0.0005288892
206285821,206284969,1.623627e-05,0.0005928435,2.6397298e-05
206305837,206304982,0.00084332353,-0.0013514017,-0.0008861557
206328345,206327493,-0.0013701544,-0.0003814677,-0.00093372655
206348381,206347506,5.7968486e-05,-0.0009868119,-0.0024052088
206365860,206365007,0.00027618214,-0.00091165275,-0.0022229184
206388371,206387519,-0.0013420986,-0.00037348742,-0.002838933
206408395,206407528,-0.0050550206,-0.0004983802,-0.0028611303
206425892,206425036,-0.0022667893,-0.00028877723,-0.0019071703
206445902,206445046,-0.0012512127,-0.0011312591,-0.0016708677
206468424,206467557,0.0016665884,0.00014247972,0.0004015041
206488437,206487574,0.005363416,-0.00069049775,0.00025922843
206505954,206505095,0.004805805,-0.00014915335,-0.00010391246
206528457,206527586,0.00051729067,0.00059053535,0.0017251807
206548464,206547595,-0.0016494942,-0.00045817991,0.00101563
206565962,206565106,-0.0049607405,0.0013945515,0.0024667012
206585967,206585115,-0.0051602563,0.0016245452,0.0023432975
206608480,206607624,-0.0052673384,0.0014025335,0.0019191982
206628486,206627634,-0.0030365852,-0.0003414689,0.0016318006
206646027,206645172,0.0014617868,0.00034406089,0.001326997
206668509,206667657,-0.0026402748,-0.0008633014,-0.0003284816
206688515,206687663,-0.02150449,-0.0014861764,0.0025929736
206706028,206705171,0.01701203,-0.021850932,0.009260173
206726048,206725185,0.028472077,-0.011862089,0.03779945
206748545,206747692,0.016718345,0.0064955964,0.027210072
206768555,206767701,0.0037612354,0.017606806,0.03424753
206786078,206785210,-0.0059185126,-0.010191564,0.01568488
206808573,206807721,-0.0021404875,-0.019856567,0.0118900575
206828587,206827730,-0.0022372517,-0.00980876,0.0014291229
206846146,206845291,-0.005871983,0.008404483,0.00017303941
206866110,206865249,-0.0032616737,0.01446624,4.025671e-06
206888611,206887759,0.0023510377,-0.0021552404,-0.0022327036
206908628,206907769,0.005944127,-0.013817332,-0.005091089
206926146,206925278,0.0085007,-0.012979277,-0.004694339
206948652,206947788,0.00047303434,0.0011061677,-0.014376599
206968651,206967798,0.00075191905,0.0025865745,-0.016911853
206986159,206985307,-0.0018804055,-0.0010216818,-0.017280452
207006172,207005317,0.008783227,-0.0043304805,-0.01644907
207028700,207027841,0.012603616,0.0044846395,-0.0131583335
207048703,207047837,-0.0008485134,0.0035885475,-0.022173667
207066222,207065349,-0.0060860873,-0.014853451,-0.015668035
207088708,207087856,0.00096645893,-0.02760169,-0.011462743
207108718,207107866,-0.01033781,-0.004815104,-0.008266129
207126235,207125381,-0.022420498,0.009812576,-0.0028907536
207146252,207145397,-0.024291921,0.0108619,0.008218486
207168765,207167895,-0.01963632,0.010026245,0.010670774
207188765,207187909,0.0024969527,-0.0019419764,0.008330781
207206267,207205415,0.011250209,-0.012092963,0.010024319
207226278,207225423,0.010663497,-0.007921028,0.0065571917
207248787,207247935,0.0020475239,0.01013579,0.004950677
207266301,207265442,-0.0059954002,0.012753277,0.008396022
207286311,207285459,-0.0035981745,0.00491338,0.009617537
207308826,207307973,-0.0126454225,-0.005015784,0.007740937
207328870,207328009,-0.0038948818,-0.0067309705,0.007328867
207346333,207345481,-0.0040096245,0.008924303,0.009178232
207366343,207365491,0.0006066072,0.015100135,0.0019498878
