timestamp,timestamp_sample,gyro_device_id,gyro_bias[0],gyro_bias[1],gyro_bias[2],gyro_bias_limit,gyro_bias_variance[0],gyro_bias_variance[1],gyro_bias_variance[2],accel_device_id,accel_bias[0],accel_bias[1],accel_bias[2],accel_bias_limit,accel_bias_variance[0],accel_bias_variance[1],accel_bias_variance[2],mag_device_id,mag_bias[0],mag_bias[1],mag_bias[2],mag_bias_limit,mag_bias_variance[0],mag_bias_variance[1],mag_bias_variance[2],gyro_bias_valid,accel_bias_valid,mag_bias_valid
185019753,185017304,2162698,0.00010756478,-0.00074012403,6.619592e-05,0.34906584,2.0427795e-09,2.045834e-09,3.305616e-09,2162698,0.0,0.0,0.037235837,0.4,0.00039980863,0.00039980863,4.9976074e-06,1114122,0.0,0.0,0.0,0.5,0.0,0.0,0.0,1,1,0
197645384,197643318,2162698,0.000107284504,-0.0007234401,8.110732e-05,0.34906584,2.056048e-09,2.058836e-09,3.3066843e-09,2162698,0.0,0.0,0.038250804,0.4,0.00039980892,0.00039980892,4.997611e-06,1114122,0.0,0.0,0.0,0.5,0.0,0.0,0.0,1,1,0
199366033,199364143,2162698,0.00011185243,-0.0007213197,9.150226e-05,0.34906584,2.0680306e-09,2.0706517e-09,3.307755e-09,2162698,0.0,0.0,0.039276708,0.4,0.0003998081,0.0003998081,4.997601e-06,1114122,0.0,0.0,0.0,0.5,0.0,0.0,0.0,1,1,0
200546769,200544708,2162698,0.0001155002,-0.0007208154,0.000100023535,0.34906584,2.0659752e-09,2.0685453e-09,3.3053962e-09,2162698,0.0,0.0,0.04030202,0.4,0.0003997972,0.0003997972,4.997464e-06,1114122,0.0,0.0,0.0,0.5,0.0,0.0,0.0,1,1,0
201997263,201995404,2162698,0.00011951696,-0.000722154,0.000107433756,0.34906584,2.0710376e-09,2.0736173e-09,3.3069445e-09,2162698,0.0,0.0,0.041335568,0.4,0.00039980936,0.00039980936,4.9976165e-06,1114122,0.0,0.0,0.0,0.5,0.0,0.0,0.0,1,1,0
230321290,230319232,2162698,0.00023322791,-0.0008875011,0.00028282704,0.34906584,2.0619348e-09,2.064576e-09,3.3078609e-09,2162698,0.0,0.0,0.040249806,0.4,0.00039980208,0.00039980208,4.9975256e-06,1114122,0.0,0.0,0.0,0.5,0.0,0.0,0.0,1,1,0
230861693,230859500,2162698,0.00023582262,-0.00089615403,0.0002841243,0.34906584,2.0559359e-09,2.0585897e-09,3.3068792e-09,2162698,0.0,0.0,0.039142936,0.4,0.00039980197,0.00039980197,4.997524e-06,1114122,0.0,0.0,0.0,0.5,0.0,0.0,0.0,1,1,0
231291563,231289714,2162698,0.0002373799,-0.0009009607,0.00028365248,0.34906584,2.0588815e-09,2.061538e-09,3.3074978e-09,2162698,0.0,0.0,0.038132034,0.4,0.00039979242,0.00039979242,4.997405e-06,1114122,0.0,0.0,0.0,0.5,0.0,0.0,0.0,1,1,0
231671859,231669904,2162698,0.00023897605,-0.0009052763,0.00028327235,0.34906584,2.056931e-09,2.0596023e-09,3.3074958e-09,2162698,0.0,0.0,0.037005108,0.4,0.00039980185,0.00039980185,4.997523e-06,1114122,0.0,0.0,0.0,0.5,0.0,0.0,0.0,1,1,0
231992127,231990069,2162698,0.00023972908,-0.0009070387,0.0002830439,0.34906584,2.0689217e-09,2.071573e-09,3.3078122e-09,2162698,0.0,0.0,0.035927907,0.4,0.00039980194,0.00039980194,4.997524e-06,1114122,0.0,0.0,0.0,0.5,0.0,0.0,0.0,1,1,0
232312111,232310221,2162698,0.00024149934,-0.0009101183,0.00028377507,0.34906584,2.0609332e-09,2.0636168e-09,3.3080712e-09,2162698,0.0,0.0,0.034810986,0.4,0.00039980173,0.00039980173,4.997521e-06,1114122,0.0,0.0,0.0,0.5,0.0,0.0,0.0,1,1,0
232632579,232630417,2162698,0.00024238232,-0.00091177155,0.00028443962,0.34906584,2.0729267e-09,2.0755861e-09,3.3062797e-09,2162698,0.0,0.0,0.033793494,0.4,0.00039980153,0.00039980153,4.9975188e-06,1114122,0.0,0.0,0.0,0.5,0.0,0.0,0.0,1,1,0
232952647,232950540,2162698,0.00024457448,-0.0009150243,0.00028381762,0.34906584,2.0649522e-09,2.0676458e-09,3.3065377e-09,2162698,0.0,0.0,0.03270347,0.4,0.00039980205,0.00039980205,4.997525e-06,1114122,0.0,0.0,0.0,0.5,0.0,0.0,0.0,1,1,0
233222889,233220674,2162698,0.00024566616,-0.0009164863,0.00028468634,0.34906584,2.0719528e-09,2.074638e-09,3.3060803e-09,2162698,0.0,0.0,0.031636573,0.4,0.0003998015,0.0003998015,4.9975183e-06,1114122,0.0,0.0,0.0,0.5,0.0,0.0,0.0,1,1,0
233493060,233490809,2162698,0.00024830143,-0.000919319,0.000285238,0.34906584,2.058978e-09,2.0617086e-09,3.3055636e-09,2162698,0.0,0.0,0.030503642,0.4,0.00039980005,0.00039980005,4.9975e-06,1114122,0.0,0.0,0.0,0.5,0.0,0.0,0.0,1,1,0
233712854,233710918,2162698,0.00024964553,-0.00092071755,0.00028475147,0.34906584,2.0609954e-09,2.0637327e-09,3.3064556e-09,2162698,0.0,0.0,0.029488951,0.4,0.00039980162,0.00039980162,4.9975197e-06,1114122,0.0,0.0,0.0,0.5,0.0,0.0,0.0,1,1,0
233972988,233971043,2162698,0.00025100968,-0.0009220819,0.00028449437,0.34906584,2.0670012e-09,2.0697364e-09,3.3071244e-09,2162698,0.0,0.0,0.02839323,0.4,0.00039980162,0.00039980162,4.9975197e-06,1114122,0.0,0.0,0.0,0.5,0.0,0.0,0.0,1,1,0
234303459,234301213,2162698,0.00025409044,-0.0009249514,0.0002845388,0.34906584,2.060029e-09,2.0627988e-09,3.3062981e-09,2162698,0.0,0.0,0.027280571,0.4,0.0003998017,0.0003998017,4.997521e-06,1114122,0.0,0.0,0.0,0.5,0.0,0.0,0.0,1,1,0
234573705,234571348,2162698,0.00025561554,-0.0009263942,0.00028487467,0.34906584,2.0669915e-09,2.069755e-09,3.3057814e-09,2162698,0.0,0.0,0.026262162,0.4,0.0003997938,0.0003997938,4.997422e-06,1114122,0.0,0.0,0.0,0.5,0.0,0.0,0.0,1,1,0
234833529,234831477,2162698,0.0002571588,-0.0009278692,0.0002846064,0.34906584,2.0730364e-09,2.075799e-09,3.306518e-09,2162698,0.0,0.0,0.024956029,0.4,0.0003998018,0.0003998018,4.997522e-06,1114122,0.0,0.0,0.0,0.5,0.0,0.0,0.0,1,1,0
235163414,235161658,2162698,0.00026071168,-0.00093094993,0.00028328388,0.34906584,2.066058e-09,2.0688602e-09,3.30777e-09,2162698,0.0,0.0,0.023823977,0.4,0.00039980162,0.00039980162,4.9975197e-06,1114122,0.0,0.0,0.0,0.5,0.0,0.0,0.0,1,1,0
235483895,235481837,2162698,0.0002644566,-0.0009339553,0.00028358042,0.34906584,2.0580788e-09,2.0609157e-09,3.3059284e-09,2162698,0.0,0.0,0.022765648,0.4,0.00039980162,0.00039980162,4.9975197e-06,1114122,0.0,0.0,0.0,0.5,0.0,0.0,0.0,1,1,0
235753787,235751937,2162698,0.0002663381,-0.00093557517,0.00028352326,0.34906584,2.065082e-09,2.0679158e-09,3.3075847e-09,2162698,0.0,0.0,0.021734294,0.4,0.00039980162,0.00039980162,4.9975197e-06,1114122,0.0,0.0,0.0,0.5,0.0,0.0,0.0,1,1,0
236024060,236022072,2162698,0.00026822445,-0.0009371689,0.00028421922,0.34906584,2.0720863e-09,2.074911e-09,3.307138e-09,2162698,0.0,0.0,0.020671653,0.4,0.00039980162,0.00039980162,4.9975197e-06,1114122,0.0,0.0,0.0,0.5,0.0,0.0,0.0,1,1,0
236444451,236442281,2162698,0.00027446012,-0.00094134925,0.00028613306,0.34906584,2.0541333e-09,2.0570212e-09,3.3068264e-09,2162698,0.0,0.0,0.019531956,0.4,0.0003998011,0.0003998011,4.9975133e-06,1114122,0.0,0.0,0.0,0.5,0.0,0.0,0.0,1,1,0
236774693,236772447,2162698,0.00027650225,-0.0009426235,0.00028702777,0.34906584,2.0671307e-09,2.069993e-09,3.306064e-09,2162698,0.0,0.0,0.018511925,0.4,0.00039980005,0.00039980005,4.9975e-06,1114122,0.0,0.0,0.0,0.5,0.0,0.0,0.0,1,1,0
237144510,237142632,2162698,0.00028087758,-0.0009449882,0.0002879309,0.34906584,2.0641702e-09,2.0670539e-09,3.3071677e-09,2162698,0.0,0.0,0.017406086,0.4,0.00039980162,0.00039980162,4.9975197e-06,1114122,0.0,0.0,0.0,0.5,0.0,0.0,0.0,1,1,0
237574825,237572847,2162698,0.00028540724,-0.00094708183,0.00028930212,0.34906584,2.0671966e-09,2.0700843e-09,3.3079421e-09,2162698,0.0,0.0,0.016311862,0.4,0.0003998017,0.0003998017,4.997521e-06,1114122,0.0,0.0,0.0,0.5,0.0,0.0,0.0,1,1,0
238064994,238063093,2162698,0.00030269322,-0.0009533294,0.0002930894,0.34906584,1.9761437e-09,1.9792628e-09,3.3080174e-09,2162698,0.0,0.0,0.015285622,0.4,0.00039980136,0.00039980136,4.9975165e-06,1114122,0.0,0.0,0.0,0.5,0.0,0.0,0.0,1,1,0
238595395,238593358,2162698,0.00031022145,-0.0009549656,0.0002954777,0.34906584,1.9765105e-09,1.9796234e-09,3.308135e-09,2162698,0.0,0.0,0.014263826,0.4,0.00039980144,0.00039980144,4.9975174e-06,1114122,0.0,0.0,0.0,0.5,0.0,0.0,0.0,1,1,0
239185558,239183655,2162698,0.00032477855,-0.0009581774,0.0002980331,0.34906584,1.941563e-09,1.9447397e-09,3.3078387e-09,2162698,0.0,0.0,0.01323744,0.4,0.00039980107,0.00039980107,4.997513e-06,1114122,0.0,0.0,0.0,0.5,0.0,0.0,0.0,1,1,0
249960817,249959089,2162698,0.00043167293,-0.0009956629,0.0003714025,0.34906584,1.9031186e-09,1.9064061e-09,3.307547e-09,2162698,0.0,0.0,0.012237435,0.4,0.00039979213,0.00039979213,4.997419e-06,1114122,0.0,0.0,0.0,0.5,0.0,0.0,0.0,1,1,0
263107920,263105793,2162698,0.00051756937,-0.0011838217,0.0004969164,0.34906584,2.0571052e-09,2.0597597e-09,3.3073415e-09,2162698,0.0,0.0,0.013353955,0.4,0.00039978971,0.00039978971,4.997371e-06,1114122,0.0,0.0,0.0,0.5,0.0,0.0,0.0,1,1,0
263318075,263315901,2162698,0.00052351976,-0.0012574795,0.0005343438,0.34906584,2.0584678e-09,2.0609539e-09,3.306721e-09,2162698,0.0,0.0,0.01467153,0.4,0.00039979632,0.00039979632,4.9974533e-06,1114122,0.0,0.0,0.0,0.5,0.0,0.0,0.0,1,1,0
263698149,263696100,2162698,0.00052233494,-0.0012555941,0.00059888116,0.34906584,2.0962767e-09,2.0986755e-09,3.3067338e-09,2162698,3.496009e-05,1.1595564e-05,0.01569498,0.4,0.0003997943,0.0003997943,4.997428e-06,1114122,0.0,0.0,0.0,0.5,0.0,0.0,0.0,1,1,0
264659235,264656602,2162698,0.0005116603,-0.0012711571,0.0006445785,0.34906584,2.190975e-09,2.1931132e-09,3.3069627e-09,2162698,0.0010478095,4.6120156e-05,0.016212342,0.4,0.00039979097,0.00039979184,4.99801e-06,1114122,0.0,0.0,0.0,0.5,0.0,0.0,0.0,1,1,0
264858889,264856715,2162698,0.00050339644,-0.0012791344,0.0006888575,0.34906584,2.2104023e-09,2.2125424e-09,3.3075225e-09,2162698,0.0024694193,1.463663e-05,0.0162234,0.4,0.00039977444,0.0003997785,4.99816e-06,1114122,0.0,0.0,0.0,0.5,0.0,0.0,0.0,1,1,0
265058939,265056797,2162698,0.0004943935,-0.0012897613,0.00070566003,0.34906584,2.2296858e-09,2.2317403e-09,3.3164809e-09,2162698,0.0050398363,-5.7685702e-05,0.016251639,0.4,0.0003997245,0.00039974292,4.9982555e-06,1114122,0.0,0.0,0.0,0.5,0.0,0.0,0.0,1,1,0
265152188,265146844,2162698,0.0004921096,-0.0012928105,0.0007058038,0.34906584,2.23859e-09,2.2405726e-09,3.325477e-09,2162698,0.003985102,0.00041050624,0.016317382,0.4,0.00039970526,0.00039973934,4.9982623e-06,1114122,0.0,0.0,0.0,0.5,0.0,0.0,0.0,1,1,0
265259133,265256900,2162698,0.00048118387,-0.0013074147,0.0007065341,0.34906584,2.248808e-09,2.2507187e-09,3.3358363e-09,2162698,0.008294132,0.0002316716,0.016369862,0.4,0.00039960956,0.00039966515,4.998246e-06,1114122,0.0,0.0,0.0,0.5,0.0,0.0,0.0,1,1,0
265459167,265457003,2162698,0.00046772778,-0.0013255246,0.00070741685,0.34906584,2.267792e-09,2.2695588e-09,3.3549712e-09,2162698,0.015512752,-0.00038243586,0.016429631,0.4,0.00039941695,0.00039952545,4.998171e-06,1114122,0.0,0.0,0.0,0.5,0.0,0.0,0.0,1,1,0
265662463,265657107,2162698,0.00045118353,-0.0013479557,0.00070848153,0.34906584,2.2864783e-09,2.2879816e-09,3.3738479e-09,2162698,0.026491018,-0.0016728189,0.016505215,0.4,0.00039904795,0.00039928738,4.997793e-06,1114122,0.0,0.0,0.0,0.5,0.0,0.0,0.0,1,1,0
265739144,265737148,2162698,0.00045253348,-0.00134606,0.0007083925,0.34906584,2.2942952e-09,2.2956241e-09,3.3818432e-09,2162698,0.027575942,-0.0019560186,0.016441137,0.4,0.00039893316,0.0003992795,4.997464e-06,1114122,0.0,0.0,0.0,0.5,0.0,0.0,0.0,1,1,0
265859541,265857210,2162698,0.0004327771,-0.0013729242,0.0007096299,0.34906584,2.3048696e-09,2.3060376e-09,3.3924146e-09,2162698,0.043513224,-0.004364772,0.016522441,0.4,0.00039843525,0.00039891378,4.997396e-06,1114122,0.0,0.0,0.0,0.5,0.0,0.0,0.0,1,1,0
265902825,265897243,2162698,0.00043103143,-0.001375383,0.0007097494,0.34906584,2.308781e-09,2.309849e-09,3.3964374e-09,2162698,0.04190024,-0.004066289,0.016615132,0.4,0.00039834977,0.00039891378,4.9974265e-06,1114122,0.0,0.0,0.0,0.5,0.0,0.0,0.0,1,1,0
265949106,265947273,2162698,0.0004295605,-0.0013774232,0.00070984033,0.34906584,2.313656e-09,2.3146218e-09,3.4014127e-09,2162698,0.04049654,-0.0038361736,0.016694868,0.4,0.0003982487,0.0003989087,4.997396e-06,1114122,0.0,0.0,0.0,0.5,0.0,0.0,0.0,1,1,0
266009204,266007295,2162698,0.0004283567,-0.001379083,0.00070991326,0.34906584,2.319525e-09,2.3203852e-09,3.4073877e-09,2162698,0.039300036,-0.003670402,0.016762124,0.4,0.00039813342,0.00039890417,4.9973655e-06,1114122,0.0,0.0,0.0,0.5,0.0,0.0,0.0,1,1,0
266063359,266057313,2162698,0.0004033269,-0.00141305,0.00071145815,0.34906584,2.3229427e-09,2.323731e-09,3.4106655e-09,2162698,0.059815407,-0.0073634046,0.01693373,0.4,0.00039747678,0.0003983597,4.9973464e-06,1114122,0.0,0.0,0.0,0.5,0.0,0.0,0.0,1,1,0
266112542,266107339,2162698,0.00040136557,-0.001415768,0.0007115896,0.34906584,2.3278415e-09,2.328521e-09,3.415696e-09,2162698,0.057721686,-0.0071619726,0.017049694,0.4,0.00039734255,0.00039836243,4.997396e-06,1114122,0.0,0.0,0.0,0.5,0.0,0.0,0.0,1,1,0
266172727,266167370,2162698,0.00039900772,-0.001419011,0.00071174325,0.34906584,2.3337288e-09,2.334297e-09,3.4217178e-09,2162698,0.055110108,-0.0069772433,0.017192857,0.4,0.00039718937,0.00039836482,4.997435e-06,1114122,0.0,0.0,0.0,0.5,0.0,0.0,0.0,1,1,0
266219253,266217407,2162698,0.0003969443,-0.0014218236,0.00071187166,0.34906584,2.338594e-09,2.3390492e-09,3.4267138e-09,2162698,0.052757077,-0.006860512,0.017320706,0.4,0.00039701807,0.00039836438,4.997434e-06,1114122,0.0,0.0,0.0,0.5,0.0,0.0,0.0,1,1,0
266259564,266257418,2162698,0.0003694826,-0.0014588968,0.0007135417,0.34906584,2.340868e-09,2.3413635e-09,3.428673e-09,2162698,0.08247578,-0.012575073,0.017394591,0.4,0.0003962446,0.00039757683,4.997468e-06,1114122,0.0,0.0,0.0,0.5,0.0,0.0,0.0,1,1,0
266279285,266277427,2162698,0.00036793464,-0.0014609952,0.0007136375,0.34906584,2.342728e-09,2.343108e-09,3.4306684e-09,2162698,0.08064318,-0.012529106,0.017493153,0.4,0.0003960517,0.0003975764,4.997433e-06,1114122,0.0,0.0,0.0,0.5,0.0,0.0,0.0,1,1,0
266329326,266327452,2162698,0.00036665553,-0.0014627003,0.00071370834,0.34906584,2.3475577e-09,2.3478215e-09,3.435626e-09,2162698,0.07908954,-0.012521421,0.0175759,0.4,0.00039583762,0.00039757203,4.997377e-06,1114122,0.0,0.0,0.0,0.5,0.0,0.0,0.0,1,1,0
266442957,266437509,2162698,0.00036522915,-0.0014646327,0.0007138039,0.34906584,2.358282e-09,2.3583104e-09,3.4466563e-09,2162698,0.07726923,-0.012569837,0.017672347,0.4,0.0003953616,0.00039757625,4.997434e-06,1114122,0.0,0.0,0.0,0.5,0.0,0.0,0.0,1,1,0
266463137,266457519,2162698,0.00033294168,-0.0015080165,0.0007157415,0.34906584,2.3582563e-09,2.3583286e-09,3.4462608e-09,2162698,0.115290746,-0.020484863,0.017767463,0.4,0.0003942735,0.00039647167,4.9974415e-06,1114122,0.0,0.0,0.0,0.5,0.0,0.0,0.0,1,1,0
266489395,266487535,2162698,0.00033170136,-0.0015096599,0.00071581564,0.34906584,2.3610918e-09,2.361045e-09,3.449246e-09,2162698,0.113641955,-0.020572694,0.017853638,0.4,0.0003939987,0.00039646946,4.9974124e-06,1114122,0.0,0.0,0.0,0.5,0.0,0.0,0.0,1,1,0
266539523,266537560,2162698,0.00033079667,-0.0015108328,0.00071586174,0.34906584,2.3658997e-09,2.3657336e-09,3.454196e-09,2162698,0.11241122,-0.020657474,0.017917365,0.4,0.0003936991,0.0003964628,4.997346e-06,1114122,0.0,0.0,0.0,0.5,0.0,0.0,0.0,1,1,0
266599602,266597612,2162698,0.00032907695,-0.0015131345,0.00071598025,0.34906584,2.3717732e-09,2.3714863e-09,3.4602494e-09,2162698,0.10998403,-0.020867344,0.018043334,0.4,0.00039338216,0.00039646713,4.99743e-06,1114122,0.0,0.0,0.0,0.5,0.0,0.0,0.0,1,1,0
266653138,266647617,2162698,0.00032670115,-0.0015162594,0.0007161271,0.34906584,2.3766056e-09,2.3761972e-09,3.4652468e-09,2162698,0.10655465,-0.021206034,0.018219989,0.4,0.0003930359,0.00039646402,4.997433e-06,1114122,0.0,0.0,0.0,0.5,0.0,0.0,0.0,1,1,0
266659719,266657623,2162698,0.00028931844,-0.0015663904,0.00071834185,0.34906584,2.3752558e-09,2.3748905e-09,3.463493e-09,2162698,0.15400185,-0.03165674,0.018340696,0.4,0.00039155537,0.00039496383,4.9974287e-06,1114122,0.0,0.0,0.0,0.5,0.0,0.0,0.0,1,1,0
266709756,266707649,2162698,0.00028729078,-0.0015690131,0.00071845646,0.34906584,2.3800337e-09,2.3795446e-09,3.4684184e-09,2162698,0.15098979,-0.031988773,0.018494599,0.4,0.0003911691,0.00039495117,4.9973264e-06,1114122,0.0,0.0,0.0,0.5,0.0,0.0,0.0,1,1,0
266762888,266757674,2162698,0.00028485374,-0.0015722436,0.00071862765,0.34906584,2.384907e-09,2.3842939e-09,3.473486e-09,2162698,0.14727248,-0.03243491,0.018685112,0.4,0.00039077448,0.00039495365,4.99743e-06,1114122,0.0,0.0,0.0,0.5,0.0,0.0,0.0,1,1,0
266809637,266807700,2162698,0.00028338504,-0.0015741606,0.0007187215,0.34906584,2.3897275e-09,2.3889903e-09,3.4784817e-09,2162698,0.14498496,-0.032726496,0.018801669,0.4,0.00039034654,0.00039494672,4.9974296e-06,1114122,0.0,0.0,0.0,0.5,0.0,0.0,0.0,1,1,0
266863261,266857726,2162698,0.00024073166,-0.0016313264,0.0007212208,0.34906584,2.392039e-09,2.391339e-09,3.480363e-09,2162698,0.20295066,-0.04596725,0.01895343,0.4,0.00038839,0.00039296606,4.9974583e-06,1114122,0.0,0.0,0.0,0.5,0.0,0.0,0.0,1,1,0
266869718,266867731,2162698,0.00023906853,-0.0016335006,0.0007213332,0.34906584,2.3928581e-09,2.3920304e-09,3.4813623e-09,2162698,0.20028676,-0.046322696,0.019088874,0.4,0.00038792752,0.00039295785,4.9974287e-06,1114122,0.0,0.0,0.0,0.5,0.0,0.0,0.0,1,1,0
266979857,266977788,2162698,0.00023831651,-0.0016344826,0.0007213846,0.34906584,2.4034839e-09,2.4023965e-09,3.492351e-09,2162698,0.199019,-0.046503194,0.019153057,0.4,0.00038691238,0.00039293795,4.9974283e-06,1114122,0.0,0.0,0.0,0.5,0.0,0.0,0.0,1,1,0
267033115,267027813,2162698,0.00023764386,-0.0016353617,0.0007214307,0.34906584,2.408293e-09,2.407073e-09,3.497344e-09,2162698,0.1978607,-0.046670206,0.019211615,0.4,0.00038635833,0.00039292633,4.997426e-06,1114122,0.0,0.0,0.0,0.5,0.0,0.0,0.0,1,1,0
267059869,267057829,2162698,0.00018975479,-0.0016998369,0.0007241782,0.34906584,2.408259e-09,2.4070599e-09,3.4968763e-09,2162698,0.26726136,-0.062773384,0.019401373,0.4,0.00038384154,0.0003903782,4.997434e-06,1114122,0.0,0.0,0.0,0.5,0.0,0.0,0.0,1,1,0
267083065,267077839,2162698,0.00018917478,-0.0017006006,0.0007242211,0.34906584,2.4100697e-09,2.4087328e-09,3.4988712e-09,2162698,0.26623875,-0.06292023,0.019453108,0.4,0.0003832613,0.000390366,4.9974255e-06,1114122,0.0,0.0,0.0,0.5,0.0,0.0,0.0,1,1,0
267143277,267137870,2162698,0.00018821738,-0.0017018701,0.0007242944,0.34906584,2.4158797e-09,2.4144013e-09,3.504867e-09,2162698,0.26450154,-0.06317006,0.019540979,0.4,0.00038264185,0.00039035355,4.997429e-06,1114122,0.0,0.0,0.0,0.5,0.0,0.0,0.0,1,1,0
267189756,267187896,2162698,0.00018633371,-0.0017043765,0.0007244395,0.34906584,2.4206883e-09,2.4190658e-09,3.5098604e-09,2162698,0.26099992,-0.063670516,0.019717956,0.4,0.0003819932,0.00039034022,4.9974283e-06,1114122,0.0,0.0,0.0,0.5,0.0,0.0,0.0,1,1,0
267243338,267237922,2162698,0.00018504454,-0.0017061065,0.00072454265,0.34906584,2.4255054e-09,2.4237359e-09,3.5148637e-09,2162698,0.258544,-0.06401782,0.019842148,0.4,0.0003813164,0.00039032783,4.9974424e-06,1114122,0.0,0.0,0.0,0.5,0.0,0.0,0.0,1,1,0
267260191,267257932,2162698,0.00013216151,-0.0017780984,0.0007274733,0.34906584,2.4240814e-09,2.4223026e-09,3.5130228e-09,2162698,0.34000558,-0.082869254,0.02007871,0.4,0.00037815396,0.00038712108,4.9973787e-06,1114122,0.0,0.0,0.0,0.5,0.0,0.0,0.0,1,1,0
267299931,267297967,2162698,0.00013121986,-0.0017793943,0.00072756165,0.34906584,2.427916e-09,2.425981e-09,3.5170513e-09,2162698,0.33816272,-0.08312237,0.020172501,0.4,0.00037744205,0.0003871115,4.9974274e-06,1114122,0.0,0.0,0.0,0.5,0.0,0.0,0.0,1,1,0
267353261,267347979,2162698,0.00012998648,-0.001781077,0.0007276696,0.34906584,2.4327271e-09,2.4306333e-09,3.5220433e-09,2162698,0.33568773,-0.08345274,0.020297987,0.4,0.00037669667,0.00038709817,4.9974265e-06,1114122,0.0,0.0,0.0,0.5,0.0,0.0,0.0,1,1,0
267460263,267458063,2162698,7.151837e-05,-0.0018619712,0.000730825,0.34906584,2.4396045e-09,2.4371256e-09,3.5289454e-09,2162698,0.42740807,-0.10512467,0.020697296,0.4,0.00037123458,0.00038313767,4.9974265e-06,1114122,0.0,0.0,0.0,0.5,0.0,0.0,0.0,1,1,0
267473231,267468062,2162698,7.151839e-05,-0.0018619716,0.0007308252,0.34906584,2.4406042e-09,2.4381257e-09,3.5299441e-09,2162698,0.4000001,-0.10512469,0.020697301,0.4,0.00037123467,0.0003831378,4.9974365e-06,1114122,0.0,0.0,0.0,0.5,0.0,0.0,0.0,1,1,0
267509944,267508062,2162698,7.069247e-05,-0.0018631333,0.0007309067,0.34906584,2.4444171e-09,2.441761e-09,3.5339305e-09,2162698,0.39820725,-0.105334505,0.020788664,0.4,0.00037039147,0.0003831253,4.997416e-06,1114122,0.0,0.0,0.0,0.5,0.0,0.0,0.0,1,1,0
267563545,267558087,2162698,7.020316e-05,-0.0018637853,0.00073093973,0.34906584,2.4491804e-09,2.4463434e-09,3.5388388e-09,2162698,0.3971103,-0.1054533,0.020843685,0.4,0.0003695099,0.00038310545,4.997298e-06,1114122,0.0,0.0,0.0,0.5,0.0,0.0,0.0,1,1,0
267623473,267618118,2162698,6.909542e-05,-0.0018654413,0.000731077,0.34906584,2.455069e-09,2.452044e-09,3.5449232e-09,2162698,0.39456013,-0.1057224,0.020975044,0.4,0.00036860118,0.00038310583,4.9974315e-06,1114122,0.0,0.0,0.0,0.5,0.0,0.0,0.0,1,1,0
267663771,267658139,2162698,7.674952e-06,-0.0019523274,0.00073417416,0.34906584,2.4549636e-09,2.4518285e-09,3.5446044e-09,2162698,0.5005361,-0.12928094,0.021336831,0.4,0.00036396165,0.00037836938,4.9974346e-06,1114122,0.0,0.0,0.0,0.5,0.0,0.0,0.0,1,1,0
267670085,267668144,2162698,6.598472e-06,-0.00195392,0.0007343002,0.34906584,2.4557945e-09,2.4524591e-09,3.5456016e-09,2162698,0.39746162,-0.12952377,0.021467462,0.4,0.00036302398,0.00037836086,4.997435e-06,1114122,0.0,0.0,0.0,0.5,0.0,0.0,0.0,1,1,0
267730100,267728175,2162698,5.2442024e-06,-0.0019559555,0.0007344632,0.34906584,2.4616253e-09,2.4580833e-09,3.5515904e-09,2162698,0.39415148,-0.12981203,0.02163793,0.4,0.00036203995,0.0003783534,4.997434e-06,1114122,0.0,0.0,0.0,0.5,0.0,0.0,0.0,1,1,0
267780055,267778201,2162698,3.4830637e-06,-0.0019586398,0.0007346807,0.34906584,2.466462e-09,2.4627091e-09,3.5565815e-09,2162698,0.38971427,-0.13016537,0.021866575,0.4,0.00036102484,0.000378347,4.9974337e-06,1114122,0.0,0.0,0.0,0.5,0.0,0.0,0.0,1,1,0
267833567,267828241,2162698,2.355602e-06,-0.0019603812,0.000734823,0.34906584,2.471302e-09,2.467335e-09,3.5615695e-09,2162698,0.38678518,-0.13037613,0.02201757,0.4,0.00035997815,0.00037834144,4.9974315e-06,1114122,0.0,0.0,0.0,0.5,0.0,0.0,0.0,1,1,0
267863996,267858242,2162698,-6.223323e-05,-0.0020542506,0.0007379024,0.34906584,2.4698619e-09,2.4657034e-09,3.56009e-09,2162698,0.50417227,-0.15560575,0.02246618,0.4,0.00035454656,0.0003727515,4.997433e-06,1114122,0.0,0.0,0.0,0.5,0.0,0.0,0.0,1,1,0
267869948,267868247,2162698,-6.2233055e-05,-0.0020542447,0.0007379003,0.34906584,2.4708542e-09,2.466696e-09,3.5610792e-09,2162698,0.39999884,-0.15560532,0.022466118,0.4,0.00035454557,0.00037275045,4.9974274e-06,1114122,0.0,0.0,0.0,0.5,0.0,0.0,0.0,1,1,0
267890047,267888258,2162698,-6.315437e-05,-0.0020557088,0.00073802966,0.34906584,2.4727063e-09,2.4683184e-09,3.5630814e-09,2162698,0.39754906,-0.15575624,0.022593755,0.4,0.00035346975,0.00037274722,4.9974296e-06,1114122,0.0,0.0,0.0,0.5,0.0,0.0,0.0,1,1,0
267943546,267938283,2162698,-6.428996e-05,-0.002057504,0.0007381801,0.34906584,2.4775195e-09,2.4729014e-09,3.5680183e-09,2162698,0.39442515,-0.15592144,0.022755863,0.4,0.00035235714,0.00037273875,4.9973582e-06,1114122,0.0,0.0,0.0,0.5,0.0,0.0,0.0,1,1,0
267993694,267988309,2162698,-6.6240405e-05,-0.0020607065,0.0007384735,0.34906584,2.4824103e-09,2.4775595e-09,3.5730612e-09,2162698,0.3889096,-0.15617678,0.023043962,0.4,0.00035122348,0.0003727419,4.997432e-06,1114122,0.0,0.0,0.0,0.5,0.0,0.0,0.0,1,1,0
268053668,268048343,2162698,-6.7197514e-05,-0.0020622888,0.00073861587,0.34906584,2.4882676e-09,2.4831806e-09,3.5790475e-09,2162698,0.38609067,-0.15627895,0.023190957,0.4,0.00035003555,0.00037274024,4.99743e-06,1114122,0.0,0.0,0.0,0.5,0.0,0.0,0.0,1,1,0
268060501,268058346,2162698,-0.00013409526,-0.0021623368,0.0007416466,0.34906584,2.484516e-09,2.4791376e-09,3.5754946e-09,2162698,0.51346266,-0.18276444,0.02374353,0.4,0.00034381644,0.00036626493,4.997426e-06,1114122,0.0,0.0,0.0,0.5,0.0,0.0,0.0,1,1,0
268073434,268068351,2162698,-0.00013409527,-0.0021623373,0.00074164674,0.34906584,2.4855153e-09,2.4801374e-09,3.5764924e-09,2162698,0.40000004,-0.18276447,0.023743533,0.4,0.0003438165,0.00036626498,4.9974356e-06,1114122,0.0,0.0,0.0,0.5,0.0,0.0,0.0,1,1,0
268100472,268098366,2162698,-0.00013582583,-0.0021652645,0.0007419246,0.34906584,2.4883804e-09,2.4827538e-09,3.5794867e-09,2162698,0.39483574,-0.18290581,0.02401621,0.4,0.00034262385,0.00036626426,4.9974287e-06,1114122,0.0,0.0,0.0,0.5,0.0,0.0,0.0,1,1,0
268160309,268158406,2162698,-0.00013683946,-0.0021670023,0.00074208935,0.34906584,2.494239e-09,2.4883624e-09,3.5854621e-09,2162698,0.39168578,-0.18296127,0.02418253,0.4,0.000341382,0.00036626283,4.9974133e-06,1114122,0.0,0.0,0.0,0.5,0.0,0.0,0.0,1,1,0
268210432,268208423,2162698,-0.00013782423,-0.0021687266,0.0007422573,0.34906584,2.4991191e-09,2.4929918e-09,3.5904617e-09,2162698,0.38852546,-0.18299289,0.024349794,0.4,0.00034011248,0.00036626382,4.997428e-06,1114122,0.0,0.0,0.0,0.5,0.0,0.0,0.0,1,1,0
268264072,268258449,2162698,-0.00020681042,-0.0022753445,0.00074535393,0.34906584,2.498978e-09,2.4921911e-09,3.590915e-09,2162698,0.521119,-0.21021673,0.025174653,0.4,0.0003318451,0.00035889685,4.9974174e-06,1114122,0.0,0.0,0.0,0.5,0.0,0.0,0.0,1,1,0
268270155,268268454,2162698,-0.00020680903,-0.002275329,0.00074534887,0.34906584,2.4999605e-09,2.4931737e-09,3.59189e-09,2162698,0.3999973,-0.21021532,0.025174482,0.4,0.00033184284,0.0003588944,4.997393e-06,1114122,0.0,0.0,0.0,0.5,0.0,0.0,0.0,1,1,0
268323825,268318480,2162698,-0.0002082668,-0.0022779908,0.0007456226,0.34906584,2.5048625e-09,2.4978122e-09,3.5969083e-09,2162698,0.39509556,-0.21017838,0.025438398,0.4,0.00033053316,0.00035889755,4.9974283e-06,1114122,0.0,0.0,0.0,0.5,0.0,0.0,0.0,1,1,0
268433813,268428537,2162698,-0.00020892223,-0.002279211,0.0007457473,0.34906584,2.5156368e-09,2.5080629e-09,3.6078807e-09,2162698,0.39274293,-0.21012707,0.02556512,0.4,0.00032780625,0.0003588964,4.9974265e-06,1114122,0.0,0.0,0.0,0.5,0.0,0.0,0.0,1,1,0
268460656,268458552,2162698,-0.00027705988,-0.0023877693,0.00074856076,0.34906584,2.513411e-09,2.5053053e-09,3.6064651e-09,2162698,0.534224,-0.23758563,0.026354194,0.4,0.0003201215,0.00035066102,4.997425e-06,1114122,0.0,0.0,0.0,0.5,0.0,0.0,0.0,1,1,0
268473608,268468558,2162698,-0.00027705994,-0.0023877695,0.0007485609,0.34906584,2.51441e-09,2.506305e-09,3.6074623e-09,2162698,0.4000001,-0.23758566,0.0263542,0.4,0.00032012156,0.00035066108,4.9974346e-06,1114122,0.0,0.0,0.0,0.5,0.0,0.0,0.0,1,1,0
268480442,268478563,2162698,-0.00027878242,-0.0023910566,0.0007489063,0.34906584,2.515306e-09,2.5069262e-09,3.6084584e-09,2162698,0.3937512,-0.23738664,0.026697367,0.4,0.00031875295,0.00035065974,4.9974265e-06,1114122,0.0,0.0,0.0,0.5,0.0,0.0,0.0,1,1,0
268533914,268528589,2162698,-0.0002800961,-0.0023935982,0.00074917445,0.34906584,2.5202014e-09,2.5115525e-09,3.6134424e-09,2162698,0.38881904,-0.23719488,0.026968593,0.4,0.00031735943,0.0003506576,4.9974255e-06,1114122,0.0,0.0,0.0,0.5,0.0,0.0,0.0,1,1,0
268593719,268588636,2162698,-0.0002817688,-0.0023968918,0.0007495242,0.34906584,2.5261018e-09,2.5171851e-09,3.6194265e-09,2162698,0.38226888,-0.23688634,0.027329456,0.4,0.00031592255,0.00035065445,4.997425e-06,1114122,0.0,0.0,0.0,0.5,0.0,0.0,0.0,1,1,0
268644001,268638645,2162698,-0.00028302174,-0.0023993982,0.0007497919,0.34906584,2.5310092e-09,2.5218283e-09,3.624415e-09,2162698,0.37718233,-0.23661242,0.027610138,0.4,0.0003144625,0.0003506503,4.997426e-06,1114122,0.0,0.0,0.0,0.5,0.0,0.0,0.0,1,1,0
268664211,268658656,2162698,-0.0003502573,-0.0025103192,0.00075251015,0.34906584,2.527606e-09,2.5177436e-09,3.622162e-09,2162698,0.52206403,-0.26378208,0.02854515,0.4,0.00030619427,0.00034159358,4.9973723e-06,1114122,0.0,0.0,0.0,0.5,0.0,0.0,0.0,1,1,0
268670556,268668661,2162698,-0.00035026122,-0.0025103474,0.0007525186,0.34906584,2.5286335e-09,2.5187712e-09,3.6232022e-09,2162698,0.40000448,-0.26378503,0.02854547,0.4,0.00030619773,0.00034159745,4.9974374e-06,1114122,0.0,0.0,0.0,0.5,0.0,0.0,0.0,1,1,0
268690591,268688671,2162698,-0.0003520464,-0.002513978,0.0007529097,0.34906584,2.5305436e-09,2.5204039e-09,3.6251948e-09,2162698,0.392837,-0.26335365,0.028949775,0.4,0.00030476946,0.00034159236,4.9974296e-06,1114122,0.0,0.0,0.0,0.5,0.0,0.0,0.0,1,1,0
268750623,268748702,2162698,-0.00035281968,-0.002515579,0.00075308274,0.34906584,2.536454e-09,2.526041e-09,3.6311791e-09,2162698,0.38960007,-0.26313356,0.029132893,0.4,0.0003033014,0.00034158558,4.997429e-06,1114122,0.0,0.0,0.0,0.5,0.0,0.0,0.0,1,1,0
268800912,268798732,2162698,-0.00035374745,-0.0025175293,0.00075329415,0.34906584,2.54137e-09,2.530688e-09,3.6361665e-09,2162698,0.38557553,-0.26283455,0.029361024,0.4,0.00030181362,0.00034157737,4.9974287e-06,1114122,0.0,0.0,0.0,0.5,0.0,0.0,0.0,1,1,0
268854136,268848754,2162698,-0.0003551474,-0.0025205167,0.00075361907,0.34906584,2.5462894e-09,2.535345e-09,3.6411507e-09,2162698,0.37928084,-0.26232803,0.02971859,0.4,0.0003003068,0.00034156762,4.997428e-06,1114122,0.0,0.0,0.0,0.5,0.0,0.0,0.0,1,1,0
268860953,268858762,2162698,-0.00042043443,-0.0026322997,0.00075623824,0.34906584,2.541835e-09,2.5300466e-09,3.6382106e-09,2162698,0.5249807,-0.28867766,0.03080825,0.4,0.0002915877,0.00033177514,4.9974283e-06,1114122,0.0,0.0,0.0,0.5,0.0,0.0,0.0,1,1,0
268874008,268868826,2162698,-0.00042043533,-0.0026323053,0.00075623987,0.34906584,2.5428388e-09,2.5310511e-09,3.6392154e-09,2162698,0.40000084,-0.2886783,0.030808317,0.4,0.00029158834,0.00033177587,4.9974483e-06,1114122,0.0,0.0,0.0,0.5,0.0,0.0,0.0,1,1,0
268914281,268908799,2162698,-0.00042191107,-0.002635485,0.00075657986,0.34906584,2.5467426e-09,2.5346778e-09,3.6431804e-09,2162698,0.39347187,-0.28810933,0.031188924,0.4,0.00029010695,0.0003317626,4.9974074e-06,1114122,0.0,0.0,0.0,0.5,0.0,0.0,0.0,1,1,0
268960643,268958818,2162698,-0.00042374255,-0.0026395014,0.00075701496,0.34906584,2.551676e-09,2.53934e-09,3.648182e-09,2162698,0.38512558,-0.2873372,0.031677373,0.4,0.0002886126,0.00033175107,4.9974265e-06,1114122,0.0,0.0,0.0,0.5,0.0,0.0,0.0,1,1,0
269010679,269008837,2162698,-0.00042569163,-0.0026437778,0.0007574646,0.34906584,2.5565403e-09,2.5439404e-09,3.65308e-09,2162698,0.37588277,-0.2864234,0.032218102,0.4,0.00028709482,0.00033172837,4.997303e-06,1114122,0.0,0.0,0.0,0.5,0.0,0.0,0.0,1,1,0
269064298,269058863,2162698,-0.00048814726,-0.0027546422,0.0007599591,0.34906584,2.5560472e-09,2.5424567e-09,3.654416e-09,2162698,0.52055895,-0.31166714,0.033430032,0.4,0.00027798786,0.0003212948,4.997252e-06,1114122,0.0,0.0,0.0,0.5,0.0,0.0,0.0,1,1,0
269070773,269068872,2162698,-0.0004898671,-0.002758525,0.00076038187,0.34906584,2.5570515e-09,2.5431799e-09,3.65552e-09,2162698,0.39223334,-0.31087023,0.033901405,0.4,0.0002765248,0.0003212885,4.9973996e-06,1114122,0.0,0.0,0.0,0.5,0.0,0.0,0.0,1,1,0
269124278,269118893,2162698,-0.0004916751,-0.0027626073,0.0007608135,0.34906584,2.5619953e-09,2.5478528e-09,3.6605283e-09,2162698,0.3837575,-0.3099504,0.034415875,0.4,0.00027504342,0.00032127314,4.997433e-06,1114122,0.0,0.0,0.0,0.5,0.0,0.0,0.0,1,1,0
269184189,269178924,2162698,-0.0004928561,-0.0027652935,0.00076109247,0.34906584,2.5679143e-09,2.5535065e-09,3.6664969e-09,2162698,0.3779948,-0.30928892,0.03476647,0.4,0.00027353026,0.00032125195,4.9974115e-06,1114122,0.0,0.0,0.0,0.5,0.0,0.0,0.0,1,1,0
269234415,269228951,2162698,-0.0004941832,-0.0027683605,0.0007614148,0.34906584,2.572861e-09,2.558194e-09,3.6715015e-09,2162698,0.37134653,-0.30849755,0.03517282,0.4,0.00027201005,0.00032123184,4.997434e-06,1114122,0.0,0.0,0.0,0.5,0.0,0.0,0.0,1,1,0
269261047,269258966,2162698,-0.0005532733,-0.0028772599,0.0007638394,0.34906584,2.5704592e-09,2.5546298e-09,3.6712406e-09,2162698,0.5123735,-0.33228576,0.036537502,0.4,0.00026273142,0.00031028411,4.997431e-06,1114122,0.0,0.0,0.0,0.5,0.0,0.0,0.0,1,1,0
269274222,269268971,2162698,-0.0005532734,-0.0028772603,0.0007638395,0.34906584,2.5714582e-09,2.5556295e-09,3.6722376e-09,2162698,0.40000007,-0.33228582,0.036537506,0.4,0.00026273148,0.00031028417,4.9974406e-06,1114122,0.0,0.0,0.0,0.5,0.0,0.0,0.0,1,1,0
269280886,269278976,2162698,-0.00055444735,-0.002879966,0.0007641116,0.34906584,2.5723939e-09,2.55629e-09,3.6732337e-09,2162698,0.394402,-0.33160156,0.036891293,0.4,0.00026128028,0.00031026252,4.997432e-06,1114122,0.0,0.0,0.0,0.5,0.0,0.0,0.0,1,1,0
269340955,269339008,2162698,-0.00055544596,-0.0028822958,0.0007643444,0.34906584,2.5783249e-09,2.561954e-09,3.6792145e-09,2162698,0.38946804,-0.33097413,0.03720445,0.4,0.00025980506,0.00031023845,4.9974274e-06,1114122,0.0,0.0,0.0,0.5,0.0,0.0,0.0,1,1,0
269394446,269389033,2162698,-0.00055659265,-0.002885004,0.00076461514,0.34906584,2.5832627e-09,2.566633e-09,3.6842005e-09,2162698,0.38363543,-0.33021048,0.037576176,0.4,0.00025832458,0.00031021328,4.99743e-06,1114122,0.0,0.0,0.0,0.5,0.0,0.0,0.0,1,1,0
269451030,269449064,2162698,-0.0005574667,-0.002887096,0.0007648232,0.34906584,2.5892002e-09,2.5723168e-09,3.6901826e-09,2162698,0.37901592,-0.32958508,0.03787191,0.4,0.00025682233,0.00031018545,4.997424e-06,1114122,0.0,0.0,0.0,0.5,0.0,0.0,0.0,1,1,0
269464459,269459069,2162698,-0.0006124731,-0.0029926358,0.00076714467,0.34906584,2.584924e-09,2.5667084e-09,3.6883112e-09,2162698,0.5141976,-0.35155395,0.03937679,0.4,0.0002475141,0.00029885676,4.997425e-06,1114122,0.0,0.0,0.0,0.5,0.0,0.0,0.0,1,1,0
269470800,269469074,2162698,-0.00061247323,-0.0029926363,0.0007671448,0.34906584,2.5859241e-09,2.5677083e-09,3.6893113e-09,2162698,0.4000001,-0.351554,0.0393768,0.4,0.00024751417,0.00029885682,4.997435e-06,1114122,0.0,0.0,0.0,0.5,0.0,0.0,0.0,1,1,0
269504576,269499090,2162698,-0.0006131356,-0.002994219,0.00076729554,0.34906584,2.5888647e-09,2.57038e-09,3.6923025e-09,2162698,0.39671135,-0.35110343,0.039595556,0.4,0.00024609323,0.00029883036,4.9974296e-06,1114122,0.0,0.0,0.0,0.5,0.0,0.0,0.0,1,1,0
269551091,269549123,2162698,-0.0006139775,-0.0029962528,0.0007674882,0.34906584,2.5938045e-09,2.575059e-09,3.697289e-09,2162698,0.3923987,-0.3504978,0.039883643,0.4,0.00024466985,0.00029880225,4.9974283e-06,1114122,0.0,0.0,0.0,0.5,0.0,0.0,0.0,1,1,0
269614309,269609147,2162698,-0.00061538554,-0.0029997055,0.0007678148,0.34906584,2.5997462e-09,2.580748e-09,3.7032717e-09,2162698,0.38491237,-0.3494174,0.04038655,0.4,0.0002432299,0.00029877224,4.9974274e-06,1114122,0.0,0.0,0.0,0.5,0.0,0.0,0.0,1,1,0
269661578,269659173,2162698,-0.0006672063,-0.003104283,0.00077032094,0.34906584,2.5995668e-09,2.5788225e-09,3.7057621e-09,2162698,0.5049342,-0.36816314,0.04252934,0.4,0.00023258264,0.00028717006,4.9973905e-06,1114122,0.0,0.0,0.0,0.5,0.0,0.0,0.0,1,1,0
269674416,269669178,2162698,-0.0006672111,-0.0031043054,0.0007703265,0.34906584,2.6005837e-09,2.5798403e-09,3.7067844e-09,2162698,0.40000287,-0.3681658,0.042529646,0.4,0.00023258431,0.00028717212,4.997435e-06,1114122,0.0,0.0,0.0,0.5,0.0,0.0,0.0,1,1,0
269714510,269709202,2162698,-0.00066849595,-0.0031074763,0.0007706065,0.34906584,2.604519e-09,2.583514e-09,3.7107595e-09,2162698,0.39340052,-0.36718217,0.042993736,0.4,0.00023123044,0.00028714119,4.997409e-06,1114122,0.0,0.0,0.0,0.5,0.0,0.0,0.0,1,1,0
269771181,269769230,2162698,-0.00067002163,-0.0031113154,0.00077094696,0.34906584,2.610473e-09,2.5892135e-09,3.7167573e-09,2162698,0.38528693,-0.365942,0.043568473,0.4,0.00022986587,0.00028711013,4.997424e-06,1114122,0.0,0.0,0.0,0.5,0.0,0.0,0.0,1,1,0
269824626,269819256,2162698,-0.0006713873,-0.003114797,0.00077125087,0.34906584,2.6154137e-09,2.5939084e-09,3.7217298e-09,2162698,0.37775382,-0.3647616,0.044104584,0.4,0.00022850295,0.00028707588,4.9974083e-06,1114122,0.0,0.0,0.0,0.5,0.0,0.0,0.0,1,1,0
269861359,269859276,2162698,-0.00071672996,-0.0032103618,0.0007732116,0.34906584,2.6145306e-09,2.5913904e-09,3.7236592e-09,2162698,0.49727416,-0.38231286,0.045788743,0.4,0.00021942589,0.0002754023,4.9974215e-06,1114122,0.0,0.0,0.0,0.5,0.0,0.0,0.0,1,1,0
269874161,269869281,2162698,-0.0007167301,-0.0032103623,0.0007732117,0.34906584,2.615529e-09,2.5923896e-09,3.7246553e-09,2162698,0.40000007,-0.38231292,0.04578875,0.4,0.00021942591,0.00027540233,4.997431e-06,1114122,0.0,0.0,0.0,0.5,0.0,0.0,0.0,1,1,0
269881141,269879287,2162698,-0.00071806106,-0.0032137556,0.0007734871,0.34906584,2.6164808e-09,2.5930753e-09,3.7256536e-09,2162698,0.39314052,-0.381223,0.04629989,0.4,0.00021814005,0.00027536994,4.9974233e-06,1114122,0.0,0.0,0.0,0.5,0.0,0.0,0.0,1,1,0
269934677,269929313,2162698,-0.0007197189,-0.0032180543,0.0007738312,0.34906584,2.6214289e-09,2.5977678e-09,3.730637e-09,2162698,0.3843011,-0.3797821,0.04696241,0.4,0.00021685888,0.00027533591,4.997423e-06,1114122,0.0,0.0,0.0,0.5,0.0,0.0,0.0,1,1,0
269981206,269979338,2162698,-0.0007202026,-0.0032237386,0.00077261537,0.34906584,2.6259082e-09,2.6020226e-09,3.734828e-09,2162698,0.37481153,-0.37821266,0.04767764,0.4,0.00021558274,0.00027530035,4.9974274e-06,1114122,0.0,0.0,0.0,0.5,0.0,0.0,0.0,1,1,0
270044750,270039369,2162698,-0.00071798154,-0.0032302532,0.00076856726,0.34906584,2.6304587e-09,2.6063893e-09,3.738512e-09,2162698,0.36731645,-0.37697977,0.048246004,0.4,0.00021429893,0.00027526153,4.997424e-06,1114122,0.0,0.0,0.0,0.5,0.0,0.0,0.0,1,1,0
270064769,270059388,2162698,-0.00075710745,-0.0033208495,0.00076884794,0.34906584,2.627363e-09,2.6015268e-09,3.7380627e-09,2162698,0.47767976,-0.39180312,0.050010417,0.4,0.00020552693,0.0002636157,4.9974265e-06,1114122,0.0,0.0,0.0,0.5,0.0,0.0,0.0,1,1,0
270071302,270069392,2162698,-0.0007571076,-0.0033208502,0.0007688481,0.34906584,2.628363e-09,2.6025269e-09,3.739063e-09,2162698,0.40000013,-0.3918032,0.050010428,0.4,0.00020552697,0.00026361574,4.9974365e-06,1114122,0.0,0.0,0.0,0.5,0.0,0.0,0.0,1,1,0
270091298,270089401,2162698,-0.00075760245,-0.0033264048,0.000767679,0.34906584,2.6298639e-09,2.6037792e-09,3.7403227e-09,2162698,0.39097843,-0.3902432,0.050728545,0.4,0.00020433452,0.00026357907,4.9974287e-06,1114122,0.0,0.0,0.0,0.5,0.0,0.0,0.0,1,1,0
270144768,270139422,2162698,-0.0007557932,-0.0033334652,0.00076376315,0.34906584,2.6334719e-09,2.607155e-09,3.7432053e-09,2162698,0.38133597,-0.3885691,0.051502854,0.4,0.00020314769,0.00026353987,4.9974233e-06,1114122,0.0,0.0,0.0,0.5,0.0,0.0,0.0,1,1,0
270204893,270199465,2162698,-0.0007540557,-0.0033403921,0.0007601672,0.34906584,2.6381026e-09,2.6115357e-09,3.7472097e-09,2162698,0.37250358,-0.38697976,0.052215464,0.4,0.0002019563,0.00026349674,4.9974e-06,1114122,0.0,0.0,0.0,0.5,0.0,0.0,0.0,1,1,0
270254857,270249473,2162698,-0.00075314444,-0.0033462683,0.0007575328,0.34906584,2.6422127e-09,2.6153888e-09,3.7508885e-09,2162698,0.36359537,-0.3852985,0.052941635,0.4,0.00020077542,0.00026345396,4.997424e-06,1114122,0.0,0.0,0.0,0.5,0.0,0.0,0.0,1,1,0
270261496,270259490,2162698,-0.0007881293,-0.0034301276,0.0007586022,0.34906584,2.6388647e-09,2.61013e-09,3.7505212e-09,2162698,0.46462393,-0.39711735,0.05476264,0.4,0.00019237747,0.00025195617,4.997425e-06,1114122,0.0,0.0,0.0,0.5,0.0,0.0,0.0,1,1,0
270274573,270269502,2162698,-0.0007868198,-0.0034309826,0.00075695687,0.34906584,2.6394344e-09,2.6106868e-09,3.7508143e-09,2162698,0.40000707,-0.39713868,0.054763168,0.4,0.00019237696,0.00025195608,4.9974333e-06,1114122,0.0,0.0,0.0,0.5,0.0,0.0,0.0,1,1,0
270301396,270299504,2162698,-0.0007872713,-0.0034363037,0.0007556987,0.34906584,2.6419702e-09,2.612951e-09,3.753084e-09,2162698,0.39083913,-0.3953646,0.055546172,0.4,0.00019128316,0.00025191435,4.9974283e-06,1114122,0.0,0.0,0.0,0.5,0.0,0.0,0.0,1,1,0
270361444,270359537,2162698,-0.00078534806,-0.0034435613,0.00075131276,0.34906584,2.6466707e-09,2.617353e-09,3.756812e-09,2162698,0.38137156,-0.39349344,0.05636448,0.4,0.0001901875,0.0002518703,4.9974537e-06,1114122,0.0,0.0,0.0,0.5,0.0,0.0,0.0,1,1,0
270414993,270409593,2162698,-0.00078394037,-0.0034519942,0.0007472818,0.34906584,2.6503653e-09,2.620746e-09,3.7594328e-09,2162698,0.36987665,-0.39114577,0.057360243,0.4,0.00018909885,0.0002518211,4.997428e-06,1114122,0.0,0.0,0.0,0.5,0.0,0.0,0.0,1,1,0
270465111,270459587,2162698,-0.0008134348,-0.0035372146,0.0007450915,0.34906584,2.6504445e-09,2.6185192e-09,3.7617576e-09,2162698,0.45065007,-0.39748606,0.060179144,0.4,0.00018004402,0.00024052573,4.997412e-06,1114122,0.0,0.0,0.0,0.5,0.0,0.0,0.0,1,1,0
270471395,270469592,2162698,-0.00081343576,-0.0035372188,0.00074509246,0.34906584,2.6514473e-09,2.619522e-09,3.762761e-09,2162698,0.40000045,-0.39748654,0.06017922,0.4,0.00018004426,0.00024052602,4.997427e-06,1114122,0.0,0.0,0.0,0.5,0.0,0.0,0.0,1,1,0
270524948,270519618,2162698,-0.0008117695,-0.0035461222,0.00074051245,0.34906584,2.655109e-09,2.622851e-09,3.765204e-09,2162698,0.38894486,-0.39509708,0.06119276,0.4,0.00017903476,0.00024046954,4.9972696e-06,1114122,0.0,0.0,0.0,0.5,0.0,0.0,0.0,1,1,0
270571520,270569644,2162698,-0.00081107835,-0.0035548713,0.00073690986,0.34906584,2.6593554e-09,2.6267943e-09,3.7686445e-09,2162698,0.37626338,-0.39224035,0.062373605,0.4,0.00017804647,0.00024042539,4.9974337e-06,1114122,0.0,0.0,0.0,0.5,0.0,0.0,0.0,1,1,0
270631543,270629675,2162698,-0.0008085609,-0.0035646616,0.0007310417,0.34906584,2.6641196e-09,2.631238e-09,3.772052e-09,2162698,0.36442378,-0.3894825,0.063481435,0.4,0.00017705296,0.00024036875,4.9974315e-06,1114122,0.0,0.0,0.0,0.5,0.0,0.0,0.0,1,1,0
270661845,270659691,2162698,-0.00083237805,-0.0036369401,0.00072927796,0.34906584,2.6629734e-09,2.6279687e-09,3.773348e-09,2162698,0.44743907,-0.39507452,0.06530194,0.4,0.00016945913,0.00022945931,4.9974287e-06,1114122,0.0,0.0,0.0,0.5,0.0,0.0,0.0,1,1,0
270674979,270669696,2162698,-0.0008311716,-0.003638155,0.0007275403,0.34906584,2.663567e-09,2.62854e-09,3.7734154e-09,2162698,0.39999688,-0.39509374,0.0653019,0.4,0.00016945862,0.00022945912,4.997437e-06,1114122,0.0,0.0,0.0,0.5,0.0,0.0,0.0,1,1,0
270681637,270679701,2162698,-0.00083283114,-0.0036437311,0.00072759105,0.34906584,2.6645415e-09,2.629255e-09,3.774415e-09,2162698,0.39001393,-0.39268485,0.06628463,0.4,0.00016854591,0.00022940598,4.9974296e-06,1114122,0.0,0.0,0.0,0.5,0.0,0.0,0.0,1,1,0
270735083,270729727,2162698,-0.0008302214,-0.0036525214,0.0007215333,0.34906584,2.668273e-09,2.6326932e-09,3.7764156e-09,2162698,0.38073868,-0.39040732,0.067207076,0.4,0.00016764131,0.00022934878,4.997428e-06,1114122,0.0,0.0,0.0,0.5,0.0,0.0,0.0,1,1,0
270795110,270789758,2162698,-0.0008271891,-0.0036611583,0.0007148626,0.34906584,2.6729559e-09,2.6371474e-09,3.779051e-09,2162698,0.37231693,-0.38824627,0.068052776,0.4,0.00016673934,0.00022928673,4.9974274e-06,1114122,0.0,0.0,0.0,0.5,0.0,0.0,0.0,1,1,0
270841787,270839784,2162698,-0.0008251914,-0.0036687374,0.00070979394,0.34906584,2.6770517e-09,2.6410418e-09,3.7816776e-09,2162698,0.36390695,-0.38600025,0.068903044,0.4,0.00016584844,0.00022922127,4.997426e-06,1114122,0.0,0.0,0.0,0.5,0.0,0.0,0.0,1,1,0
270865243,270859805,2162698,-0.0008440047,-0.0037349348,0.00070673024,0.34906584,2.6751743e-09,2.637009e-09,3.781851e-09,2162698,0.43799058,-0.388479,0.07070258,0.4,0.00015872627,0.0002187212,4.997428e-06,1114122,0.0,0.0,0.0,0.5,0.0,0.0,0.0,1,1,0
270871538,270869799,2162698,-0.00084400474,-0.003734935,0.0007067303,0.34906584,2.6761737e-09,2.6380085e-09,3.782851e-09,2162698,0.40000004,-0.38847902,0.07070259,0.4,0.00015872628,0.00021872121,4.997437e-06,1114122,0.0,0.0,0.0,0.5,0.0,0.0,0.0,1,1,0
270905234,270899815,2162698,-0.00084221567,-0.0037420802,0.0007018803,0.34906584,2.678229e-09,2.6398723e-09,3.783291e-09,2162698,0.3925191,-0.38644233,0.07150118,0.4,0.00015790167,0.00021865762,4.997426e-06,1114122,0.0,0.0,0.0,0.5,0.0,0.0,0.0,1,1,0
270951880,270949863,2162698,-0.0008404202,-0.003750319,0.0006966505,0.34906584,2.6822524e-09,2.6437412e-09,3.785592e-09,2162698,0.3831906,-0.38380563,0.072505906,0.4,0.00015708762,0.00021859036,4.997425e-06,1114122,0.0,0.0,0.0,0.5,0.0,0.0,0.0,1,1,0
271005211,270999870,2162698,-0.00083672744,-0.0037592615,0.00068895065,0.34906584,2.6857532e-09,2.6471796e-09,3.7863788e-09,2162698,0.37545943,-0.38158113,0.07334507,0.4,0.00015628377,0.00021851859,4.997424e-06,1114122,0.0,0.0,0.0,0.5,0.0,0.0,0.0,1,1,0
271062142,271059898,2162698,-0.00084997446,-0.003824165,0.0006822845,0.34906584,2.6875273e-09,2.6466271e-09,3.7889385e-09,2162698,0.43430352,-0.3788798,0.07578412,0.4,0.00014883468,0.00020840143,4.997314e-06,1114122,0.0,0.0,0.0,0.5,0.0,0.0,0.0,1,1,0
271075081,271069903,2162698,-0.0008483509,-0.0038258105,0.0006796606,0.34906584,2.6880598e-09,2.647236e-09,3.788521e-09,2162698,0.40001398,-0.37891483,0.075786136,0.4,0.0001488376,0.0002084055,4.9974333e-06,1114122,0.0,0.0,0.0,0.5,0.0,0.0,0.0,1,1,0
271115200,271109924,2162698,-0.0008464474,-0.0038331659,0.0006746797,0.34906584,2.6909666e-09,2.650065e-09,3.7894776e-09,2162698,0.39232737,-0.37656325,0.0766726,0.4,0.0001481054,0.00020833182,4.997409e-06,1114122,0.0,0.0,0.0,0.5,0.0,0.0,0.0,1,1,0
271162027,271159954,2162698,-0.0008441318,-0.0038405354,0.0006692139,0.34906584,2.6948712e-09,2.6539098e-09,3.7914254e-09,2162698,0.3850011,-0.3742424,0.07752755,0.4,0.00014738464,0.00020825528,4.9974233e-06,1114122,0.0,0.0,0.0,0.5,0.0,0.0,0.0,1,1,0
271221893,271219984,2162698,-0.0008401455,-0.003849278,0.0006617005,0.34906584,2.699174e-09,2.658273e-09,3.7927426e-09,2162698,0.37828153,-0.37210828,0.07831465,0.4,0.00014666827,0.00020817124,4.9974237e-06,1114122,0.0,0.0,0.0,0.5,0.0,0.0,0.0,1,1,0
271265422,271260002,2162698,-0.0008481701,-0.0039035531,0.000654969,0.34906584,2.699147e-09,2.65619e-09,3.793204e-09,2162698,0.43481454,-0.36799797,0.0799224,0.4,0.00014043933,0.00019863003,4.9974233e-06,1114122,0.0,0.0,0.0,0.5,0.0,0.0,0.0,1,1,0
271272037,271270007,2162698,-0.0008488984,-0.0039071133,0.00065463356,0.34906584,2.7001261e-09,2.6569453e-09,3.794187e-09,2162698,0.39402017,-0.36594027,0.0806655,0.4,0.00013978445,0.00019855188,4.997404e-06,1114122,0.0,0.0,0.0,0.5,0.0,0.0,0.0,1,1,0
271332131,271330038,2162698,-0.00084441504,-0.0039156727,0.0006463347,0.34906584,2.7042368e-09,2.661263e-09,3.7950456e-09,2162698,0.38790935,-0.36390522,0.08143187,0.4,0.0001391346,0.00019846579,4.997409e-06,1114122,0.0,0.0,0.0,0.5,0.0,0.0,0.0,1,1,0
271385278,271380064,2162698,-0.0008395752,-0.003924703,0.00063788064,0.34906584,2.7072637e-09,2.6645974e-09,3.7947463e-09,2162698,0.38120815,-0.36162096,0.08227832,0.4,0.00013849554,0.00019837516,4.9974237e-06,1114122,0.0,0.0,0.0,0.5,0.0,0.0,0.0,1,1,0
271432162,271430106,2162698,-0.00083617336,-0.0039321515,0.00063159096,0.34906584,2.7109073e-09,2.6684297e-09,3.796182e-09,2162698,0.37435472,-0.359122,0.08315312,0.4,0.00013786688,0.00019827981,4.9974233e-06,1114122,0.0,0.0,0.0,0.5,0.0,0.0,0.0,1,1,0
271462406,271460105,2162698,-0.0008411101,-0.0039780526,0.000626267,0.34906584,2.7106237e-09,2.6660179e-09,3.79722e-09,2162698,0.42224467,-0.35149536,0.08462079,0.4,0.0001321023,0.00018927122,4.997426e-06,1114122,0.0,0.0,0.0,0.5,0.0,0.0,0.0,1,1,0
271475238,271470110,2162698,-0.00083976757,-0.0039793598,0.0006244112,0.34906584,2.7109286e-09,2.6665241e-09,3.7964285e-09,2162698,0.39998743,-0.3515643,0.08461994,0.4,0.00013210202,0.00018927018,4.9974346e-06,1114122,0.0,0.0,0.0,0.5,0.0,0.0,0.0,1,1,0
271495469,271490121,2162698,-0.00083854556,-0.0039851307,0.00062126684,0.34906584,2.7122227e-09,2.667838e-09,3.7966332e-09,2162698,0.39283413,-0.34883112,0.08558711,0.4,0.00013152389,0.00018917916,4.9974237e-06,1114122,0.0,0.0,0.0,0.5,0.0,0.0,0.0,1,1,0
271542290,271540147,2162698,-0.0008358489,-0.003991979,0.00061607995,0.34906584,2.7157596e-09,2.6716358e-09,3.797999e-09,2162698,0.3856782,-0.34605044,0.08655981,0.4,0.00013095347,0.00018907903,4.9973432e-06,1114122,0.0,0.0,0.0,0.5,0.0,0.0,0.0,1,1,0
271595469,271590173,2162698,-0.0008299799,-0.004001205,0.0006065149,0.34906584,2.7186353e-09,2.675059e-09,3.797694e-09,2162698,0.37886927,-0.3434436,0.0874979,0.4,0.00013039705,0.00018897859,4.9974283e-06,1114122,0.0,0.0,0.0,0.5,0.0,0.0,0.0,1,1,0
271655693,271650207,2162698,-0.00082432997,-0.004009035,0.0005976139,0.34906584,2.722429e-09,2.6794673e-09,3.798378e-09,2162698,0.3734799,-0.34131444,0.08824631,0.4,0.00012984443,0.00018886667,4.9974233e-06,1114122,0.0,0.0,0.0,0.5,0.0,0.0,0.0,1,1,0
271662470,271660209,2162698,-0.0008269653,-0.0040461854,0.0005942248,0.34906584,2.7210432e-09,2.6757285e-09,3.7992494e-09,2162698,0.4130115,-0.33022967,0.08953173,0.4,0.00012452669,0.00018040395,4.997424e-06,1114122,0.0,0.0,0.0,0.5,0.0,0.0,0.0,1,1,0
271672037,271670214,2162698,-0.0008269655,-0.0040461863,0.0005942249,0.34906584,2.7220433e-09,2.6767286e-09,3.80025e-09,2162698,0.40000013,-0.33022976,0.08953175,0.4,0.00012452673,0.00018040401,4.997434e-06,1114122,0.0,0.0,0.0,0.5,0.0,0.0,0.0,1,1,0
271705516,271700230,2162698,-0.0008233755,-0.004052619,0.00058823405,0.34906584,2.723576e-09,2.678629e-09,3.799788e-09,2162698,0.3937517,-0.32761678,0.09045143,0.4,0.00012402309,0.00018029964,4.997423e-06,1114122,0.0,0.0,0.0,0.5,0.0,0.0,0.0,1,1,0
271752267,271750256,2162698,-0.0008197284,-0.004059367,0.0005821412,0.34906584,2.72713e-09,2.6825537e-09,3.801428e-09,2162698,0.38638684,-0.32437822,0.09154591,0.4,0.00012352862,0.00018018924,4.997407e-06,1114122,0.0,0.0,0.0,0.5,0.0,0.0,0.0,1,1,0
271812282,271810284,2162698,-0.00081382407,-0.0040685055,0.000572665,0.34906584,2.7310538e-09,2.6870721e-09,3.8026635e-09,2162698,0.3775734,-0.32038352,0.09286952,0.4,0.00012304091,0.00018007042,4.997422e-06,1114122,0.0,0.0,0.0,0.5,0.0,0.0,0.0,1,1,0
271862552,271860322,2162698,-0.0008088909,-0.004104994,0.00056245463,0.34906584,2.7325018e-09,2.6865143e-09,3.804493e-09,2162698,0.40087414,-0.30226356,0.09520394,0.4,0.00011766994,0.00017202993,4.997422e-06,1114122,0.0,0.0,0.0,0.5,0.0,0.0,0.0,1,1,0
271922191,271920351,2162698,-0.00080318865,-0.004113078,0.00055337383,0.34906584,2.7365195e-09,2.6911184e-09,3.8060177e-09,2162698,0.39172179,-0.298284,0.096536316,0.4,0.0001172315,0.00017190984,4.997437e-06,1114122,0.0,0.0,0.0,0.5,0.0,0.0,0.0,1,1,0
271975787,271970370,2162698,-0.0007975366,-0.004120448,0.0005443832,0.34906584,2.7395386e-09,2.6947438e-09,3.806567e-09,2162698,0.3840145,-0.2944227,0.09778743,0.4,0.000116800096,0.00017178108,4.9973773e-06,1114122,0.0,0.0,0.0,0.5,0.0,0.0,0.0,1,1,0
272022302,272020396,2162698,-0.000793341,-0.0041264156,0.0005375314,0.34906584,2.7432079e-09,2.698811e-09,3.8085894e-09,2162698,0.37543628,-0.28983435,0.09919405,0.4,0.00011637666,0.00017164591,4.997281e-06,1114122,0.0,0.0,0.0,0.5,0.0,0.0,0.0,1,1,0
272062429,272060417,2162698,-0.0007853081,-0.0041521885,0.0005276545,0.34906584,2.7440086e-09,2.697713e-09,3.809687e-09,2162698,0.39972386,-0.2732461,0.099998556,0.4,0.0001118575,0.00016425583,4.9974306e-06,1114122,0.0,0.0,0.0,0.5,0.0,0.0,0.0,1,1,0
272082263,272080427,2162698,-0.0007827791,-0.0041565364,0.00052317115,0.34906584,2.745385e-09,2.6992653e-09,3.810238e-09,2162698,0.39171347,-0.26879707,0.10139704,0.4,0.0001114717,0.0001641307,4.9974274e-06,1114122,0.0,0.0,0.0,0.5,0.0,0.0,0.0,1,1,0
272132434,272130456,2162698,-0.0007782309,-0.004162185,0.00051563873,0.34906584,2.7491465e-09,2.703448e-09,3.8123424e-09,2162698,0.38348886,-0.26414067,0.10284636,0.4,0.00011109395,0.00016399808,4.997429e-06,1114122,0.0,0.0,0.0,0.5,0.0,0.0,0.0,1,1,0
272185671,272180505,2162698,-0.000771431,-0.004168858,0.00050485827,0.34906584,2.7523026e-09,2.707277e-09,3.8129815e-09,2162698,0.37524176,-0.2593795,0.10431642,0.4,0.000110723675,0.00016385723,4.997417e-06,1114122,0.0,0.0,0.0,0.5,0.0,0.0,0.0,1,1,0
272242350,272240510,2162698,-0.00076625287,-0.0041736607,0.0004965658,0.34906584,2.757075e-09,2.7125135e-09,3.8160133e-09,2162698,0.36822698,-0.2550924,0.10558172,0.4,0.00011035931,0.00016370806,4.997412e-06,1114122,0.0,0.0,0.0,0.5,0.0,0.0,0.0,1,1,0
272262585,272260520,2162698,-0.00075764675,-0.0041909395,0.0004890608,0.34906584,2.7566196e-09,2.7099731e-09,3.816321e-09,2162698,0.38615358,-0.23635551,0.10612995,0.4,0.00010621244,0.00015683797,4.997429e-06,1114122,0.0,0.0,0.0,0.5,0.0,0.0,0.0,1,1,0
272295743,272290536,2162698,-0.00075286446,-0.00419496,0.0004812913,0.34906584,2.7583482e-09,2.7121647e-09,3.816226e-09,2162698,0.3790053,-0.23189017,0.10749556,0.4,0.00010587839,0.00015669416,4.9972964e-06,1114122,0.0,0.0,0.0,0.5,0.0,0.0,0.0,1,1,0
272352503,272350561,2162698,-0.00074746524,-0.0041992143,0.0004725029,0.34906584,2.7632296e-09,2.7175118e-09,3.819278e-09,2162698,0.37148598,-0.22698328,0.10895944,0.4,0.00010555541,0.00015654921,4.9974265e-06,1114122,0.0,0.0,0.0,0.5,0.0,0.0,0.0,1,1,0
272405831,272400593,2162698,-0.000739493,-0.004204609,0.0004595503,0.34906584,2.7664955e-09,2.721452e-09,3.8197054e-09,2162698,0.3636636,-0.22175775,0.11049833,0.4,0.000105236824,0.00015639236,4.9974255e-06,1114122,0.0,0.0,0.0,0.5,0.0,0.0,0.0,1,1,0
272452536,272450619,2162698,-0.0007340756,-0.004207981,0.00045079368,0.34906584,2.7703708e-09,2.7257485e-09,3.8216528e-09,2162698,0.3566091,-0.21679048,0.11189588,0.4,0.00010492593,0.00015622954,4.997424e-06,1114122,0.0,0.0,0.0,0.5,0.0,0.0,0.0,1,1,0
272466238,272460624,2162698,-0.00072319637,-0.004218923,0.00044257715,0.34906584,2.7691454e-09,2.722427e-09,3.8208365e-09,2162698,0.3689754,-0.19640912,0.11217635,0.4,0.00010112487,0.0001498652,4.997455e-06,1114122,0.0,0.0,0.0,0.5,0.0,0.0,0.0,1,1,0
272515863,272510650,2162698,-0.00071721274,-0.0042219623,0.00043270015,0.34906584,2.7730633e-09,2.7266998e-09,3.822783e-09,2162698,0.3619116,-0.1913303,0.113670036,0.4,0.0001008403,0.00014970927,4.997424e-06,1114122,0.0,0.0,0.0,0.5,0.0,0.0,0.0,1,1,0
272562551,272560676,2162698,-0.0007111403,-0.0042250077,0.00042265112,0.34906584,2.7770353e-09,2.7309792e-09,3.8247694e-09,2162698,0.3544485,-0.18576723,0.11525988,0.4,0.00010056327,0.00014954772,4.9974233e-06,1114122,0.0,0.0,0.0,0.5,0.0,0.0,0.0,1,1,0
272622653,272620707,2162698,-0.0007027856,-0.004228852,0.00040879502,0.34906584,2.7815632e-09,2.7358915e-09,3.826292e-09,2162698,0.34729922,-0.18025024,0.116814695,0.4,0.000100291196,0.00014937563,4.9974237e-06,1114122,0.0,0.0,0.0,0.5,0.0,0.0,0.0,1,1,0
272662901,272660728,2162698,-0.00068837736,-0.0042346497,0.00039740477,0.34906584,2.7830607e-09,2.735363e-09,3.8268384e-09,2162698,0.35469577,-0.15833229,0.11680982,0.4,9.678585e-05,0.00014347461,4.9974024e-06,1114122,0.0,0.0,0.0,0.5,0.0,0.0,0.0,1,1,0
272676098,272670733,2162698,-0.0006847221,-0.0042357715,0.00039124856,0.34906584,2.7835982e-09,2.7360074e-09,3.8263215e-09,2162698,0.34831503,-0.15325788,0.1182636,0.4,9.654029e-05,0.00014331628,4.9974233e-06,1114122,0.0,0.0,0.0,0.5,0.0,0.0,0.0,1,1,0
272726086,272720761,2162698,-0.000678631,-0.004237934,0.0003809298,0.34906584,2.7876743e-09,2.7402545e-09,3.828264e-09,2162698,0.34162772,-0.14780782,0.11981209,0.4,9.6300086e-05,0.00014315023,4.997417e-06,1114122,0.0,0.0,0.0,0.5,0.0,0.0,0.0,1,1,0
272785993,272780790,2162698,-0.00067065516,-0.004241207,0.00036720454,0.34906584,2.7923368e-09,2.7451132e-09,3.829678e-09,2162698,0.3362965,-0.14334242,0.12107765,0.4,9.6064534e-05,0.00014297452,4.997422e-06,1114122,0.0,0.0,0.0,0.5,0.0,0.0,0.0,1,1,0
272832981,272830816,2162698,-0.000664738,-0.0042425967,0.00035726023,0.34906584,2.7964462e-09,2.749326e-09,3.831565e-09,2162698,0.33066818,-0.13839619,0.12241938,0.4,9.58359e-05,0.00014279276,4.997412e-06,1114122,0.0,0.0,0.0,0.5,0.0,0.0,0.0,1,1,0
272866315,272860861,2162698,-0.00064910116,-0.004242992,0.00034541928,0.34906584,2.7971916e-09,2.7479656e-09,3.8308827e-09,2162698,0.33400583,-0.11536057,0.12213394,0.4,9.2619965e-05,0.00013735161,4.9974196e-06,1114122,0.0,0.0,0.0,0.5,0.0,0.0,0.0,1,1,0
272886169,272880842,2162698,-0.0006454812,-0.004243269,0.00033930567,0.34906584,2.798755e-09,2.7495641e-09,3.831291e-09,2162698,0.32908407,-0.11096354,0.123369105,0.4,9.241385e-05,0.00013718376,4.9974215e-06,1114122,0.0,0.0,0.0,0.5,0.0,0.0,0.0,1,1,0
272942902,272940873,2162698,-0.0006400318,-0.004244401,0.00033000283,0.34906584,2.8039053e-09,2.7547453e-09,3.8341366e-09,2162698,0.3242528,-0.10652232,0.12460636,0.4,9.221191e-05,0.00013700663,4.997422e-06,1114122,0.0,0.0,0.0,0.5,0.0,0.0,0.0,1,1,0
272996254,272990899,2162698,-0.0006325795,-0.004246298,0.0003171868,0.34906584,2.8076674e-09,2.7585019e-09,3.8344554e-09,2162698,0.31955832,-0.102092564,0.12583719,0.4,9.201496e-05,0.00013682335,4.997423e-06,1114122,0.0,0.0,0.0,0.5,0.0,0.0,0.0,1,1,0
273042830,273040925,2162698,-0.00062718644,-0.0042468184,0.00030795456,0.34906584,2.8118423e-09,2.762648e-09,3.8363317e-09,2162698,0.31539738,-0.09799426,0.12693928,0.4,9.182527e-05,0.0001366352,4.997422e-06,1114122,0.0,0.0,0.0,0.5,0.0,0.0,0.0,1,1,0
273062962,273060935,2162698,-0.0006128237,-0.004240821,0.0002998895,0.34906584,2.8121547e-09,2.7608396e-09,3.836034e-09,2162698,0.3151194,-0.073780976,0.12635311,0.4,8.887357e-05,0.00013162999,4.9974237e-06,1114122,0.0,0.0,0.0,0.5,0.0,0.0,0.0,1,1,0
273102830,273100956,2162698,-0.000607531,-0.0042407564,0.0002908374,0.34906584,2.8153517e-09,2.7639824e-09,3.8369636e-09,2162698,0.31083435,-0.06947893,0.12756312,0.4,8.870146e-05,0.00013145286,4.997422e-06,1114122,0.0,0.0,0.0,0.5,0.0,0.0,0.0,1,1,0
273152879,273150982,2162698,-0.00060214434,-0.0042407247,0.0002816224,0.34906584,2.8195561e-09,2.7681122e-09,3.838934e-09,2162698,0.30670762,-0.065218225,0.12874298,0.4,8.8535286e-05,0.00013127096,4.997422e-06,1114122,0.0,0.0,0.0,0.5,0.0,0.0,0.0,1,1,0
273206236,273201008,2162698,-0.00059476047,-0.004241384,0.0002687187,0.34906584,2.8233877e-09,2.7717975e-09,3.8395136e-09,2162698,0.30237323,-0.060641076,0.13000716,0.4,8.8373425e-05,0.00013108313,4.997405e-06,1114122,0.0,0.0,0.0,0.5,0.0,0.0,0.0,1,1,0
273266604,273261042,2162698,-0.0005749613,-0.0042298986,0.00025261892,0.34906584,2.82705e-09,2.7732492e-09,3.840292e-09,2162698,0.29486483,-0.030868618,0.1303475,0.4,8.5506756e-05,0.00012629463,4.997421e-06,1114122,0.0,0.0,0.0,0.5,0.0,0.0,0.0,1,1,0
273313003,273311067,2162698,-0.00057008956,-0.004229201,0.00024429476,0.34906584,2.831285e-09,2.7773461e-09,3.842461e-09,2162698,0.29118055,-0.026768705,0.1315004,0.4,8.536695e-05,0.00012611496,4.9974196e-06,1114122,0.0,0.0,0.0,0.5,0.0,0.0,0.0,1,1,0
273376435,273371114,2162698,-0.00056361605,-0.0042289924,0.00023308635,0.34906584,2.8361493e-09,2.7819864e-09,3.8442893e-09,2162698,0.28739247,-0.022440268,0.13271281,0.4,8.5230626e-05,0.00012592706,4.997405e-06,1114122,0.0,0.0,0.0,0.5,0.0,0.0,0.0,1,1,0
273423103,273421130,2162698,-0.000558483,-0.0042277006,0.0002244348,0.34906584,2.8403888e-09,2.7860565e-09,3.8465204e-09,2162698,0.28358203,-0.01789895,0.13394684,0.4,8.510111e-05,0.00012573648,4.9974096e-06,1114122,0.0,0.0,0.0,0.5,0.0,0.0,0.0,1,1,0
273463153,273461143,2162698,-0.00054183305,-0.0042128614,0.00021448931,0.34906584,2.8425133e-09,2.7860896e-09,3.8467207e-09,2162698,0.27754664,0.008255042,0.1327527,0.4,8.2598104e-05,0.00012150635,4.9973637e-06,1114122,0.0,0.0,0.0,0.5,0.0,0.0,0.0,1,1,0
273476420,273471148,2162698,-0.00053853367,-0.004210816,0.00020910137,0.34906584,2.8431149e-09,2.7865883e-09,3.846301e-09,2162698,0.27419752,0.012330253,0.13390034,0.4,8.248254e-05,0.000121330915,4.9973546e-06,1114122,0.0,0.0,0.0,0.5,0.0,0.0,0.0,1,1,0
273533173,273531180,2162698,-0.00053369335,-0.004208949,0.00020106122,0.34906584,2.8483824e-09,2.7916782e-09,3.8495838e-09,2162698,0.27098086,0.016379997,0.13504569,0.4,8.237113e-05,0.00012114892,4.9973846e-06,1114122,0.0,0.0,0.0,0.5,0.0,0.0,0.0,1,1,0
273586378,273581206,2162698,-0.0005271296,-0.004207657,0.00018973506,0.34906584,2.852311e-09,2.7953393e-09,3.850569e-09,2162698,0.2674176,0.020937555,0.13633294,0.4,8.226343e-05,0.00012096231,4.997424e-06,1114122,0.0,0.0,0.0,0.5,0.0,0.0,0.0,1,1,0
273633230,273631231,2162698,-0.00052196404,-0.0042049866,0.00018119406,0.34906584,2.8565688e-09,2.7993765e-09,3.8528496e-09,2162698,0.2636431,0.025989324,0.13770962,0.4,8.216078e-05,0.00012077233,4.997424e-06,1114122,0.0,0.0,0.0,0.5,0.0,0.0,0.0,1,1,0
273666669,273661247,2162698,-0.00050549104,-0.004186094,0.00017197781,0.34906584,2.8577911e-09,2.7985576e-09,3.8519774e-09,2162698,0.25544947,0.05274455,0.13620785,0.4,7.985923e-05,0.000116903044,4.997422e-06,1114122,0.0,0.0,0.0,0.5,0.0,0.0,0.0,1,1,0
273693362,273691263,2162698,-0.00050156715,-0.00418247,0.0001658365,0.34906584,2.8603977e-09,2.8010123e-09,3.853555e-09,2162698,0.25189155,0.057660703,0.13759619,0.4,7.976807e-05,0.000116726056,4.99742e-06,1114122,0.0,0.0,0.0,0.5,0.0,0.0,0.0,1,1,0
273743193,273741289,2162698,-0.0004968867,-0.0041793133,0.00015819646,0.34906584,2.8646592e-09,2.8050504e-09,3.8557677e-09,2162698,0.24864468,0.06226628,0.13889551,0.4,7.968002e-05,0.00011654457,4.997425e-06,1114122,0.0,0.0,0.0,0.5,0.0,0.0,0.0,1,1,0
273803228,273801320,2162698,-0.00049020734,-0.0041757426,0.00014704798,0.34906584,2.869555e-09,2.8096798e-09,3.8575103e-09,2162698,0.24526566,0.0672612,0.14030783,0.4,7.9594705e-05,0.000116355564,4.99742e-06,1114122,0.0,0.0,0.0,0.5,0.0,0.0,0.0,1,1,0
273856693,273851346,2162698,-0.00048401635,-0.004172653,0.00013653503,0.34906584,2.8734366e-09,2.8133247e-09,3.8581405e-09,2162698,0.24235444,0.07169822,0.14155005,0.4,7.951349e-05,0.00011616333,4.997421e-06,1114122,0.0,0.0,0.0,0.5,0.0,0.0,0.0,1,1,0
