timestamp,indicated_airspeed_m_s,true_airspeed_m_s,air_temperature_celsius,confidence
186839189,-1.010319,-1.0036561,11.7489,1.0
186849937,-2.1850116,-2.1698573,11.553493,1.0
186860727,-2.809643,-2.7901084,11.553493,1.0
186871693,-3.0019042,-2.9810328,11.553493,1.0
186882434,-2.8276765,-2.8080165,11.553493,1.0
186893247,-2.4220126,-2.405173,11.553493,1.0
186904229,-1.9352449,-1.9217898,11.553493,1.0
186914997,-1.7142199,-1.7023036,11.553493,1.0
186925767,-1.9490151,-1.9354666,11.553493,1.0
186936732,-2.2597897,-2.2440808,11.553493,1.0
186947471,-2.4232953,-2.4072757,11.7489,1.0
186958195,-2.4609501,-2.4446816,11.7489,1.0
186968943,-2.4191475,-2.4031553,11.7489,1.0
186979835,-2.327203,-2.3118384,11.7489,1.0
186990569,-2.205786,-2.191223,11.7489,1.0
187001321,-2.019707,-2.0063725,11.7489,1.0
187012315,-1.6705822,-1.6595527,11.7489,1.0
187023038,-1.3549631,-1.3460091,11.7489,1.0
187033835,-1.4620259,-1.4523644,11.7489,1.0
187044795,-1.6958116,-1.6846052,11.7489,1.0
187055544,-1.8118535,-1.7998804,11.7489,1.0
187066336,-1.7993671,-1.7874764,11.7489,1.0
187077304,-1.5787046,-1.5682721,11.7489,1.0
187088035,-1.0726776,-1.0655943,11.7489,1.0
187098841,0.5086029,0.50524443,11.7489,1.0
187109803,1.0881982,1.0810124,11.7489,1.0
187120540,1.2320918,1.2239559,11.7489,1.0
187131282,1.2855573,1.2770573,11.7489,1.0
187142068,1.2973557,1.2883356,11.553493,1.0
187152864,0.84435797,0.8384874,11.553493,1.0
187163600,-1.3998401,-1.3901074,11.553493,1.0
187174379,-2.3471475,-2.3308284,11.553493,1.0
187185124,-2.899066,-2.8789206,11.553493,1.0
187195901,-3.1171308,-3.09547,11.553493,1.0
187206854,-3.0530224,-3.0318072,11.553493,1.0
187217705,-2.8039403,-2.7844558,11.553493,1.0
187228439,-2.4587486,-2.4416628,11.553493,1.0
187239395,-1.9845117,-1.9707215,11.553493,1.0
187250190,-1.4810692,-1.4712802,11.7489,1.0
187260965,-1.4122295,-1.4028955,11.7489,1.0
187271894,-1.7347767,-1.7233108,11.7489,1.0
187282727,-1.9906644,-1.9775072,11.7489,1.0
187293506,-2.0526524,-2.039093,11.7489,1.0
187304482,-1.8918924,-1.879395,11.7489,1.0
187315280,-1.4905154,-1.4806693,11.7489,1.0
187326027,-0.71348745,-0.70877427,11.7489,1.0
187336912,1.210814,1.2028157,11.7489,1.0
187347640,1.9035285,1.8909867,11.7489,1.0
187358364,2.3562312,2.3407068,11.7489,1.0
187369111,2.5742025,2.557242,11.7489,1.0
187380023,2.4701033,2.4538286,11.7489,1.0
187390781,1.9043331,1.8917861,11.7489,1.0
187401528,0.31602758,0.31393728,11.7489,1.0
187412463,-1.698969,-1.6877315,11.7489,1.0
187423196,-2.17589,-2.1614978,11.7489,1.0
187434008,-2.3882926,-2.3724957,11.7489,1.0
187444979,-2.4560227,-2.4397779,11.7489,1.0
187455726,-2.433614,-2.4175797,11.7489,1.0
187466527,-2.3539345,-2.3384252,11.7489,1.0
187477491,-2.2395954,-2.2248394,11.7489,1.0
187488210,-2.2344017,-2.2196798,11.7489,1.0
187498935,-2.494909,-2.4784708,11.7489,1.0
187509654,-2.8266919,-2.8080194,11.7489,1.0
187520381,-2.9694695,-2.949854,11.7489,1.0
187531148,-2.8607264,-2.841829,11.7489,1.0
187542011,-2.5813408,-2.5642889,11.7489,1.0
187552773,-2.214381,-2.1997533,11.7489,1.0
187563491,-1.710115,-1.6988245,11.7489,1.0
187574205,-0.8700312,-0.8642871,11.7489,1.0
187585033,1.1650711,1.1573792,11.7489,1.0
187595748,1.7495073,1.7379568,11.7489,1.0
187606463,1.8433162,1.8311464,11.7489,1.0
187617177,1.1460972,1.1385221,11.7489,1.0
187627927,-1.707385,-1.6961001,11.7489,1.0
187638679,-2.8599818,-2.841079,11.7489,1.0
187649568,-3.6476893,-3.6223369,11.553493,1.0
187660290,-4.0979166,-4.069435,11.553493,1.0
187671020,-4.244706,-4.21521,11.553493,1.0
187681739,-4.1857,-4.156614,11.553493,1.0
187692586,-3.9947686,-3.967009,11.553493,1.0
187703301,-3.6921601,-3.6665034,11.553493,1.0
187714016,-3.3429246,-3.3196948,11.553493,1.0
187724779,-3.1575592,-3.1356175,11.553493,1.0
187735512,-3.2552102,-3.23259,11.553493,1.0
187746277,-3.5382516,-3.5136645,11.553493,1.0
187757119,-3.888338,-3.861318,11.553493,1.0
187767837,-4.1910686,-4.1619453,11.553493,1.0
187778557,-4.334072,-4.303955,11.553493,1.0
187789319,-4.288838,-4.259035,11.553493,1.0
187800137,-4.077241,-4.048908,11.553493,1.0
187810939,-3.7009044,-3.6751869,11.553493,1.0
187821678,-3.1710641,-3.1490285,11.553493,1.0
187832626,-2.6473053,-2.6289124,11.553493,1.0
187843351,-2.39265,-2.3760264,11.553493,1.0
187854070,-2.3459027,-2.329604,11.553493,1.0
187864788,-2.2926319,-2.2767031,11.553493,1.0
187875502,-2.2000015,-2.1847165,11.553493,1.0
187886232,-2.0853922,-2.0709264,11.553493,1.0
187897247,-1.9084234,-1.8951852,11.553493,1.0
187907994,-1.5619917,-1.5511565,11.553493,1.0
187918741,-0.899636,-0.8933954,11.553493,1.0
187929723,0.9822189,0.9754055,11.553493,1.0
187940444,1.6396528,1.6288356,11.7489,1.0
187951158,1.9117818,1.8991692,11.7489,1.0
187961935,1.6985602,1.6873543,11.7489,1.0
187972761,1.0313158,1.0245119,11.7489,1.0
187983482,-0.33635253,-0.3341335,11.7489,1.0
187994246,-0.6343175,-0.63012886,11.7489,1.0
188004967,-0.71632314,-0.711593,11.7489,1.0
188015688,-0.7074696,-0.7027979,11.7489,1.0
188026414,0.064693645,0.06426645,11.7489,1.0
188037240,0.9954456,0.98887235,11.7489,1.0
188048058,1.4144064,1.4050475,11.7489,1.0
188058813,1.6543194,1.643373,11.7489,1.0
188069755,1.6390697,1.6282243,11.7489,1.0
188080476,0.90829974,0.9022897,11.7489,1.0
188091237,-1.5582452,-1.5479345,11.7489,1.0
188101998,-2.3196988,-2.3043697,11.7489,1.0
188112780,-2.6794803,-2.6617737,11.7489,1.0
188123494,-2.8144202,-2.795822,11.7489,1.0
188134209,-2.815081,-2.796478,11.7489,1.0
188144928,-2.7303884,-2.7123454,11.7489,1.0
188155645,-2.592197,-2.575067,11.7489,1.0
188166360,-2.4233289,-2.407315,11.7489,1.0
188177321,-2.360954,-2.3453522,11.7489,1.0
188188045,-2.5991168,-2.5819411,11.7489,1.0
188198870,-2.9649334,-2.9453404,11.7489,1.0
188209585,-3.1463635,-3.1255636,11.7489,1.0
188220419,-3.0929015,-3.0724552,11.7489,1.0
188231148,-2.886906,-2.8678212,11.7489,1.0
188241937,-2.533433,-2.516685,11.7489,1.0
188252842,-2.0026238,-1.9893849,11.7489,1.0
188263556,-1.2168429,-1.2088166,11.7489,1.0
188274274,0.8468364,0.84125066,11.7489,1.0
188284992,1.5226645,1.512621,11.7489,1.0
188295712,1.6278065,1.6170696,11.7489,1.0
188306504,0.7885856,0.78338414,11.7489,1.0
188317391,-1.8748604,-1.8624686,11.7489,1.0
188328108,-2.8797443,-2.8607109,11.7489,1.0
188338823,-3.4831004,-3.460079,11.7489,1.0
188349541,-3.804485,-3.7793396,11.7489,1.0
188360424,-3.958283,-3.9321208,11.7489,1.0
188371224,-4.003695,-3.9772182,11.7489,1.0
188381983,-3.9784791,-3.952169,11.7489,1.0
188392938,-3.88712,-3.861414,11.7489,1.0
188403666,-3.7342422,-3.709547,11.7489,1.0
188414389,-3.60085,-3.577037,11.7489,1.0
188425126,-3.544784,-3.5213504,11.7489,1.0
188435861,-3.4911528,-3.4680736,11.7489,1.0
188446621,-3.33123,-3.309208,11.7489,1.0
188457454,-3.008236,-2.9883492,11.7489,1.0
188468240,-2.5191045,-2.5024514,11.7489,1.0
188479006,-1.8543872,-1.8421556,11.7489,1.0
188489942,-0.9173944,-0.9113432,11.7489,1.0
188500660,0.96648496,0.96011,11.7489,1.0
188511453,1.3540066,1.3450756,11.7489,1.0
188522229,1.3877081,1.3785547,11.7489,1.0
188533170,0.8767947,0.8709963,11.7489,1.0
188543925,-1.362165,-1.3526926,11.553493,1.0
188554640,-2.3274398,-2.311255,11.553493,1.0
188565512,-2.9856246,-2.9648628,11.553493,1.0
188576230,-3.3091104,-3.2860992,11.553493,1.0
188586954,-3.3357298,-3.3125134,11.553493,1.0
188597673,-3.210021,-3.1876793,11.553493,1.0
188608401,-2.9843423,-2.9635713,11.553493,1.0
188619122,-2.6149304,-2.5967305,11.553493,1.0
188630062,-2.073302,-2.058872,11.553493,1.0
188640782,-1.499254,-1.4888412,11.553493,1.0
188651508,-1.211796,-1.2033798,11.553493,1.0
188662236,-1.1809782,-1.1727759,11.553493,1.0
188673091,-1.1831963,-1.1749786,11.553493,1.0
188683806,-1.1173319,-1.1095717,11.553493,1.0
188694580,-0.8952952,-0.88907605,11.553493,1.0
188705305,-0.63886195,-0.6344241,11.553493,1.0
188716030,-0.28394094,-0.28196853,11.553493,1.0
188726748,0.6207454,0.6164334,11.553493,1.0
188737588,0.834031,0.82852155,11.7489,1.0
188748305,0.82107896,0.815652,11.7489,1.0
188759030,0.8054023,0.800079,11.7489,1.0
188769746,0.5269287,0.52344596,11.7489,1.0
188780595,-1.2633662,-1.255016,11.7489,1.0
188791309,-2.0695662,-2.0558748,11.7489,1.0
188802173,-2.3995638,-2.3836894,11.7489,1.0
188813120,-2.3617454,-2.346121,11.7489,1.0
188823838,-2.0858774,-2.0720782,11.7489,1.0
188834557,-1.5972011,-1.5866348,11.7489,1.0
188845280,-0.72692585,-0.7221168,11.7489,1.0
188856007,1.2143477,1.2063097,11.7489,1.0
188866726,1.7101896,1.6988693,11.7489,1.0
188877612,1.6629164,1.6519091,11.7489,1.0
188888408,0.66924745,0.6648175,11.7489,1.0
188899204,-1.8095043,-1.7975267,11.7489,1.0
188909929,-2.7250671,-2.7070293,11.7489,1.0
188920724,-3.3940527,-3.3715868,11.7489,1.0
188931454,-3.8334217,-3.8080475,11.7489,1.0
188942228,-3.9860134,-3.959629,11.7489,1.0
188953218,-3.8627439,-3.8371756,11.7489,1.0
188963983,-3.52679,-3.5034797,11.7489,1.0
188974766,-3.0304246,-3.0103953,11.7489,1.0
188985685,-2.4646246,-2.448335,11.7489,1.0
188996405,-1.9735585,-1.9605144,11.7489,1.0
189007119,-1.5878661,-1.5773711,11.7489,1.0
189017836,-1.1812655,-1.1734478,11.7489,1.0
189028555,-0.32369918,-0.32155696,11.7489,1.0
189039278,1.1809993,1.1731834,11.7489,1.0
189050206,1.7052351,1.6939499,11.7489,1.0
189060985,2.0755777,2.0618417,11.7489,1.0
189071716,2.3501825,2.3346317,11.7489,1.0
189082487,2.5539155,2.5370166,11.7489,1.0
189093255,2.7023487,2.6844678,11.7489,1.0
189103979,2.7006195,2.68275,11.7489,1.0
189114707,2.3308666,2.3154435,11.7489,1.0
189125497,1.408131,1.3988205,11.7489,1.0
189136269,-1.2044578,-1.196494,11.7489,1.0
189146985,-1.9680836,-1.9550707,11.7489,1.0
189157786,-2.2524507,-2.2375576,11.7489,1.0
189168558,-2.2314339,-2.2166798,11.7489,1.0
189179325,-1.9635372,-1.9505544,11.7489,1.0
189190043,-1.5390216,-1.5288457,11.7489,1.0
189200802,-0.9875655,-0.98103577,11.7489,1.0
189211579,0.49605575,0.49277586,11.7489,1.0
189222346,0.8200999,0.8146774,11.7489,1.0
189233318,-0.7638284,-0.7585094,11.553493,1.0
189244032,-1.7291887,-1.7171472,11.553493,1.0
189254746,-2.2382894,-2.2227027,11.553493,1.0
189265464,-2.4632254,-2.4460723,11.553493,1.0
189276187,-2.4931695,-2.4758477,11.553493,1.0
189286914,-2.358457,-2.3420713,11.553493,1.0
189297933,-2.1572897,-2.1423016,11.553493,1.0
189308671,-1.9118013,-1.8985187,11.553493,1.0
189319415,-1.5047648,-1.4943101,11.553493,1.0
189330370,-1.055269,-1.0479373,11.553493,1.0
189341114,-1.2468446,-1.2381698,11.553493,1.0
189351829,-1.9339218,-1.9204667,11.553493,1.0
189362544,-2.5133114,-2.495825,11.553493,1.0
189373447,-2.792652,-2.7732222,11.553493,1.0
189384165,-2.7688606,-2.7495964,11.553493,1.0
189394944,-2.551361,-2.5336473,11.553493,1.0
189405951,-2.2807815,-2.2649465,11.553493,1.0
189416666,-2.0273352,-2.0132596,11.553493,1.0
189427440,-1.8011695,-1.7886642,11.553493,1.0
189438386,-1.5446162,-1.5344033,11.7489,1.0
189449149,-1.331815,-1.3230091,11.7489,1.0
189459965,-1.5279665,-1.5178636,11.7489,1.0
189470950,-1.9519017,-1.9389958,11.7489,1.0
189481683,-2.1879342,-2.1734676,11.7489,1.0
189492467,-2.1384087,-2.1242697,11.7489,1.0
189503189,-1.8451651,-1.8329718,11.7489,1.0
189513980,-1.3109326,-1.3022697,11.7489,1.0
189524701,0.40530452,0.40262616,11.7489,1.0
189535473,1.421971,1.4125742,11.7489,1.0
189546190,1.9272811,1.9145429,11.7489,1.0
189556934,2.2726266,2.2576058,11.7489,1.0
189567661,2.39939,2.3835313,11.7489,1.0
189578521,2.1397216,2.1255794,11.7489,1.0
189589240,1.26479,1.2564305,11.7489,1.0
189600021,-1.6245569,-1.6138195,11.7489,1.0
189610747,-2.6393685,-2.6219237,11.7489,1.0
189621578,-3.1461656,-3.1253712,11.7489,1.0
189632301,-3.3077595,-3.285897,11.7489,1.0
189643020,-3.205434,-3.184248,11.7489,1.0
189653753,-2.926698,-2.907354,11.7489,1.0
189664477,-2.555744,-2.5388207,11.7489,1.0
189675203,-2.1102974,-2.0963237,11.7489,1.0
189686103,-1.7605774,-1.7489195,11.7489,1.0
189696830,-1.8595471,-1.8472339,11.7489,1.0
189707612,-2.2870057,-2.2718618,11.7489,1.0
189718529,-2.6473627,-2.6298876,11.7489,1.0
189729246,-2.777766,-2.7594302,11.7489,1.0
189739960,-2.6633565,-2.645776,11.7489,1.0
189750716,-2.3807507,-2.3650355,11.7489,1.0
189761448,-2.0122106,-1.9988939,11.7489,1.0
189772171,-1.5607631,-1.550434,11.7489,1.0
189783065,-1.0785922,-1.071454,11.7489,1.0
189793845,-0.89317447,-0.8872635,11.7489,1.0
189804624,-1.4052376,-1.3959378,11.7489,1.0
189815350,-2.144378,-2.1301866,11.7489,1.0
189826324,-2.7868662,-2.7684228,11.7489,1.0
189837042,-3.2369256,-3.2144008,11.553493,1.0
189847763,-3.4523573,-3.4283333,11.553493,1.0
189858604,-3.4413822,-3.4174345,11.553493,1.0
189869379,-3.2228549,-3.200428,11.553493,1.0
189880145,-2.8204606,-2.8008301,11.553493,1.0
189891096,-2.302154,-2.2861311,11.553493,1.0
189901827,-1.7688676,-1.7565564,11.553493,1.0
189912545,-1.4838127,-1.4734854,11.553493,1.0
189923261,-1.8029546,-1.7904104,11.553493,1.0
189934022,-2.341526,-2.3260326,11.7489,1.0
189944737,-2.6426134,-2.6251278,11.7489,1.0
189955677,-2.6712267,-2.6535516,11.7489,1.0
189966407,-2.5318654,-2.5151124,11.7489,1.0
189977135,-2.230232,-2.2154748,11.7489,1.0
189987879,-1.7879381,-1.7761077,11.7489,1.0
189998672,-1.3257759,-1.3170034,11.7489,1.0
190009397,-1.0151956,-1.0084783,11.7489,1.0
190020112,-1.0786904,-1.0715529,11.7489,1.0
190030826,-1.545761,-1.5350063,11.553493,1.0
190041577,-2.1034749,-2.088858,11.553493,1.0
190052304,-2.4679945,-2.4508445,11.553493,1.0
190063266,-2.647165,-2.62877,11.553493,1.0
190074194,-2.746249,-2.7271655,11.553493,1.0
190084924,-2.721916,-2.7029648,11.553493,1.0
190095728,-2.5043795,-2.486943,11.553493,1.0
190106541,-2.0917766,-2.0772128,11.553493,1.0
190117290,-1.4643754,-1.4541798,11.553493,1.0
190128006,0.34956384,0.34724915,11.7489,1.0
190138939,1.4931308,1.4832438,11.7489,1.0
190149702,1.8651386,1.8528156,11.7489,1.0
190160422,1.6528807,1.64196,11.7489,1.0
190171279,0.62100124,0.61689824,11.7489,1.0
190182015,-1.3662829,-1.3572558,11.7489,1.0
190192797,-1.8237047,-1.8116577,11.7489,1.0
190203819,-2.0393958,-2.025924,11.7489,1.0
190214544,-2.167135,-2.1528194,11.7489,1.0
190225343,-2.2745018,-2.259477,11.7489,1.0
190236274,-2.323937,-2.3085854,11.7489,1.0
190247006,-2.2972114,-2.2820365,11.7489,1.0
190257727,-2.3431985,-2.32772,11.7489,1.0
190268449,-2.5406454,-2.5238624,11.7489,1.0
190279166,-2.6578825,-2.640325,11.7489,1.0
190289930,-2.5764925,-2.5594728,11.7489,1.0
190300817,-2.4061124,-2.390218,11.7489,1.0
190311543,-2.1765609,-2.162172,11.7489,1.0
190322270,-1.7960429,-1.7841697,11.7489,1.0
190332989,-1.1548805,-1.1472459,11.7489,1.0
190343900,0.6657579,0.66135675,11.7489,1.0
190354631,1.2608397,1.252497,11.7489,1.0
190365397,1.4257436,1.4163097,11.7489,1.0
190376342,1.1987641,1.190832,11.7489,1.0
190387070,-1.0430433,-1.0361416,11.7489,1.0
190397785,-2.2420719,-2.2272365,11.7489,1.0
190408506,-2.9013488,-2.8821547,11.7489,1.0
190419273,-3.2020981,-3.1809144,11.7489,1.0
190429999,-3.2503211,-3.2288184,11.7489,1.0
190440880,-3.1090271,-3.088459,11.7489,1.0
190451680,-2.8759072,-2.8568814,11.7489,1.0
190462452,-2.6222465,-2.604899,11.7489,1.0
190473403,-2.365138,-2.3495288,11.7489,1.0
190484208,-2.2059371,-2.1913786,11.7489,1.0
190494963,-2.3418,-2.3263447,11.7489,1.0
190505941,-2.6944804,-2.6766975,11.7489,1.0
190516759,-3.042558,-3.0224445,11.7489,1.0
190527483,-3.3000374,-3.2782218,11.7489,1.0
190538449,-3.40688,-3.3843582,11.7489,1.0
190549166,-3.3304017,-3.3083854,11.7489,1.0
190559929,-3.101723,-3.0812185,11.7489,1.0
190570703,-2.7667756,-2.7485564,11.7489,1.0
190581639,-2.3515985,-2.3361132,11.7489,1.0
190592357,-1.9184518,-1.9058188,11.7489,1.0
190603071,-1.6560861,-1.6451807,11.7489,1.0
190614006,-1.8429106,-1.830775,11.7489,1.0
190624736,-2.3158603,-2.3006103,11.7489,1.0
190635501,-2.6548755,-2.6373541,11.7489,1.0
190646227,-2.7360566,-2.7179995,11.7489,1.0
190656947,-2.6688743,-2.6512606,11.7489,1.0
190667666,-2.5050695,-2.4885368,11.7489,1.0
190678551,-2.2312078,-2.2164717,11.7489,1.0
190689267,-1.9245938,-1.9118826,11.7489,1.0
190699984,-1.6594709,-1.6485108,11.7489,1.0
190710700,-1.4449117,-1.4353687,11.7489,1.0
190721507,-1.4864064,-1.4765893,11.7489,1.0
190732223,-1.9825274,-1.968746,11.553493,1.0
190742984,-2.6628737,-2.644363,11.553493,1.0
190753703,-3.2200508,-3.197667,11.553493,1.0
190764420,-3.5149028,-3.4904692,11.553493,1.0
190775141,-3.5486965,-3.5240278,11.553493,1.0
190786050,-3.3583162,-3.334971,11.553493,1.0
190796784,-2.977503,-2.9568162,11.553493,1.0
190807506,-2.479818,-2.462589,11.553493,1.0
190818313,-1.9141991,-1.9008998,11.553493,1.0
190829122,-1.1486701,-1.1410807,11.7489,1.0
190839893,0.60602266,0.60202307,11.7489,1.0
190850656,0.3886189,0.3860541,11.7489,1.0
190861562,-1.3491799,-1.3402756,11.7489,1.0
190872305,-1.9999707,-1.9867715,11.7489,1.0
190883020,-2.2817793,-2.26672,11.7489,1.0
190893748,-2.3049362,-2.289713,11.7489,1.0
190904505,-2.216224,-2.2015867,11.7489,1.0
190915219,-2.1034274,-2.089535,11.7489,1.0
190926152,-1.9801651,-1.9670869,11.7489,1.0
190936924,-1.8568239,-1.8445603,11.7489,1.0
190947678,-1.8469836,-1.8347895,11.7489,1.0
190958614,-2.1422932,-2.1281495,11.7489,1.0
190969354,-2.6464639,-2.6289914,11.7489,1.0
190980081,-3.0765374,-3.0562255,11.7489,1.0
190990810,-3.2588873,-3.2373717,11.7489,1.0
191001697,-3.2029207,-3.1817312,11.7489,1.0
191012442,-2.9921956,-2.9724002,11.7489,1.0
191023207,-2.63445,-2.6170213,11.7489,1.0
191034148,-2.1043823,-2.0904603,11.7489,1.0
191044936,-1.4160743,-1.406706,11.7489,1.0
191055703,-0.20166641,-0.2003335,11.7489,1.0
191066424,1.0452383,1.0383297,11.7489,1.0
191077146,0.680465,0.67596745,11.7489,1.0
191087935,-1.3410378,-1.3321742,11.7489,1.0
191098706,-2.0410259,-2.0275357,11.7489,1.0
191109501,-2.3846467,-2.3688853,11.7489,1.0
191120264,-2.5238135,-2.5071232,11.7489,1.0
191130981,-2.5417726,-2.5249636,11.7489,1.0
191141978,-2.482845,-2.4664257,11.7489,1.0
191152695,-2.375707,-2.359996,11.7489,1.0
191163410,-2.2408257,-2.2259877,11.7489,1.0
191174265,-2.0935922,-2.079729,11.7489,1.0
191185031,-2.0828507,-2.0690587,11.7489,1.0
191195791,-2.286811,-2.2716687,11.7489,1.0
191206727,-2.469319,-2.4529681,11.7489,1.0
191217442,-2.4742663,-2.4579096,11.7489,1.0
191228160,-2.3230336,-2.3076768,11.7489,1.0
191238923,-2.110743,-2.0967896,11.7489,1.0
191249662,-1.9126498,-1.9000058,11.7489,1.0
191260393,-1.6765383,-1.6654552,11.7489,1.0
191271282,-1.3386741,-1.3298244,11.7489,1.0
191282001,-0.9758639,-0.96941626,11.7489,1.0
191292843,-0.7083845,-0.7037042,11.7489,1.0
191303784,-0.94292843,-0.93669844,11.7489,1.0
191314510,-1.6989911,-1.6877657,11.7489,1.0
191325267,-2.434896,-2.4179492,11.553493,1.0
191335988,-2.9094763,-2.8892264,11.553493,1.0
191346927,-3.1223023,-3.1005712,11.553493,1.0
191357643,-3.154917,-3.132959,11.553493,1.0
191368369,-3.0740485,-3.0526533,11.553493,1.0
191379356,-2.9209852,-2.9006624,11.553493,1.0
191390075,-2.7244787,-2.705523,11.553493,1.0
191400887,-2.5059047,-2.4884698,11.553493,1.0
191411608,-2.36346,-2.3470163,11.553493,1.0
191422328,-2.4835172,-2.466238,11.553493,1.0
191433045,-2.9073231,-2.8871024,11.553493,1.0
191443875,-3.3872178,-3.3636594,11.553493,1.0
191454600,-3.6622977,-3.636826,11.553493,1.0
191465353,-3.7071862,-3.6814024,11.553493,1.0
191476134,-3.6077576,-3.5826652,11.553493,1.0
191486980,-3.4159043,-3.392167,11.553493,1.0
191497699,-3.167235,-3.1452258,11.553493,1.0
191508478,-2.887938,-2.8678696,11.553493,1.0
191519402,-2.5980983,-2.5809295,11.7489,1.0
191530120,-2.3941813,-2.3783598,11.7489,1.0
191540838,-2.4686468,-2.4523575,11.7489,1.0
191551558,-2.8349333,-2.816227,11.7489,1.0
191562275,-3.3180692,-3.296175,11.7489,1.0
191573035,-3.795282,-3.7702389,11.7489,1.0
191583927,-4.152665,-4.1252637,11.7489,1.0
191594645,-4.2892404,-4.260896,11.7489,1.0
191605359,-4.2218084,-4.1939096,11.7489,1.0
191616086,-3.9976645,-3.971247,11.7489,1.0
191626964,-3.6423192,-3.61825,11.7489,1.0
191637681,-3.285826,-3.2641125,11.7489,1.0
191648402,-3.0726714,-3.0523477,11.7489,1.0
191659129,-2.950023,-2.9305103,11.7489,1.0
191669854,-2.7676423,-2.749336,11.7489,1.0
191680609,-2.4329627,-2.41687,11.7489,1.0
191691494,-1.9141845,-1.9015234,11.7489,1.0
191702213,-1.1224927,-1.1150695,11.7489,1.0
191712964,1.0229846,1.0162195,11.7489,1.0
191723681,1.7621226,1.7504694,11.7489,1.0
191734501,2.1522794,2.138046,11.7489,1.0
191745304,2.2982795,2.2830806,11.7489,1.0
191756074,2.2605145,2.245571,11.7489,1.0
191767089,2.011209,1.9979134,11.7489,1.0
191777821,1.2496012,1.2413404,11.7489,1.0
191788570,-1.406126,-1.3968304,11.7489,1.0
191799539,-2.2692342,-2.254233,11.7489,1.0
191810254,-2.6268513,-2.6094956,11.7489,1.0
191820968,-2.6869254,-2.6691728,11.7489,1.0
191831683,-2.6080465,-2.590815,11.7489,1.0
191842408,-2.4803605,-2.4639726,11.7489,1.0
191853126,-2.3250449,-2.309683,11.7489,1.0
191864089,-2.1581154,-2.1438332,11.7489,1.0
191874877,-2.0347958,-2.0213296,11.7489,1.0
191885625,-2.0893054,-2.0754786,11.7489,1.0
191896584,-2.4097078,-2.3937604,11.7489,1.0
191907312,-2.8796167,-2.8605595,11.7489,1.0
191918025,-3.3279305,-3.304768,11.553493,1.0
191928742,-3.6432483,-3.6178913,11.553493,1.0
191939592,-3.7354803,-3.7094815,11.553493,1.0
191950305,-3.5795162,-3.5546029,11.553493,1.0
191961059,-3.2231264,-3.2006936,11.553493,1.0
191971781,-2.7463999,-2.727322,11.553493,1.0
191982536,-2.251483,-2.235843,11.553493,1.0
191993261,-1.9473304,-1.9338032,11.553493,1.0
192004174,-1.9841665,-1.9703835,11.553493,1.0
192014924,-2.1047728,-2.090152,11.553493,1.0
192025688,-2.1342542,-2.1201506,11.7489,1.0
192036403,-2.1056676,-2.0917528,11.7489,1.0
192047346,-2.04071,-2.0272245,11.7489,1.0
192058135,-1.9549353,-1.9420166,11.7489,1.0
192069199,-1.8034778,-1.7915599,11.7489,1.0
192079929,-1.4730134,-1.4632776,11.7489,1.0
192090739,-0.7985333,-0.79325545,11.7489,1.0
192101705,0.6878297,0.6832835,11.7489,1.0
192112434,-0.34787607,-0.3455768,11.7489,1.0
192123155,-1.6408223,-1.6294181,11.553493,1.0
192134186,-2.4383593,-2.421412,11.553493,1.0
192144980,-2.8759365,-2.855948,11.553493,1.0
192155752,-3.043444,-3.0222912,11.553493,1.0
192166471,-3.0186028,-2.9976227,11.553493,1.0
192177447,-2.7976751,-2.7782478,11.553493,1.0
192188166,-2.3897092,-2.3731148,11.553493,1.0
192198928,-1.8542578,-1.8413817,11.553493,1.0
192209773,-1.2892678,-1.2803149,11.553493,1.0
192220560,-0.8524477,-0.8468187,11.7489,1.0
192231335,-0.97842294,-0.97196203,11.7489,1.0
192242266,-1.5155329,-1.5055289,11.7489,1.0
192252986,-1.9114071,-1.8987901,11.7489,1.0
192263711,-1.9864942,-1.9733815,11.7489,1.0
192274475,-1.8331571,-1.8210566,11.7489,1.0
192285192,-1.6347628,-1.6239718,11.7489,1.0
192295927,-1.4768475,-1.4670844,11.7489,1.0
192306782,-1.3620919,-1.3530874,11.7489,1.0
192317507,-1.2891374,-1.2806152,11.7489,1.0
192328221,-1.1670073,-1.1592926,11.7489,1.0
192338979,-1.1673355,-1.1596285,11.7489,1.0
192349802,-1.6932775,-1.6820982,11.7489,1.0
192360559,-2.3653238,-2.3497076,11.7489,1.0
192371328,-2.820667,-2.8020444,11.7489,1.0
192382048,-2.9935899,-2.9738257,11.7489,1.0
192392772,-2.9034626,-2.8842936,11.7489,1.0
192403492,-2.5978105,-2.5806148,11.7489,1.0
192414318,-2.1129785,-2.098992,11.7489,1.0
192425092,-1.4063518,-1.3970428,11.7489,1.0
192435822,0.66287035,0.6584826,11.7489,1.0
192446592,1.5526695,1.542392,11.7489,1.0
192457353,1.773244,1.7615367,11.7489,1.0
192468172,1.5054207,1.4954816,11.7489,1.0
192478932,0.79499626,0.78974754,11.7489,1.0
192489861,-0.8966368,-0.890717,11.7489,1.0
192500576,-1.3508914,-1.3419726,11.7489,1.0
192511291,-1.5804001,-1.5699621,11.7489,1.0
192522014,-1.7008997,-1.6896659,11.7489,1.0
192532739,-1.6946434,-1.6834509,11.7489,1.0
192543456,-1.4734637,-1.463732,11.7489,1.0
192554401,-1.0444545,-1.0375563,11.7489,1.0
192565205,-0.80468285,-0.7993712,11.7489,1.0
192576006,-1.3366511,-1.3278279,11.7489,1.0
192586941,-2.0479681,-2.0344496,11.7489,1.0
192597669,-2.54221,-2.5254292,11.7489,1.0
192608393,-2.7813163,-2.762957,11.7489,1.0
192619116,-2.8452094,-2.826411,11.7489,1.0
192629937,-2.7627964,-2.7445424,11.7489,1.0
192640656,-2.5444114,-2.5276003,11.7489,1.0
192651386,-2.2733665,-2.258346,11.7489,1.0
192662148,-2.0199213,-2.0065484,11.7489,1.0
192672888,-1.7941642,-1.7822859,11.7489,1.0
192683620,-1.6568812,-1.6459119,11.7489,1.0
192694496,-1.8117366,-1.799742,11.7489,1.0
192705219,-2.3143377,-2.2990158,11.7489,1.0
192715949,-2.8418968,-2.823082,11.7489,1.0
192727026,-3.144635,-3.1238735,11.7489,1.0
192737744,-3.2281978,-3.2068846,11.7489,1.0
192748528,-3.1765056,-3.1555338,11.7489,1.0
192759246,-3.004139,-2.9843051,11.7489,1.0
192770029,-2.6758554,-2.658189,11.7489,1.0
192780761,-2.173871,-2.159487,11.7489,1.0
192791545,-1.5813968,-1.5709331,11.7489,1.0
192802479,-1.2469994,-1.2387483,11.7489,1.0
192813193,-1.5720966,-1.5611588,11.553493,1.0
192823925,-2.2495968,-2.2339892,11.553493,1.0
192834643,-2.9179955,-2.8977504,11.553493,1.0
192845358,-3.3636928,-3.3403556,11.553493,1.0
192856174,-3.481981,-3.457823,11.553493,1.0
192867037,-3.3486047,-3.3253722,11.553493,1.0
192877760,-3.1121776,-3.0905855,11.553493,1.0
192888475,-2.8447268,-2.8249238,11.553493,1.0
192899190,-2.566155,-2.5482912,11.553493,1.0
192910149,-2.3294833,-2.313267,11.553493,1.0
192920869,-2.3041198,-2.2880802,11.553493,1.0
192931649,-2.5338914,-2.5162523,11.553493,1.0
192942611,-2.7711515,-2.751895,11.553493,1.0
192953341,-2.8647337,-2.8448267,11.553493,1.0
192964113,-2.8005831,-2.781122,11.553493,1.0
192975109,-2.5541532,-2.5364046,11.553493,1.0
192985900,-2.1189492,-2.1042066,11.553493,1.0
192996649,-1.4702054,-1.4599764,11.553493,1.0
193007583,0.41092804,0.40806898,11.553493,1.0
193018324,1.5209457,1.5108818,11.7489,1.0
193029046,1.892006,1.8794869,11.7489,1.0
193039771,1.7344464,1.7229699,11.7489,1.0
193050497,1.1420007,1.134468,11.7489,1.0
193061222,-0.15373859,-0.15272452,11.7489,1.0
193072137,-0.9115407,-0.9055281,11.7489,1.0
193082853,-1.1133225,-1.105979,11.7489,1.0
193093572,-1.0735685,-1.0664885,11.7489,1.0
193104308,-0.98070866,-0.9742411,11.7489,1.0
193115151,-0.8483831,-0.8427882,11.7489,1.0
193125877,-0.22429982,-0.22282061,11.7489,1.0
193136641,0.91623276,0.9101904,11.7489,1.0
193147425,1.0028198,0.99618185,11.7489,1.0
193158145,-0.6663797,-0.66196877,11.7489,1.0
193168885,-1.7772574,-1.7654933,11.7489,1.0
193179726,-2.3453,-2.3297758,11.7489,1.0
193190445,-2.5053082,-2.488725,11.7489,1.0
193201161,-2.3678567,-2.3521833,11.7489,1.0
193211935,-2.0157762,-2.0024478,11.7489,1.0
193222710,-1.5135034,-1.5034963,11.7489,1.0
193233427,-0.9629892,-0.956622,11.7489,1.0
193244151,0.25288317,0.2512111,11.7489,1.0
193254879,0.75134075,0.74637294,11.7489,1.0
193265629,-0.22098495,-0.21952327,11.7489,1.0
193276344,-1.1520917,-1.1444714,11.7489,1.0
193287234,-1.541983,-1.5317837,11.7489,1.0
193297950,-1.6786786,-1.6675752,11.7489,1.0
193308684,-1.6200402,-1.6093206,11.7489,1.0
193319402,-1.4990734,-1.4891542,11.7489,1.0
193330291,-1.4104158,-1.4010832,11.7489,1.0
193341015,-1.2734272,-1.2650012,11.7489,1.0
193351811,-0.8939551,-0.88803995,11.7489,1.0
193362770,0.675214,0.6707462,11.7489,1.0
193373483,1.3739061,1.3648237,11.7489,1.0
193384198,1.6526074,1.6416825,11.7489,1.0
193394924,1.3357304,1.3269004,11.7489,1.0
193405640,-0.7838763,-0.77869433,11.7489,1.0
193416357,-1.6164861,-1.6058,11.7489,1.0
193427076,-1.7968004,-1.7849355,11.7489,1.0
193438043,-1.7051293,-1.6938697,11.7489,1.0
193448862,-1.4894996,-1.4796638,11.7489,1.0
193459580,-1.1615349,-1.1538649,11.7489,1.0
193470496,-0.8004652,-0.7951746,11.7489,1.0
193481217,-0.5472621,-0.54364496,11.7489,1.0
193491956,-0.7749989,-0.7698766,11.7489,1.0
193502848,-1.4903042,-1.4804542,11.7489,1.0
193513562,-2.2982116,-2.2822385,11.553493,1.0
193524276,-3.0319893,-3.0109162,11.553493,1.0
193534993,-3.651761,-3.6263492,11.553493,1.0
193545711,-4.158517,-4.1295786,11.553493,1.0
193556480,-4.501436,-4.470112,11.553493,1.0
193567405,-4.610453,-4.57837,11.553493,1.0
193578126,-4.511136,-4.479766,11.553493,1.0
193588845,-4.277742,-4.247995,11.553493,1.0
193599561,-3.9595501,-3.932016,11.553493,1.0
193610405,-3.6443944,-3.6202934,11.7489,1.0
193621150,-3.431286,-3.4085944,11.7489,1.0
193631870,-3.278695,-3.2569807,11.7489,1.0
193642586,-3.0930033,-3.0725186,11.7489,1.0
193653303,-2.8642402,-2.8452706,11.7489,1.0
193664121,-2.5745654,-2.5575142,11.7489,1.0
193674922,-2.1991038,-2.1845393,11.7489,1.0
193685646,-1.7460347,-1.734471,11.7489,1.0
193696366,-1.095889,-1.0886564,11.7489,1.0
193707117,0.8624965,0.85680425,11.7489,1.0
193717996,1.4171822,1.4078292,11.7489,1.0
193728738,1.1787848,1.1710052,11.7489,1.0
193739502,-1.1484586,-1.1408763,11.7489,1.0
193750435,-2.1841676,-2.1697474,11.7489,1.0
193761150,-2.7051048,-2.6872454,11.7489,1.0
193771873,-2.9202473,-2.9009674,11.7489,1.0
193782589,-2.9637034,-2.9441366,11.7489,1.0
193793310,-2.8993936,-2.880237,11.7489,1.0
193804045,-2.7665696,-2.7482908,11.7489,1.0
193815006,-2.5924804,-2.5753517,11.7489,1.0
193825807,-2.397341,-2.3815017,11.7489,1.0
193836555,-2.149104,-2.1349049,11.7489,1.0
193847514,-1.9561074,-1.9431833,11.7489,1.0
193858235,-2.1504238,-2.1362107,11.7489,1.0
193868958,-2.566144,-2.5491831,11.7489,1.0
193879676,-2.8337567,-2.8150272,11.7489,1.0
193890536,-2.9114366,-2.8921936,11.7489,1.0
193901271,-2.8353693,-2.8166497,11.7489,1.0
193911994,-2.5800653,-2.5630312,11.7489,1.0
193922724,-2.1381931,-2.1240764,11.7489,1.0
193933437,-1.4846141,-1.4748125,11.7489,1.0
193944158,0.39364266,0.39104378,11.7489,1.0
193955046,1.316205,1.3075039,11.7489,1.0
193965772,1.2283708,1.2202504,11.7489,1.0
193976492,-0.24220292,-0.24060178,11.7489,1.0
193987211,-1.2662394,-1.2578686,11.7489,1.0
193998088,-1.6216713,-1.6109508,11.7489,1.0
194008806,-1.741969,-1.7304533,11.7489,1.0
194019549,-1.6735564,-1.6624869,11.7489,1.0
194030267,-1.543864,-1.5336523,11.7489,1.0
194041030,-1.3718579,-1.3627839,11.7489,1.0
194051766,-1.0769163,-1.0697932,11.7489,1.0
194062655,-0.5949456,-0.5910104,11.7489,1.0
194073388,0.24736786,0.245735,11.7489,1.0
194084172,-0.8794827,-0.8736773,11.7489,1.0
194095143,-1.6499013,-1.6390104,11.7489,1.0
194105896,-2.1060212,-2.0921195,11.7489,1.0
194116624,-2.212203,-2.197576,11.7489,1.0
194127594,-2.0325832,-2.0191438,11.7489,1.0
194138314,-1.6269952,-1.6162376,11.7489,1.0
194149030,-0.9050644,-0.89908016,11.7489,1.0
194159746,0.935648,0.9294616,11.7489,1.0
194170650,1.3908081,1.3816122,11.7489,1.0
194181366,1.3834852,1.3743546,11.7489,1.0
194192096,0.5212902,0.5178498,11.7489,1.0
194202814,-1.5656796,-1.5553465,11.7489,1.0
194213531,-2.1719666,-2.157632,11.7489,1.0
194224278,-2.3977919,-2.381926,11.7489,1.0
194235231,-2.3874643,-2.371667,11.7489,1.0
194245950,-2.273317,-2.258275,11.7489,1.0
194256668,-2.090259,-2.0764282,11.7489,1.0
194267394,-1.8045721,-1.7926315,11.7489,1.0
194278211,-1.4254224,-1.4160099,11.7489,1.0
194288925,-0.7916912,-0.7864634,11.7489,1.0
194299641,0.78014106,0.7749895,11.7489,1.0
194310399,0.81853014,0.8128462,11.553493,1.0
194321151,-0.9962211,-0.98930323,11.553493,1.0
194331902,-1.9492116,-1.9356761,11.553493,1.0
194342777,-2.5211062,-2.5035994,11.553493,1.0
194353504,-2.759546,-2.7403834,11.553493,1.0
194364228,-2.711917,-2.693085,11.553493,1.0
194374972,-2.4779325,-2.4607253,11.553493,1.0
194385799,-2.1967337,-2.1814604,11.553493,1.0
194396554,-1.9389408,-1.9254599,11.553493,1.0
194407326,-1.7141382,-1.7028043,11.7489,1.0
194418267,-1.7006141,-1.6893697,11.7489,1.0
194429033,-1.9744972,-1.961442,11.7489,1.0
194439753,-2.2243083,-2.209585,11.7489,1.0
194450527,-2.3210716,-2.305708,11.7489,1.0
194461244,-2.2790892,-2.2640033,11.7489,1.0
194471991,-2.0485916,-2.0350313,11.7489,1.0
194482811,-1.5988848,-1.5883014,11.7489,1.0
194493600,-0.79729617,-0.7920225,11.7489,1.0
194504368,1.1448357,1.1372633,11.7489,1.0
194515327,1.7655089,1.7538311,11.7489,1.0
194526042,2.1653037,2.1509817,11.7489,1.0
194536757,2.323079,2.3077133,11.7489,1.0
194547476,2.0368686,2.023376,11.7489,1.0
194558355,1.0930408,1.0858003,11.7489,1.0
194569069,-1.3628529,-1.3538252,11.7489,1.0
194579786,-1.948256,-1.9353504,11.7489,1.0
194590501,-2.0682206,-2.0545204,11.7489,1.0
194601230,-1.8919681,-1.8794656,11.7489,1.0
194611990,-1.4768012,-1.4670421,11.7489,1.0
194622872,-0.66735095,-0.6629409,11.7489,1.0
194633587,1.1691561,1.16143,11.7489,1.0
194644306,1.5799843,1.5695434,11.7489,1.0
194655026,1.459841,1.450194,11.7489,1.0
194665936,0.91469866,0.90864295,11.7489,1.0
194676654,-0.63072354,-0.6265479,11.7489,1.0
194687380,-1.0560153,-1.049024,11.7489,1.0
194698103,-1.1118698,-1.1045088,11.7489,1.0
194708978,-1.0826727,-1.0755261,11.7489,1.0
194719704,-0.99724585,-0.9906631,11.7489,1.0
194730476,-0.74246436,-0.73756343,11.7489,1.0
194741205,0.16341968,0.16234095,11.7489,1.0
194751992,0.9228399,0.9167483,11.7489,1.0
194762708,1.4055855,1.3963056,11.7489,1.0
194773676,1.6170254,1.6063495,11.7489,1.0
194784497,1.2434207,1.2352115,11.7489,1.0
194795523,-0.8393495,-0.833808,11.7489,1.0
194806241,-1.478822,-1.4690585,11.7489,1.0
194817024,-1.5161102,-1.5061005,11.7489,1.0
194827738,-1.2337613,-1.2256128,11.7489,1.0
194838462,-0.4884072,-0.48518145,11.7489,1.0
194849242,1.1257282,1.1182933,11.7489,1.0
194860042,1.671704,1.6606631,11.7489,1.0
194870983,2.0525672,2.0390084,11.7489,1.0
194881710,2.1653483,2.1510444,11.7489,1.0
194892429,1.7331083,1.7216597,11.7489,1.0
194903144,-0.83113605,-0.82536256,11.553493,1.0
194913859,-2.3188784,-2.3027704,11.553493,1.0
194924674,-3.1533837,-3.131463,11.553493,1.0
194935549,-3.595602,-3.5706074,11.553493,1.0
194946268,-3.6769547,-3.6513946,11.553493,1.0
194956985,-3.4856799,-3.4614494,11.553493,1.0
194967704,-3.1035213,-3.0819473,11.553493,1.0
194978567,-2.605128,-2.5870125,11.553493,1.0
194989293,-2.1323287,-2.1175008,11.553493,1.0
195000012,-1.8040407,-1.7914957,11.553493,1.0
195010819,-1.5147272,-1.5047102,11.7489,1.0
195021536,-1.018763,-1.0120257,11.7489,1.0
195032251,0.71746117,0.7127164,11.7489,1.0
195043082,1.4603316,1.450674,11.7489,1.0
195053810,1.9136947,1.901039,11.7489,1.0
195064525,2.238853,2.224047,11.7489,1.0
195075265,2.4777312,2.4613454,11.7489,1.0
195086105,2.6517854,2.6343105,11.7489,1.0
195096837,2.7754364,2.7571466,11.7489,1.0
195107555,2.755276,2.737119,11.7489,1.0
195118318,2.3752217,2.3595693,11.7489,1.0
195129033,1.318309,1.3096215,11.7489,1.0
195139753,-1.6510031,-1.640091,11.7489,1.0
195150655,-2.4247124,-2.4086864,11.7489,1.0
195161438,-2.6406388,-2.6231856,11.7489,1.0
195172191,-2.539863,-2.523076,11.7489,1.0
195183139,-2.2213647,-2.2066827,11.7489,1.0
195193907,-1.7035561,-1.6922839,11.7489,1.0
195204621,-0.83793104,-0.8323866,11.7489,1.0
195215336,1.1952521,1.1873432,11.7489,1.0
195226164,1.6605252,1.6495378,11.7489,1.0
195236973,1.4558508,1.4462178,11.7489,1.0
195247718,-0.32838872,-0.32621944,11.7489,1.0
195258651,-1.5545757,-1.5443065,11.7489,1.0
195269399,-2.0941348,-2.0803013,11.7489,1.0
195280147,-2.4799724,-2.4635901,11.7489,1.0
195290876,-2.733155,-2.7151003,11.7489,1.0
195301596,-2.8378847,-2.8191347,11.7489,1.0
195312322,-2.8491886,-2.8303638,11.7489,1.0
195323208,-2.8616438,-2.8427367,11.7489,1.0
195333924,-2.9682977,-2.9486861,11.7489,1.0
195344672,-3.2713506,-3.2497365,11.7489,1.0
195355397,-3.7203784,-3.6958022,11.7489,1.0
195366244,-4.095154,-4.068102,11.7489,1.0
195376961,-4.22033,-4.1924515,11.7489,1.0
195387676,-4.073271,-4.0463634,11.7489,1.0
195398403,-3.7443357,-3.7196014,11.7489,1.0
195409159,-3.3469574,-3.3248398,11.7489,1.0
195419928,-2.907321,-2.8881087,11.7489,1.0
195430783,-2.3566158,-2.3410428,11.7489,1.0
195441505,-1.6077647,-1.5971402,11.7489,1.0
195452222,-0.62954736,-0.62538713,11.7489,1.0
195462943,-0.47891688,-0.4757521,11.7489,1.0
195473830,-1.3235708,-1.3148115,11.7489,1.0
195484577,-1.8177134,-1.8056839,11.7489,1.0
195495357,-2.0490885,-2.0355277,11.7489,1.0
195506363,-2.1447222,-2.1305285,11.7489,1.0
195517089,-2.1568756,-2.142617,11.7489,1.0
195527883,-2.1157708,-2.101784,11.7489,1.0
195538876,-2.0417657,-2.028268,11.7489,1.0
195549610,-1.8497785,-1.8375502,11.7489,1.0
195560387,-1.3014464,-1.2928429,11.7489,1.0
195571323,0.38065234,0.3781369,11.7489,1.0
195582045,0.62365824,0.61953694,11.7489,1.0
195592765,-1.0808649,-1.0737222,11.7489,1.0
195603493,-1.8837851,-1.8713366,11.7489,1.0
195614223,-2.4190395,-2.4030538,11.7489,1.0
195624993,-2.708102,-2.6902127,11.7489,1.0
195635888,-2.6905007,-2.6727278,11.7489,1.0
195646611,-2.3271186,-2.3117461,11.7489,1.0
195657325,-1.6843954,-1.6732687,11.7489,1.0
195668046,-0.86067486,-0.8549894,11.7489,1.0
195678937,0.7061963,0.70153826,11.7489,1.0
195689652,0.8423493,0.8367932,11.7489,1.0
195700431,-0.8293019,-0.8235493,11.553493,1.0
195711432,-1.9309584,-1.9175638,11.553493,1.0
195722152,-2.7842033,-2.76489,11.553493,1.0
195732930,-3.39556,-3.3719478,11.553493,1.0
195743654,-3.7071795,-3.6814005,11.553493,1.0
195754369,-3.74383,-3.717796,11.553493,1.0
195765130,-3.5799477,-3.5550532,11.553493,1.0
195775927,-3.3127453,-3.289709,11.553493,1.0
195786679,-2.978096,-2.9574122,11.553493,1.0
195797400,-2.6337156,-2.6154237,11.553493,1.0
195808126,-2.4553583,-2.4383051,11.553493,1.0
195818949,-2.4189596,-2.4021592,11.553493,1.0
195829730,-2.3232737,-2.3071377,11.553493,1.0
195840494,-2.103223,-2.088595,11.553493,1.0
195851441,-1.8441979,-1.8313713,11.553493,1.0
195862155,-1.5587347,-1.5478935,11.553493,1.0
195872924,-1.0747367,-1.0672618,11.553493,1.0
195883648,0.646975,0.6424839,11.553493,1.0
195894366,1.360367,1.3509237,11.553493,1.0
195905093,1.6940405,1.6828583,11.7489,1.0
195915996,1.936305,1.9235237,11.7489,1.0
195926716,2.0221477,2.0087996,11.7489,1.0
195937434,1.6977919,1.686585,11.7489,1.0
195948150,0.7576843,0.75268286,11.7489,1.0
195959054,-1.2233512,-1.215276,11.7489,1.0
195969774,-1.6315536,-1.6207839,11.7489,1.0
195980488,-1.7164311,-1.7051011,11.7489,1.0
195991215,-1.6255131,-1.6147832,11.7489,1.0
196001986,-1.4091678,-1.399878,11.7489,1.0
196012704,-1.1673648,-1.1596692,11.7489,1.0
196023578,-1.0090915,-1.0024393,11.7489,1.0
196034369,-1.1966919,-1.1888028,11.7489,1.0
196045108,-1.7388002,-1.7273374,11.7489,1.0
196055825,-2.1577055,-2.1434574,11.7489,1.0
196066803,-2.2460268,-2.2311954,11.7489,1.0
196077551,-2.0555887,-2.0420148,11.7489,1.0
196088335,-1.6423229,-1.6314781,11.7489,1.0
196099270,-0.91489947,-0.90885806,11.7489,1.0
196109989,1.0424101,1.0355306,11.7489,1.0
196120704,1.7018973,1.6906652,11.7489,1.0
196131629,2.118467,2.1044858,11.7489,1.0
196142349,2.4106936,2.3947837,11.7489,1.0
196153156,2.5040686,2.4875424,11.7489,1.0
196164120,2.1891677,2.1747172,11.7489,1.0
196174842,1.3459631,1.3370786,11.7489,1.0
196185556,-0.86904275,-0.8633063,11.7489,1.0
196196270,-1.3727406,-1.3636793,11.7489,1.0
196207002,-1.3393484,-1.3305075,11.7489,1.0
196217718,-0.9634709,-0.95710987,11.7489,1.0
196228638,0.60401016,0.6000224,11.7489,1.0
196239352,1.3521217,1.3431947,11.7489,1.0
196250275,1.8119893,1.8000263,11.7489,1.0
196261156,2.0074043,1.9941511,11.7489,1.0
196271969,1.8153803,1.8034016,11.7489,1.0
196282733,1.2926834,1.2841536,11.7489,1.0
196293449,0.60397923,0.5999939,11.7489,1.0
196304399,-0.5028518,-0.49953374,11.7489,1.0
196315124,-0.61585,-0.6117863,11.7489,1.0
196325850,0.16286615,0.16179007,11.7489,1.0
196336692,0.97367233,0.9672392,11.7489,1.0
196347407,1.3853836,1.3762302,11.7489,1.0
196358147,1.6240143,1.6132843,11.7489,1.0
196368877,1.8282565,1.8161905,11.7489,1.0
196379597,1.9519527,1.9390703,11.7489,1.0
196390324,1.7173833,1.706049,11.7489,1.0
196401246,0.58306056,0.5790138,11.553493,1.0
196412019,-1.6841644,-1.6724755,11.553493,1.0
196422791,-2.278108,-2.2622967,11.553493,1.0
196433728,-2.539049,-2.5214114,11.553493,1.0
196444476,-2.5870128,-2.569042,11.553493,1.0
196455199,-2.4199765,-2.403166,11.553493,1.0
196465926,-2.0459845,-2.0317721,11.553493,1.0
196476796,-1.4543678,-1.444265,11.553493,1.0
196487525,-0.57723665,-0.5732318,11.553493,1.0
196498298,0.3929142,0.3901882,11.553493,1.0
196509242,-1.0103467,-1.0033369,11.553493,1.0
196519956,-1.7798872,-1.7675384,11.553493,1.0
196530671,-2.229946,-2.2144938,11.553493,1.0
196541401,-2.3338172,-2.3176453,11.553493,1.0
196552129,-2.1563385,-2.1413963,11.553493,1.0
196562854,-1.7611893,-1.7489854,11.553493,1.0
196573811,-1.0938013,-1.0862219,11.553493,1.0
196584528,0.76034284,0.75507414,11.553493,1.0
196595248,1.3853455,1.3762059,11.7489,1.0
196605971,1.6437784,1.632934,11.7489,1.0
196616830,1.4603038,1.4506698,11.7489,1.0
196627545,-0.1326201,-0.13174516,11.7489,1.0
196638261,-1.5673692,-1.5570289,11.7489,1.0
196648979,-1.9883839,-1.9752538,11.7489,1.0
196659725,-2.0346444,-2.0212088,11.7489,1.0
196670441,-1.8064314,-1.7945029,11.7489,1.0
196681394,-1.3324673,-1.3236686,11.7489,1.0
196692165,-0.47147247,-0.46835688,11.7489,1.0
196702922,1.0203512,1.0136085,11.7489,1.0
196713642,1.4913633,1.481508,11.7489,1.0
196724661,1.6973975,1.6861806,11.7489,1.0
196735440,1.3425903,1.3337182,11.7489,1.0
196746157,-1.11085,-1.1035092,11.7489,1.0
196757100,-2.335551,-2.3201485,11.7489,1.0
196767852,-3.1501715,-3.129397,11.7489,1.0
196778570,-3.6698694,-3.6456676,11.7489,1.0
196789444,-3.8725,-3.8469617,11.7489,1.0
196800166,-3.783562,-3.7586102,11.7489,1.0
196810948,-3.4735067,-3.4506166,11.7489,1.0
196821669,-2.9982517,-2.9784935,11.7489,1.0
196832397,-2.373047,-2.357409,11.7489,1.0
196843112,-1.7170551,-1.7057399,11.7489,1.0
196853970,-1.3710086,-1.3619739,11.7489,1.0
196864705,-1.390087,-1.3809247,11.7489,1.0
196875429,-1.465587,-1.4559271,11.7489,1.0
196886145,-1.509385,-1.4994364,11.7489,1.0
196897017,-1.530803,-1.5207132,11.7489,1.0
196907745,-1.5366969,-1.5265683,11.7489,1.0
196918510,-1.463182,-1.4535022,11.7489,1.0
196929235,-1.1709312,-1.1631849,11.7489,1.0
196939949,-0.5575053,-0.5538171,11.7489,1.0
196950667,0.51390207,0.5105023,11.7489,1.0
196961520,-0.5267219,-0.52323735,11.7489,1.0
196972245,-1.3678342,-1.3587952,11.7489,1.0
196982968,-1.8506016,-1.8383723,11.7489,1.0
196993686,-1.9652525,-1.9522656,11.7489,1.0
197004510,-1.8374261,-1.8252839,11.7489,1.0
197015280,-1.5949184,-1.5844002,11.7489,1.0
197026051,-1.161543,-1.1538829,11.7489,1.0
197037031,0.43444434,0.43157926,11.7489,1.0
197047786,1.3503011,1.3413961,11.7489,1.0
197058501,1.8408041,1.8286643,11.7489,1.0
197069216,2.0986016,2.0847616,11.7489,1.0
197079941,1.9614093,1.948503,11.7489,1.0
197090658,1.2519392,1.2437012,11.7489,1.0
197101632,-0.93553483,-0.9293789,11.7489,1.0
197112352,-1.4448406,-1.4353334,11.7489,1.0
197123117,-1.4261847,-1.4168001,11.7489,1.0
197133833,-1.082992,-1.0758458,11.7489,1.0
197144808,0.37017584,0.36773324,11.7489,1.0
197155529,1.1926961,1.1848261,11.7489,1.0
197166252,1.4748325,1.4651009,11.7489,1.0
197177158,1.5226645,1.5126172,11.7489,1.0
197187924,1.2962054,1.2876524,11.7489,1.0
197198656,-0.5828682,-0.57882357,11.553493,1.0
197209603,-1.8044065,-1.7918854,11.553493,1.0
197220317,-2.3624468,-2.3460534,11.553493,1.0
197231033,-2.6055093,-2.5874293,11.553493,1.0
197241755,-2.6410892,-2.6227622,11.553493,1.0
197252501,-2.430194,-2.4133303,11.553493,1.0
197263215,-1.8880188,-1.8749175,11.553493,1.0
197274126,-0.650661,-0.64614594,11.553493,1.0
197284905,1.7258737,1.7138911,11.553493,1.0
197295700,2.5049129,2.488375,11.7489,1.0
197306421,2.9471607,2.9277031,11.7489,1.0
197317350,3.0666497,3.0464032,11.7489,1.0
197328091,2.8970988,2.8779716,11.7489,1.0
197338811,2.4442563,2.428128,11.7489,1.0
197349659,1.7476035,1.7360721,11.7489,1.0
197360389,0.89765036,0.89172727,11.7489,1.0
197371127,-0.49450907,-0.49124607,11.7489,1.0
197381857,-0.4849006,-0.481701,11.7489,1.0
197392602,0.49616873,0.49289477,11.7489,1.0
197403325,0.75994545,0.7549273,11.7489,1.0
197414206,0.44673538,0.44378546,11.7489,1.0
197424930,-1.238691,-1.2305115,11.7489,1.0
197435684,-1.991021,-1.9778737,11.7489,1.0
197446406,-2.3020945,-2.2868931,11.7489,1.0
197457273,-2.2510056,-2.236147,11.7489,1.0
197467997,-1.9614792,-1.9485316,11.7489,1.0
197478775,-1.446624,-1.437075,11.7489,1.0
197489502,-0.36859092,-0.3661579,11.7489,1.0
197500330,1.339209,1.3303591,11.7489,1.0
197511046,1.8841916,1.8717405,11.7489,1.0
197521809,2.2483368,2.2334793,11.7489,1.0
197532527,2.4285736,2.412525,11.7489,1.0
197543248,2.260589,2.2456503,11.7489,1.0
197553967,1.4837644,1.4739593,11.7489,1.0
197564821,-1.4285496,-1.4191303,11.7489,1.0
197575540,-2.573929,-2.5569577,11.7489,1.0
197586326,-3.268189,-3.24664,11.7489,1.0
197597051,-3.625031,-3.601129,11.7489,1.0
197607765,-3.6905792,-3.666245,11.7489,1.0
197618483,-3.5474405,-3.524046,11.7489,1.0
197629319,-3.2648923,-3.243361,11.7489,1.0
197640034,-2.8482144,-2.829431,11.7489,1.0
197650878,-2.3979282,-2.3821144,11.7489,1.0
197661823,-2.1188786,-2.1049075,11.7489,1.0
197672543,-1.9658719,-1.9529098,11.7489,1.0
197683258,-1.7637848,-1.7521551,11.7489,1.0
197694005,-1.3860848,-1.3769455,11.7489,1.0
197704945,-0.58351433,-0.57966685,11.7489,1.0
197715665,1.1679329,1.160232,11.7489,1.0
197726409,1.7352488,1.7238307,11.7489,1.0
197737391,2.0692775,2.0556614,11.7489,1.0
197748112,2.2366014,2.2218843,11.7489,1.0
197758827,2.3047807,2.289615,11.7489,1.0
197769564,2.2641304,2.2491546,11.7489,1.0
197780285,1.9694692,1.9564424,11.7489,1.0
197791012,1.0579009,1.0505431,11.553493,1.0
197801897,-1.4886757,-1.4783218,11.553493,1.0
197812669,-2.124686,-2.1099086,11.553493,1.0
197823460,-2.2735775,-2.2577977,11.553493,1.0
197834409,-2.1237962,-2.109056,11.553493,1.0
197845173,-1.8081356,-1.7955863,11.553493,1.0
197855977,-1.4004583,-1.3907385,11.553493,1.0
197866943,-0.71302027,-0.70807153,11.553493,1.0
197877715,0.7356384,0.7305327,11.553493,1.0
197888490,-0.31253985,-0.31037602,11.553493,1.0
197899206,-1.6430205,-1.6316453,11.553493,1.0
197910172,-2.5541728,-2.5364895,11.553493,1.0
197920928,-3.290118,-3.2673395,11.553493,1.0
197931646,-3.812383,-3.7859468,11.553493,1.0
197942456,-4.03178,-4.0038223,11.553493,1.0
197953174,-3.9492743,-3.9218888,11.553493,1.0
197963924,-3.6411707,-3.6159217,11.553493,1.0
197974652,-3.1669812,-3.1450205,11.553493,1.0
197985390,-2.5475793,-2.530769,11.7489,1.0
197996157,-1.9030833,-1.8905259,11.7489,1.0
198006986,-1.4858155,-1.4760114,11.7489,1.0
198017702,-1.2084868,-1.2005126,11.7489,1.0
198028437,-0.6383548,-0.63414264,11.7489,1.0
198039152,1.0660293,1.0589951,11.7489,1.0
198050030,1.7933708,1.7815394,11.7489,1.0
198060747,2.3759232,2.3602486,11.7489,1.0
198071473,2.8465083,2.827729,11.7489,1.0
198082191,3.1951127,3.1740336,11.7489,1.0
198092977,3.4275024,3.404907,11.7489,1.0
198103701,3.6016603,3.5779166,11.7489,1.0
198114563,3.6764636,3.652227,11.7489,1.0
198125280,3.5028822,3.47979,11.7489,1.0
198136037,3.0359051,3.0158913,11.7489,1.0
198146810,2.372539,2.3569129,11.7489,1.0
198157578,1.5933166,1.5828226,11.7489,1.0
198168295,0.4338059,0.43094876,11.7489,1.0
198179095,-1.2243283,-1.2162645,11.7489,1.0
198189812,-1.6202439,-1.6095725,11.7489,1.0
198200529,-1.7590309,-1.7474455,11.7489,1.0
198211256,-1.6401256,-1.6292993,11.7489,1.0
198222088,-1.3895291,-1.3803569,11.7489,1.0
198232808,-1.4038541,-1.3945874,11.7489,1.0
198243531,-1.7625697,-1.7509351,11.7489,1.0
198254245,-2.115325,-2.101362,11.7489,1.0
198265231,-2.3456385,-2.3301666,11.7489,1.0
198275948,-2.4957001,-2.4792385,11.7489,1.0
198286687,-2.5556135,-2.5387566,11.7489,1.0
198297724,-2.5229263,-2.506285,11.7489,1.0
198308441,-2.4314442,-2.415424,11.7489,1.0
198319186,-2.3045375,-2.2893536,11.7489,1.0
198330220,-2.159477,-2.145249,11.7489,1.0
198340988,-2.1017747,-2.0879266,11.7489,1.0
198351715,-2.3195658,-2.304283,11.7489,1.0
198362654,-2.7866998,-2.7683392,11.7489,1.0
198373371,-3.2391586,-3.217813,11.7489,1.0
198384119,-3.48058,-3.4576435,11.7489,1.0
198394873,-3.5137262,-3.4905713,11.7489,1.0
198405592,-3.3853695,-3.3630602,11.7489,1.0
198416363,-3.0847535,-3.0643914,11.7489,1.0
198427207,-2.6154222,-2.5981581,11.7489,1.0
198437937,-2.0294678,-2.0160716,11.7489,1.0
198448654,-1.414173,-1.4048382,11.7489,1.0
198459416,-1.012099,-1.0054183,11.7489,1.0
198470205,-1.3386135,-1.3298101,11.7489,1.0
198480980,-2.0833066,-2.0696058,11.7489,1.0
198491753,-2.728797,-2.7108512,11.7489,1.0
198502477,-3.0914109,-3.0710802,11.7489,1.0
198513194,-3.2104867,-3.189373,11.7489,1.0
198523925,-3.181989,-3.1610627,11.7489,1.0
198534765,-3.025297,-3.0053532,11.7489,1.0
198545522,-2.7466278,-2.728521,11.7489,1.0
198556306,-2.421556,-2.4055922,11.7489,1.0
198567288,-2.156949,-2.1427298,11.7489,1.0
198578055,-2.1361663,-2.12205,11.7489,1.0
198588819,-2.4763622,-2.4591541,11.553493,1.0
198599535,-2.909744,-2.8895245,11.553493,1.0
198610301,-3.1293895,-3.1076436,11.553493,1.0
198621024,-3.0660565,-3.0447507,11.553493,1.0
198631741,-2.817352,-2.797833,11.553493,1.0
198642459,-2.5137548,-2.496339,11.553493,1.0
198653183,-2.222133,-2.2067375,11.553493,1.0
198663931,-1.9544845,-1.9409434,11.553493,1.0
198674828,-1.7206857,-1.7087644,11.553493,1.0
198685593,-1.5839467,-1.5735009,11.7489,1.0
198696393,-1.754722,-1.7431499,11.7489,1.0
198707328,-2.2782323,-2.2632077,11.7489,1.0
198718043,-2.9154608,-2.8962338,11.7489,1.0
198728812,-3.5382395,-3.5149055,11.7489,1.0
198739534,-4.0404983,-4.0138917,11.7489,1.0
198750366,-4.26286,-4.234789,11.7489,1.0
198761105,-4.200821,-4.1731586,11.7489,1.0
198771900,-3.9551356,-3.929091,11.7489,1.0
198782621,-3.5559661,-3.53255,11.7489,1.0
198793335,-3.007126,-2.987291,11.7489,1.0
198804050,-2.435002,-2.4189408,11.7489,1.0
198814878,-2.0426867,-2.0292132,11.7489,1.0
198825596,-1.804101,-1.792201,11.7489,1.0
198836435,-1.6028918,-1.5923191,11.7489,1.0
198847449,-1.4449117,-1.435381,11.7489,1.0
198858175,-1.3325958,-1.3238288,11.7489,1.0
198868964,-1.2639798,-1.2556641,11.7489,1.0
198879860,-1.2327235,-1.2246134,11.7489,1.0
198890587,-1.2296504,-1.2215606,11.7489,1.0
198901303,-1.2451102,-1.2369143,11.7489,1.0
198912031,-1.2707711,-1.2624063,11.7489,1.0
198923029,-1.4976933,-1.4878347,11.7489,1.0
198933750,-2.0703351,-2.0567071,11.7489,1.0
198944516,-2.691717,-2.6739986,11.7489,1.0
198955438,-3.0684881,-3.0482483,11.7489,1.0
198966151,-3.125258,-3.1046436,11.7489,1.0
198976870,-2.9231367,-2.9038556,11.7489,1.0
198987590,-2.6058283,-2.5886402,11.7489,1.0
198998309,-2.2836905,-2.2686272,11.7489,1.0
199009030,-1.8714125,-1.8590686,11.7489,1.0
199019745,-1.2078037,-1.1998355,11.7489,1.0
199030504,0.2141287,0.21271604,11.7489,1.0
199041224,-0.51121676,-0.5078441,11.7489,1.0
199052031,-1.4440774,-1.4345504,11.7489,1.0
199062990,-1.9504397,-1.9375888,11.7489,1.0
199073707,-2.1830196,-2.1686363,11.7489,1.0
199084421,-2.272417,-2.2574449,11.7489,1.0
199095147,-2.2735596,-2.2585797,11.7489,1.0
199105877,-2.2184975,-2.2038805,11.7489,1.0
199116594,-2.128916,-2.1149204,11.7489,1.0
199127535,-2.0206394,-2.0073557,11.7489,1.0
199138278,-1.8505191,-1.8383536,11.7489,1.0
199148994,-1.6902716,-1.6791598,11.7489,1.0
199159714,-1.8793927,-1.8670375,11.7489,1.0
199170581,-2.4251413,-2.4091392,11.7489,1.0
199181401,-2.9556704,-2.9361675,11.7489,1.0
199192120,-3.2209616,-3.1997082,11.7489,1.0
199203109,-3.18366,-3.1626527,11.7489,1.0
199213980,-2.9163077,-2.8970644,11.7489,1.0
199224704,-2.4723036,-2.4559872,11.7489,1.0
199235629,-1.9053614,-1.8927865,11.7489,1.0
199246424,-1.3055936,-1.296977,11.7489,1.0
199257139,-0.7050445,-0.7003914,11.7489,1.0
199268117,-0.4762239,-0.47308093,11.7489,1.0
199278837,-1.2291083,-1.2205988,11.553493,1.0
199289559,-1.9648896,-1.9512861,11.553493,1.0
199300279,-2.4030004,-2.3863635,11.553493,1.0
199310999,-2.548611,-2.530966,11.553493,1.0
199321714,-2.4453313,-2.4284015,11.553493,1.0
199332642,-2.1225216,-2.107824,11.553493,1.0
199343401,-1.5918872,-1.5808641,11.553493,1.0
199354193,-0.6348573,-0.63046116,11.553493,1.0
199365147,1.2882094,1.2792891,11.553493,1.0
199375870,1.8741295,1.861152,11.553493,1.0
199386585,2.1202521,2.1063032,11.7489,1.0
199397303,1.9154189,1.9028175,11.7489,1.0
199408156,1.3220901,1.3133922,11.7489,1.0
199418927,0.6726402,0.668215,11.7489,1.0
199429697,0.20406108,0.20271857,11.7489,1.0
199440423,-0.42750052,-0.42468384,11.7489,1.0
199451185,-0.5192072,-0.5157863,11.7489,1.0
199461944,-0.2328019,-0.23126803,11.7489,1.0
199472699,0.3615365,0.35915446,11.7489,1.0
199483422,0.27245632,0.27066118,11.7489,1.0
199494148,-0.7155445,-0.71083087,11.7489,1.0
199504893,-1.5239279,-1.5138891,11.7489,1.0
199515789,-2.344531,-2.3290865,11.7489,1.0
199526508,-2.9852438,-2.9655786,11.7489,1.0
199537275,-3.332033,-3.3100832,11.7489,1.0
199548253,-3.4019358,-3.379534,11.7489,1.0
199558973,-3.2386672,-3.2173407,11.7489,1.0
199569690,-2.8788207,-2.8598635,11.7489,1.0
199580414,-2.3551235,-2.339615,11.7489,1.0
199591131,-1.6369785,-1.626199,11.7489,1.0
199601845,0.1940328,0.1927551,11.7489,1.0
199612804,1.3617306,1.3527635,11.7489,1.0
199623523,1.332084,1.3233122,11.7489,1.0
199634248,-0.5237337,-0.5202849,11.7489,1.0
199644963,-1.8403033,-1.8281848,11.7489,1.0
199655845,-2.484416,-2.468053,11.7489,1.0
199666599,-2.7928648,-2.7744703,11.7489,1.0
199677338,-2.8951728,-2.8761046,11.7489,1.0
199688277,-2.871666,-2.8527524,11.7489,1.0
199699037,-2.767964,-2.7497334,11.7489,1.0
199709757,-2.614504,-2.5972908,11.7489,1.0
199720475,-2.390465,-2.3747268,11.7489,1.0
199731204,-2.1997015,-2.185219,11.7489,1.0
199741942,-2.3085487,-2.2933497,11.7489,1.0
199752843,-2.6913676,-2.673648,11.7489,1.0
199763561,-3.176336,-3.1554508,11.7489,1.0
199774283,-3.618931,-3.5951355,11.7489,1.0
199785011,-3.877497,-3.8520012,11.7489,1.0
199795854,-3.9252224,-3.8994129,11.7489,1.0
199806585,-3.790258,-3.7653358,11.7489,1.0
199817306,-3.4767425,-3.453865,11.7489,1.0
199828027,-3.0329988,-3.0130413,11.7489,1.0
199838745,-2.562231,-2.5453713,11.7489,1.0
199849460,-2.211861,-2.1973066,11.7489,1.0
199860392,-2.214052,-2.1994832,11.7489,1.0
199871111,-2.4824274,-2.4660988,11.7489,1.0
199881949,-2.681849,-2.6642087,11.7489,1.0
199892881,-2.727563,-2.709622,11.7489,1.0
199903657,-2.6378284,-2.6204777,11.7489,1.0
199914457,-2.4168088,-2.4009118,11.7489,1.0
199925415,-2.0990067,-2.0852206,11.7489,1.0
199936137,-1.6355664,-1.6248242,11.7489,1.0
199946858,-0.94538236,-0.93917316,11.7489,1.0
199957576,-0.12868744,-0.12784223,11.7489,1.0
199968538,-0.96339977,-0.95707226,11.7489,1.0
199979259,-1.8051882,-1.7933297,11.7489,1.0
199990027,-2.3565128,-2.3410327,11.7489,1.0
200000950,-2.5901082,-2.5730934,11.7489,1.0
200011672,-2.5809715,-2.5640168,11.7489,1.0
200022392,-2.460397,-2.4442344,11.7489,1.0
200033149,-2.2660496,-2.2511497,11.7489,1.0
200043880,-1.9175345,-1.9049262,11.7489,1.0
200054598,-1.3353131,-1.326533,11.7489,1.0
200065500,0.17666039,0.1754988,11.7489,1.0
200076263,0.92478824,0.9183811,11.553493,1.0
200087040,-0.40062144,-0.39784586,11.553493,1.0
200097755,-1.5642986,-1.5534608,11.553493,1.0
200108724,-2.0558388,-2.0415955,11.553493,1.0
200119473,-2.1381755,-2.1233618,11.553493,1.0
200130188,-1.9397469,-1.9263079,11.553493,1.0
200141061,-1.5763851,-1.5654424,11.553493,1.0
200151779,-1.1931216,-1.1848392,11.553493,1.0
200162584,-0.8904963,-0.8843148,11.553493,1.0
200173579,-0.69960856,-0.6949905,11.7489,1.0
200184293,-0.8941571,-0.8882549,11.7489,1.0
200195103,-1.5523064,-1.5420636,11.7489,1.0
200206032,-2.251494,-2.2366376,11.7489,1.0
200216754,-2.7256637,-2.7076786,11.7489,1.0
200227472,-2.9113734,-2.8921628,11.7489,1.0
200238189,-2.8302271,-2.811552,11.7489,1.0
200248935,-2.5307112,-2.5140526,11.7489,1.0
200259676,-2.0486114,-2.0351262,11.7489,1.0
200270581,-1.3343053,-1.3255222,11.7489,1.0
200281392,0.7588301,0.753835,11.7489,1.0
200292200,1.6444167,1.6335922,11.7489,1.0
200303152,1.9821126,1.9691066,11.7489,1.0
200313877,1.7692074,1.7575983,11.7489,1.0
200324645,-0.20135735,-0.2000361,11.7489,1.0
200335363,-2.1644218,-2.1502194,11.7489,1.0
200346316,-3.0235598,-3.00372,11.7489,1.0
200357031,-3.4864264,-3.4634511,11.7489,1.0
200367749,-3.6671958,-3.6430295,11.7489,1.0
200378706,-3.6553946,-3.631306,11.7489,1.0
200389432,-3.5210292,-3.497826,11.7489,1.0
200400194,-3.334717,-3.3127415,11.7489,1.0
200411148,-3.1764507,-3.1555452,11.7489,1.0
200421890,-3.1716514,-3.1507776,11.7489,1.0
200432605,-3.3296714,-3.3077576,11.7489,1.0
200443333,-3.4319804,-3.4093933,11.7489,1.0
200454056,-3.382385,-3.3601243,11.7489,1.0
200464773,-3.2034826,-3.1824112,11.7489,1.0
200475672,-2.8680732,-2.8492079,11.7489,1.0
200486401,-2.3654935,-2.349934,11.7489,1.0
200497119,-1.6720412,-1.661043,11.7489,1.0
200507847,-0.3347749,-0.33257288,11.7489,1.0
200518710,1.5104574,1.5005072,11.7489,1.0
200529430,2.0223017,2.0089798,11.7489,1.0
200540148,2.1409817,2.126878,11.7489,1.0
200550875,1.7484194,1.7369016,11.7489,1.0
200561645,-0.6064747,-0.60249513,11.7489,1.0
200572371,-2.215222,-2.1999314,11.553493,1.0
200583240,-3.0405307,-3.0195434,11.553493,1.0
200593964,-3.464192,-3.4402802,11.553493,1.0
200604693,-3.5723379,-3.5476797,11.553493,1.0
200615414,-3.4304612,-3.4067824,11.553493,1.0
200626247,-3.119149,-3.0975654,11.553493,1.0
200637052,-2.718531,-2.6997194,11.553493,1.0
200647800,-2.3295648,-2.3134449,11.553493,1.0
200658738,-2.1495647,-2.1346905,11.553493,1.0
200669452,-2.1497402,-2.1348648,11.553493,1.0
200680172,-2.1418846,-2.1278248,11.7489,1.0
200690944,-2.08856,-2.0748503,11.7489,1.0
200701731,-2.0078743,-1.994694,11.7489,1.0
200712446,-1.9131854,-1.9006267,11.7489,1.0
200723294,-1.7566128,-1.7450798,11.7489,1.0
200734077,-1.4187655,-1.4094507,11.7489,1.0
200744857,-0.7069412,-0.7022998,11.7489,1.0
200755804,0.98347676,0.9770197,11.7489,1.0
200766522,1.2220166,1.2139934,11.7489,1.0
200777237,0.4850547,0.4817048,11.553493,1.0
200787955,-1.6704592,-1.6588818,11.553493,1.0
200798817,-2.5897439,-2.5717952,11.553493,1.0
200809535,-3.2721875,-3.249509,11.553493,1.0
200820251,-3.8226578,-3.7961643,11.553493,1.0
200830977,-4.235161,-4.2058086,11.553493,1.0
200841726,-4.437226,-4.406522,11.553493,1.0
200852450,-4.423602,-4.3929925,11.553493,1.0
200863330,-4.2280526,-4.1987963,11.553493,1.0
200874046,-3.8866303,-3.8610604,11.7489,1.0
200884805,-3.5288177,-3.505589,11.7489,1.0
200895524,-3.26711,-3.2456043,11.7489,1.0
200906400,-3.0364292,-3.0164416,11.7489,1.0
200917121,-2.7769082,-2.758629,11.7489,1.0
200927839,-2.4661162,-2.4498827,11.7489,1.0
200938561,-2.0227914,-2.0094762,11.7489,1.0
200949278,-1.3502918,-1.3414333,11.7489,1.0
200960081,0.6643907,0.660032,11.7489,1.0
200970970,1.588019,1.5776008,11.7489,1.0
200981689,2.0777102,2.0640793,11.7489,1.0
200992465,2.405148,2.389369,11.7489,1.0
201003183,2.5176094,2.5010524,11.7489,1.0
201014116,2.2171469,2.202566,11.7489,1.0
201024834,1.2573647,1.2490957,11.7489,1.0
201035557,-1.5273489,-1.5173043,11.7489,1.0
201046508,-2.3910265,-2.375311,11.7489,1.0
201057240,-2.877977,-2.8590605,11.7489,1.0
201068024,-3.1807926,-3.159886,11.7489,1.0
201078970,-3.3668807,-3.344751,11.7489,1.0
201089690,-3.4729266,-3.4500997,11.7489,1.0
201100417,-3.5230708,-3.4999144,11.7489,1.0
201111149,-3.5880256,-3.564464,11.7489,1.0
201121872,-3.7588468,-3.7341635,11.7489,1.0
201132594,-3.9521246,-3.9261723,11.7489,1.0
201143502,-3.9786842,-3.9525573,11.7489,1.0
201154283,-3.773188,-3.7484107,11.7489,1.0
201165050,-3.3776016,-3.3553889,11.7489,1.0
201175767,-2.8309236,-2.8123062,11.7489,1.0
201186709,-2.1284144,-2.1144168,11.7489,1.0
201197423,-1.2146503,-1.2066622,11.7489,1.0
201208137,0.9228973,0.9168347,11.7489,1.0
201219051,1.5890932,1.5786543,11.7489,1.0
201229790,1.7488807,1.7373922,11.7489,1.0
201240505,1.360859,1.3519194,11.7489,1.0
201251227,-0.96213186,-0.9558115,11.7489,1.0
201261992,-2.069002,-2.0554104,11.7489,1.0
201272707,-2.608678,-2.5915127,11.7489,1.0
201283589,-2.8358648,-2.8172045,11.7489,1.0
201294310,-2.89032,-2.8713014,11.7489,1.0
201305024,-2.8000739,-2.781649,11.7489,1.0
201315742,-2.575228,-2.5582826,11.7489,1.0
201326611,-2.2981467,-2.2830527,11.7489,1.0
201337335,-1.9871463,-1.9740949,11.7489,1.0
201348052,-1.7548089,-1.7432835,11.7489,1.0
201358770,-1.97177,-1.9588196,11.7489,1.0
201369529,-2.508796,-2.4922662,11.7489,1.0
201380250,-2.967684,-2.9481308,11.7489,1.0
201391101,-3.2292325,-3.207956,11.7489,1.0
201401880,-3.3064027,-3.284618,11.7489,1.0
201412680,-3.1770468,-3.156114,11.7489,1.0
201423615,-2.8427985,-2.824068,11.7489,1.0
201434334,-2.3406017,-2.3252175,11.7489,1.0
201445052,-1.644822,-1.6340109,11.7489,1.0
201455767,-0.503248,-0.49994025,11.7489,1.0
201466634,1.0013686,0.9944456,11.553493,1.0
201477353,0.50220734,0.49873653,11.553493,1.0
201488071,-1.3774555,-1.3679358,11.553493,1.0
201498796,-1.9596304,-1.9460871,11.553493,1.0
201509518,-2.2231138,-2.2077496,11.553493,1.0
201520256,-2.3273582,-2.3112736,11.553493,1.0
201531143,-2.3345816,-2.31841,11.553493,1.0
201541863,-2.2800426,-2.2642488,11.553493,1.0
201552578,-2.1872666,-2.1721153,11.553493,1.0
201563294,-2.0227635,-2.0087519,11.553493,1.0
201574276,-1.8570888,-1.8448576,11.7489,1.0
