timestamp,timestamp_sample,device_id,magnetometer_ga[0],magnetometer_ga[1],magnetometer_ga[2],calibration_count
186827071,186821838,1114122,0.25331214,-0.022474425,0.33109504,2
186848071,186842760,1114122,0.25437883,-0.023024037,0.33035594,2
186869256,186864184,1114122,0.25495827,-0.022681143,0.3335209,2
186890073,186884756,1114122,0.2546454,-0.022058994,0.33391005,2
186911773,186906106,1114122,0.25400898,-0.022088192,0.33254114,2
186932075,186926857,1114122,0.2546532,-0.022936061,0.33167905,2
186953074,186947758,1114122,0.25485623,-0.023005152,0.3329227,2
186974302,186969224,1114122,0.25511914,-0.023442699,0.33381107,2
186995082,186989764,1114122,0.25391734,-0.023341946,0.33355278,2
187016819,187011103,1114122,0.25498,-0.023082515,0.33344534,2
187037125,187031878,1114122,0.25353163,-0.023582699,0.33226967,2
187058078,187052755,1114122,0.25510496,-0.022444211,0.33384058,2
187079345,187074278,1114122,0.2552027,-0.022776242,0.33340538,2
187100080,187094758,1114122,0.2550484,-0.02213538,0.33307654,2
187121889,187116140,1114122,0.25494188,-0.024587523,0.33394033,2
187142188,187136929,1114122,0.25407058,-0.025434516,0.3329765,2
187163081,187157760,1114122,0.2536295,-0.026124954,0.33089715,2
187184403,187179307,1114122,0.2539467,-0.025355732,0.3325339,2
187205121,187199759,1114122,0.25432408,-0.02496199,0.3334153,2
187226915,187221156,1114122,0.25432697,-0.025751367,0.3339035,2
187247080,187241928,1114122,0.25345582,-0.02439233,0.333637,2
187268100,187262764,1114122,0.2531349,-0.023619983,0.33118427,2
187289488,187284368,1114122,0.25451648,-0.024095725,0.33336914,2
187310073,187304773,1114122,0.25447518,-0.023333658,0.3334807,2
187331976,187326185,1114122,0.25496548,-0.02502401,0.3341452,2
187352068,187346939,1114122,0.2546485,-0.024325367,0.33433345,2
187373128,187367759,1114122,0.25483847,-0.02415094,0.3334943,2
187394539,187389418,1114122,0.2544092,-0.023584697,0.33032215,2
187415079,187409758,1114122,0.25468892,-0.023597093,0.3327664,2
187437109,187431224,1114122,0.2548958,-0.022999588,0.3333633,2
187467601,187457160,1114122,0.25503093,-0.021322383,0.33389467,2
187488620,187483261,1114122,0.25507262,-0.021844905,0.33151382,2
187509576,187504502,1114122,0.25431448,-0.021837443,0.33186287,2
187530575,187525262,1114122,0.25456443,-0.022035703,0.3327086,2
187552069,187546496,1114122,0.25546926,-0.023279022,0.33285433,2
187572614,187567264,1114122,0.25534955,-0.022542097,0.3335651,2
187593618,187588256,1114122,0.2554753,-0.023391288,0.3332956,2
187614586,187609519,1114122,0.2556617,-0.023149483,0.33173567,2
187635607,187630269,1114122,0.25415194,-0.022514967,0.32910734,2
187657126,187651523,1114122,0.25463596,-0.021146089,0.33134034,2
187677573,187672278,1114122,0.2556091,-0.02291647,0.33349267,2
187698636,187693258,1114122,0.25539887,-0.021980148,0.33392,2
187719655,187714553,1114122,0.2550753,-0.023368945,0.33332965,2
187740644,187735257,1114122,0.2545457,-0.023894329,0.32900718,2
187762210,187756570,1114122,0.2544852,-0.02351465,0.3300025,2
187783671,187778306,1114122,0.25476256,-0.023484938,0.33256632,2
187804675,187799587,1114122,0.25531423,-0.023361564,0.3322129,2
187825675,187820306,1114122,0.25538582,-0.023947582,0.33314002,2
187847231,187841590,1114122,0.25436932,-0.023584638,0.3302015,2
187867253,187862142,1114122,0.25471,-0.02251446,0.33315563,2
187887316,187882178,1114122,0.25550678,-0.0217635,0.33295926,2
187908640,187903258,1114122,0.25509086,-0.022920614,0.3339253,2
187929774,187924656,1114122,0.25532132,-0.025703043,0.33291715,2
187950617,187945284,1114122,0.25473076,-0.024369663,0.3320549,2
187972335,187966575,1114122,0.2537409,-0.024499364,0.33068198,2
187992563,187987357,1114122,0.25455827,-0.023394123,0.33256245,2
188013570,188008268,1114122,0.2555154,-0.023394872,0.3332162,2
188034777,188029694,1114122,0.25493765,-0.023036852,0.33364427,2
188055579,188050258,1114122,0.25498003,-0.023081832,0.33348534,2
188077359,188071603,1114122,0.25519812,-0.022689188,0.3315243,2
188097567,188092374,1114122,0.2557099,-0.022567898,0.33321047,2
188118566,188113254,1114122,0.25508213,-0.023494532,0.33301103,2
188139839,188134765,1114122,0.25457615,-0.024461376,0.33317375,2
188160565,188155138,1114122,0.2552945,-0.022996694,0.3324889,2
188182364,188176639,1114122,0.25479025,-0.025466444,0.33110702,2
188202615,188197413,1114122,0.25566804,-0.024002707,0.3308645,2
188223573,188218259,1114122,0.25499326,-0.024062045,0.33221555,2
188244883,188239813,1114122,0.2555725,-0.025186304,0.3335955,2
188265573,188260256,1114122,0.25499627,-0.022646105,0.33336106,2
188287423,188281653,1114122,0.2557443,-0.023202965,0.33349752,2
188307622,188302430,1114122,0.2539925,-0.023991039,0.3308804,2
188328573,188323255,1114122,0.25430477,-0.024602657,0.33109117,2
188349961,188344856,1114122,0.2544526,-0.025860302,0.3326263,2
188370610,188365280,1114122,0.25483808,-0.02487925,0.33290178,2
188392573,188386684,1114122,0.25566176,-0.026096458,0.33200604,2
188423066,188412643,1114122,0.25445876,-0.024991153,0.330644,2
188444981,188439203,1114122,0.25475436,-0.02480545,0.33229977,2
188465070,188459961,1114122,0.25446963,-0.023967959,0.33368716,2
188486071,188480754,1114122,0.2545079,-0.023202509,0.33423987,2
188508120,188502741,1114122,0.25562227,-0.024632763,0.3334705,2
188530044,188524249,1114122,0.25482827,-0.025432121,0.33090717,2
188550120,188545007,1114122,0.25405514,-0.025148185,0.3310532,2
188571126,188565804,1114122,0.2551365,-0.024498004,0.33282208,2
188593166,188587794,1114122,0.2551666,-0.025789794,0.33203578,2
188615055,188609291,1114122,0.2553249,-0.025031539,0.3325503,2
188635174,188630052,1114122,0.25479662,-0.024849012,0.33222082,2
188656186,188650856,1114122,0.25454837,-0.025418364,0.33082303,2
188678223,188672831,1114122,0.25444466,-0.024978288,0.33285713,2
188700137,188694327,1114122,0.25518817,-0.025452338,0.33315268,2
188720236,188715101,1114122,0.25438106,-0.026012452,0.33282688,2
188741266,188735904,1114122,0.25551856,-0.026398668,0.33252713,2
188762698,188757549,1114122,0.25499582,-0.02705464,0.33216637,2
188783220,188777908,1114122,0.25443947,-0.026352093,0.32955098,2
188805241,188799361,1114122,0.25526205,-0.026816476,0.33292776,2
188825254,188820116,1114122,0.2558469,-0.026571069,0.33281362,2
188846220,188840905,1114122,0.25583184,-0.026291806,0.33277053,2
188867725,188862152,1114122,0.25497702,-0.025971245,0.33247495,2
188888259,188882928,1114122,0.25453252,-0.025124323,0.32933965,2
188909249,188903907,1114122,0.25478512,-0.025371004,0.32970583,2
188930218,188925145,1114122,0.2549792,-0.026746575,0.33148292,2
188951220,188945909,1114122,0.25591457,-0.026346633,0.33217224,2
188972755,188967165,1114122,0.2561645,-0.02654421,0.33305788,2
188993263,188987914,1114122,0.25490606,-0.026133914,0.3320756,2
189014266,189008906,1114122,0.25500524,-0.025756605,0.3334332,2
189035253,189030176,1114122,0.25578475,-0.026895136,0.33233604,2
189056255,189050906,1114122,0.25584787,-0.02585189,0.33288622,2
189077799,189072186,1114122,0.25563246,-0.026291482,0.33216763,2
189097822,189092728,1114122,0.25537628,-0.02598028,0.3332008,2
189119220,189113907,1114122,0.25451243,-0.026962638,0.32907826,2
189140298,189135228,1114122,0.25575572,-0.02709508,0.33221766,2
189161223,189155906,1114122,0.25541654,-0.026722688,0.33192894,2
189182855,189177216,1114122,0.2549553,-0.025570571,0.33251053,2
189202866,189197778,1114122,0.25524807,-0.026557531,0.33172482,2
189222883,189217795,1114122,0.25478673,-0.02613863,0.3314339,2
189244223,189238856,1114122,0.25439948,-0.026349926,0.3295504,2
189265369,189260279,1114122,0.25591558,-0.024893504,0.33315736,2
189286170,189280855,1114122,0.25512707,-0.025060019,0.33258775,2
189307915,189302202,1114122,0.25547883,-0.025665388,0.33327907,2
189328176,189322968,1114122,0.25651687,-0.026422627,0.33198163,2
189349170,189343880,1114122,0.25523514,-0.026316803,0.32948202,2
189370426,189365336,1114122,0.25527218,-0.02626495,0.33028203,2
189391169,189385852,1114122,0.25631577,-0.02712679,0.332146,2
189413002,189407221,1114122,0.25530088,-0.026795477,0.33196804,2
189433170,189427992,1114122,0.2552805,-0.027156094,0.33181143,2
189454177,189448859,1114122,0.2547562,-0.025575155,0.33162767,2
189475496,189470420,1114122,0.2555225,-0.026470253,0.33300793,2
189496171,189490855,1114122,0.2559651,-0.025808562,0.33344752,2
189518002,189512246,1114122,0.25551325,-0.027036473,0.3325336,2
189538199,189533031,1114122,0.25552455,-0.02724488,0.3320559,2
189559225,189553857,1114122,0.25558674,-0.026920114,0.33257347,2
189580537,189575463,1114122,0.25511944,-0.027861692,0.3297363,2
189601169,189595857,1114122,0.25546297,-0.028314792,0.32998586,2
189623048,189617272,1114122,0.25506935,-0.028412465,0.3323014,2
189643207,189638036,1114122,0.2550928,-0.02884612,0.33266622,2
189664170,189658856,1114122,0.2551595,-0.026395304,0.33160186,2
189685616,189680505,1114122,0.25539014,-0.026971713,0.33129108,2
189706198,189700870,1114122,0.25450277,-0.028258607,0.33021155,2
189728095,189722297,1114122,0.25506318,-0.026825283,0.33180493,2
189748171,189743063,1114122,0.255517,-0.028577302,0.3311094,2
189769167,189763856,1114122,0.2562256,-0.027671166,0.33267033,2
189790622,189785546,1114122,0.25599435,-0.02782026,0.33254856,2
189811220,189805857,1114122,0.25422177,-0.02822309,0.3290871,2
189832204,189826860,1114122,0.25475764,-0.028545987,0.3305382,2
189853180,189848072,1114122,0.25598317,-0.028348591,0.33195382,2
189874212,189868857,1114122,0.2556072,-0.028034385,0.33278525,2
189895692,189890103,1114122,0.25616768,-0.028074518,0.33223367,2
189916173,189910875,1114122,0.25524354,-0.02868215,0.3311066,2
189937208,189931858,1114122,0.25545907,-0.028979268,0.33075273,2
189958203,189953106,1114122,0.25694197,-0.029117655,0.33201545,2
189979173,189973854,1114122,0.25616372,-0.02947433,0.332008,2
190000753,189995131,1114122,0.25545755,-0.028953325,0.33223253,2
190021167,190015887,1114122,0.2557005,-0.029019646,0.33147663,2
190042260,190036853,1114122,0.25558156,-0.028297443,0.3313475,2
190063335,190058183,1114122,0.25536394,-0.0272257,0.3326534,2
190084166,190078875,1114122,0.25495344,-0.026272938,0.3333978,2
190105809,190100156,1114122,0.25583494,-0.02708608,0.33297873,2
190126166,190120908,1114122,0.25567493,-0.027812753,0.33198386,2
190147170,190141860,1114122,0.25449663,-0.026674286,0.33183527,2
190168330,190163228,1114122,0.2544114,-0.028042339,0.32860792,2
190189170,190183856,1114122,0.25510296,-0.026087917,0.33303803,2
190210814,190205162,1114122,0.25570953,-0.0262425,0.3329283,2
190231166,190225932,1114122,0.25595468,-0.025616296,0.33300534,2
190252177,190246863,1114122,0.25526786,-0.023241524,0.33209097,2
190274224,190268735,1114122,0.2546984,-0.02229833,0.3317931,2
190295874,190290237,1114122,0.255822,-0.022429131,0.3323706,2
190316220,190310980,1114122,0.25512642,-0.02210321,0.33287734,2
190337223,190331908,1114122,0.2561056,-0.022510957,0.33313555,2
190358423,190353321,1114122,0.2556469,-0.022141194,0.33232516,2
190379213,190373752,1114122,0.25519764,-0.02268149,0.33196422,2
190400905,190395253,1114122,0.25564677,-0.021400925,0.33131742,2
190421216,190415997,1114122,0.25672728,-0.019999254,0.33271858,2
190442223,190436909,1114122,0.2565965,-0.021265566,0.33288974,2
190463517,190458414,1114122,0.25616425,-0.01917535,0.332462,2
190484258,190478909,1114122,0.25578412,-0.018046495,0.3319649,2
190505993,190500259,1114122,0.2561928,-0.01822671,0.32977247,2
190526250,190521019,1114122,0.255682,-0.019104421,0.33045423,2
190547220,190541906,1114122,0.25583398,-0.018967146,0.3319351,2
190568526,190563418,1114122,0.25649744,-0.019436866,0.3322295,2
190589255,190583921,1114122,0.2569699,-0.020060651,0.33224267,2
190610998,190605282,1114122,0.2572313,-0.020467281,0.33033046,2
190631217,190626045,1114122,0.25603932,-0.020548994,0.3310743,2
190652227,190646905,1114122,0.25637543,-0.019392483,0.33210728,2
190673611,190668489,1114122,0.25598335,-0.0180447,0.3326878,2
190694265,190688908,1114122,0.2555362,-0.017888268,0.33339983,2
190716051,190710306,1114122,0.25661948,-0.019481268,0.33235168,2
190736064,190730962,1114122,0.25559294,-0.021141903,0.32999393,2
190756173,190751036,1114122,0.2556279,-0.020316126,0.33170605,2
190777204,190771854,1114122,0.256072,-0.021154609,0.33304113,2
190798670,190793523,1114122,0.25595152,-0.02261034,0.33153427,2
190819171,190813858,1114122,0.25689614,-0.022379529,0.33170542,2
190841201,190835330,1114122,0.25606805,-0.022552278,0.33065528,2
190862280,190856910,1114122,0.25525725,-0.020834785,0.330546,2
190883661,190878557,1114122,0.25517583,-0.021543361,0.3331123,2
190904216,190898905,1114122,0.25683704,-0.022026526,0.33346108,2
190926254,190920366,1114122,0.25617757,-0.022367235,0.33245504,2
190956763,190946322,1114122,0.25527367,-0.021875624,0.3319037,2
190977754,190972410,1114122,0.25606453,-0.02248773,0.33205467,2
190998736,190993645,1114122,0.25654948,-0.023343101,0.33255044,2
191019720,191014409,1114122,0.25612408,-0.023588743,0.33314693,2
191041265,191035660,1114122,0.25565082,-0.023686968,0.33290112,2
191072222,191061509,1114122,0.25532374,-0.021818634,0.33227718,2
191093782,191088162,1114122,0.25614917,-0.02257767,0.3317368,2
191114219,191108927,1114122,0.2551691,-0.0221552,0.33231843,2
191135266,191129906,1114122,0.2551431,-0.024620788,0.33266345,2
191156268,191151203,1114122,0.25583825,-0.024937596,0.33267665,2
191177217,191171905,1114122,0.25530857,-0.02399306,0.33257937,2
191198811,191193176,1114122,0.2547216,-0.02419912,0.33037293,2
191219219,191213942,1114122,0.25587565,-0.024154603,0.3319491,2
191240224,191234909,1114122,0.25533992,-0.023836643,0.3324982,2
191262275,191256743,1114122,0.25515676,-0.02413667,0.33301872,2
191283836,191278227,1114122,0.25526875,-0.02325908,0.33337128,2
191304275,191298988,1114122,0.2551684,-0.023613237,0.33105332,2
191325366,191319957,1114122,0.25488615,-0.025027324,0.3291437,2
191347324,191341781,1114122,0.25496083,-0.02493627,0.33230406,2
191368896,191363275,1114122,0.2549495,-0.026199952,0.33299696,2
191389331,191384041,1114122,0.25488514,-0.026483323,0.33255893,2
191410313,191405004,1114122,0.25447547,-0.027754799,0.33156607,2
191431453,191426336,1114122,0.2545095,-0.026174,0.33083025,2
191452320,191446808,1114122,0.25510848,-0.025454335,0.33279154,2
191473926,191468287,1114122,0.25510255,-0.02460812,0.3332628,2
191494418,191489072,1114122,0.2553178,-0.02490173,0.33310887,2
191515325,191510009,1114122,0.25503793,-0.024887972,0.33302474,2
191536457,191531365,1114122,0.25499046,-0.025481494,0.33087,2
191557360,191552027,1114122,0.2539454,-0.025329724,0.3294534,2
191579013,191573329,1114122,0.25453788,-0.025224682,0.33046088,2
191599320,191594089,1114122,0.25590253,-0.025388153,0.3322022,2
191620320,191615004,1114122,0.2558389,-0.025686279,0.33320445,2
191641517,191636430,1114122,0.2547077,-0.025415808,0.3314653,2
191662369,191657005,1114122,0.25545377,-0.025202245,0.33231387,2
191684029,191678352,1114122,0.25546658,-0.024703402,0.33350897,2
191704058,191698967,1114122,0.25507972,-0.025658458,0.33243322,2
191724265,191719094,1114122,0.25605202,-0.025939897,0.33305007,2
191745354,191739962,1114122,0.25505537,-0.02668285,0.33308345,2
191767344,191761886,1114122,0.25442386,-0.02606653,0.33214802,2
191789091,191783380,1114122,0.25426227,-0.026025549,0.3294251,2
191809099,191804015,1114122,0.2552138,-0.025926713,0.33347797,2
191830374,191825008,1114122,0.25481915,-0.026002577,0.33247304,2
191851610,191846531,1114122,0.25432408,-0.025697313,0.3324228,2
191872322,191867003,1114122,0.25508952,-0.025103455,0.33226764,2
191894135,191888387,1114122,0.2544843,-0.025707336,0.330065,2
191914316,191909159,1114122,0.25485194,-0.025132533,0.32986438,2
191935327,191930022,1114122,0.25499368,-0.026277868,0.33095825,2
191956641,191951563,1114122,0.25553334,-0.026670948,0.3329702,2
191977323,191972007,1114122,0.25579005,-0.02699411,0.33353722,2
191999192,191993427,1114122,0.2543708,-0.026558999,0.33119226,2
192019317,192014179,1114122,0.2551239,-0.025738519,0.33255467,2
192040320,192035004,1114122,0.25504968,-0.02657618,0.3323222,2
192061699,192056601,1114122,0.25525504,-0.025215283,0.3332312,2
192082317,192076935,1114122,0.2552688,-0.024733268,0.33346647,2
192104342,192098446,1114122,0.25491315,-0.02626442,0.33147702,2
192124361,192119229,1114122,0.253624,-0.028229898,0.3291186,2
192145313,192140004,1114122,0.2552898,-0.02659129,0.3322058,2
192166774,192161648,1114122,0.2550799,-0.027134746,0.33240843,2
192187314,192182004,1114122,0.25507343,-0.028488245,0.33254224,2
192208357,192203010,1114122,0.25511295,-0.029217333,0.3320303,2
192229360,192224232,1114122,0.25540125,-0.0286487,0.3312285,2
192250320,192245009,1114122,0.25432587,-0.027200952,0.33083814,2
192271822,192266251,1114122,0.25558913,-0.026965015,0.33229393,2
192292349,192287011,1114122,0.2551366,-0.027446382,0.33301246,2
192313353,192308006,1114122,0.25597122,-0.028864989,0.33203894,2
192334359,192329258,1114122,0.25668827,-0.029585231,0.3295765,2
192355323,192350007,1114122,0.25495875,-0.030785255,0.328564,2
192376846,192371266,1114122,0.25549406,-0.02962768,0.33256,2
192396874,192391796,1114122,0.25553706,-0.029684577,0.33172116,2
192418371,192413007,1114122,0.256041,-0.03015263,0.33161318,2
192439402,192434293,1114122,0.25557378,-0.028888933,0.3317135,2
192460358,192455004,1114122,0.2543854,-0.027563795,0.33080277,2
192481957,192476300,1114122,0.2558622,-0.02832527,0.3329119,2
192512820,192502155,1114122,0.25571728,-0.027612608,0.33215576,2
192534456,192528797,1114122,0.2556283,-0.029161263,0.33227712,2
192554822,192549558,1114122,0.25577337,-0.028892763,0.33211643,2
192575823,192570505,1114122,0.25582916,-0.028449364,0.3302725,2
192596975,192591901,1114122,0.25523347,-0.029230814,0.32935196,2
192617831,192612507,1114122,0.2570676,-0.028491255,0.33173078,2
192639502,192633823,1114122,0.25588933,-0.02882557,0.33175737,2
192659858,192654591,1114122,0.25534508,-0.026876241,0.3320495,2
192680822,192675507,1114122,0.25594705,-0.025473125,0.3320437,2
192702043,192696943,1114122,0.25479484,-0.023340398,0.32952505,2
192722817,192717503,1114122,0.25696355,-0.02215159,0.33126402,2
192744547,192738848,1114122,0.2562253,-0.020302292,0.33207446,2
192764580,192759468,1114122,0.25749284,-0.0194075,0.33244345,2
192784769,192779589,1114122,0.2565914,-0.018962676,0.3322659,2
192805779,192800457,1114122,0.25711676,-0.01982508,0.3302022,2
192827106,192821971,1114122,0.25710195,-0.01881326,0.32871148,2
192847831,192842457,1114122,0.2581182,-0.019169841,0.32972977,2
192869611,192863854,1114122,0.25762445,-0.018154526,0.33151233,2
192889722,192884554,1114122,0.25783798,-0.019152619,0.33212572,2
192910814,192905459,1114122,0.2580741,-0.020566814,0.33182365,2
192932190,192927036,1114122,0.25693792,-0.020202994,0.3285634,2
192952769,192947479,1114122,0.25821,-0.020865927,0.33110863,2
192974689,192968899,1114122,0.2581146,-0.021313414,0.33031183,2
192994766,192989647,1114122,0.25804573,-0.020778667,0.33102536,2
193015767,193010454,1114122,0.25892985,-0.020903504,0.33119935,2
193037159,193032073,1114122,0.25762245,-0.021796804,0.32850963,2
193057774,193052459,1114122,0.25809938,-0.019560676,0.3324137,2
193079784,193073901,1114122,0.25815916,-0.019928431,0.3320983,2
193110296,193099843,1114122,0.25750488,-0.020855978,0.33176517,2
193132212,193126410,1114122,0.2571036,-0.021791842,0.33174235,2
193152270,193147186,1114122,0.25664663,-0.02218968,0.33037978,2
193173270,193167956,1114122,0.25673664,-0.022377152,0.32906294,2
193194748,193189191,1114122,0.2573998,-0.022105226,0.33070976,2
193215270,193209959,1114122,0.25793195,-0.021624718,0.33247253,2
193236303,193230960,1114122,0.2565847,-0.021047315,0.33164728,2
193257263,193252180,1114122,0.25727737,-0.019846404,0.33176482,2
193278308,193272976,1114122,0.25743258,-0.020501975,0.33125374,2
193299813,193294219,1114122,0.25666708,-0.02036051,0.33240142,2
193319846,193314745,1114122,0.25659114,-0.020430572,0.33272108,2
193341398,193335971,1114122,0.25651574,-0.021984637,0.33257595,2
193362327,193357225,1114122,0.25559086,-0.021106143,0.33203366,2
193383263,193377954,1114122,0.25513822,-0.021583281,0.33071202,2
193404896,193399245,1114122,0.25541854,-0.021604035,0.33039618,2
193426381,193421015,1114122,0.25687376,-0.021231603,0.3334134,2
193447361,193442283,1114122,0.25654817,-0.021109708,0.33252743,2
193468323,193463010,1114122,0.25638413,-0.018817848,0.33306152,2
193489921,193484280,1114122,0.25625765,-0.018692058,0.33301842,2
193509955,193504829,1114122,0.255667,-0.020301437,0.33038634,2
193530269,193525029,1114122,0.25506794,-0.02102183,0.33066523,2
193551271,193545954,1114122,0.2559963,-0.02048998,0.32975295,2
193572470,193567371,1114122,0.25632983,-0.0200239,0.33235312,2
193593274,193587954,1114122,0.2565884,-0.019643294,0.33211285,2
193614953,193609276,1114122,0.25577956,-0.018697623,0.3312115,2
193635274,193630042,1114122,0.25576055,-0.019084211,0.33185524,2
193656267,193650957,1114122,0.25601417,-0.017877769,0.3332066,2
193677495,193672427,1114122,0.2554145,-0.017850175,0.3329177,2
193698269,193692955,1114122,0.25606513,-0.01808203,0.33308935,2
193719993,193714306,1114122,0.2555787,-0.019407395,0.33105594,2
193740266,193735066,1114122,0.2547349,-0.020025667,0.3295701,2
193761287,193755964,1114122,0.25648332,-0.019911868,0.33239418,2
193783315,193777861,1114122,0.25660914,-0.019289687,0.33186954,2
193805052,193799351,1114122,0.25660312,-0.018442076,0.33242074,2
193825371,193820123,1114122,0.25691438,-0.01829871,0.3324637,2
193846319,193841010,1114122,0.25579306,-0.017476069,0.3326792,2
193868367,193862903,1114122,0.25661182,-0.018603474,0.33234257,2
193890123,193884384,1114122,0.25564742,-0.018470127,0.3346875,2
193910412,193905170,1114122,0.25542468,-0.020983826,0.33395013,2
193931380,193926060,1114122,0.25619292,-0.022650018,0.33229822,2
193952619,193947545,1114122,0.25546998,-0.021818839,0.33195925,2
193973370,193968055,1114122,0.2554654,-0.023205306,0.3302133,2
193995142,193989411,1114122,0.25594857,-0.02329379,0.3335014,2
194015424,194010175,1114122,0.2554135,-0.02445985,0.33358574,2
194036366,194031056,1114122,0.25490895,-0.024715181,0.33338112,2
194057693,194052575,1114122,0.25524572,-0.02430591,0.33274168,2
194078414,194073053,1114122,0.25376135,-0.023404814,0.33175108,2
194100217,194094439,1114122,0.2541297,-0.023580097,0.33199817,2
194120369,194115203,1114122,0.25524834,-0.025091782,0.33342987,2
194141406,194136069,1114122,0.25434133,-0.025280558,0.33349884,2
194162730,194157617,1114122,0.2543398,-0.025251783,0.33285847,2
194183381,194178059,1114122,0.25448716,-0.024290733,0.33353072,2
194205247,194199470,1114122,0.2539837,-0.026039205,0.33234143,2
194226470,194221125,1114122,0.25515994,-0.024931673,0.33318692,2
194247786,194242652,1114122,0.25503805,-0.025626842,0.3341124,2
194268439,194263108,1114122,0.25459564,-0.023347866,0.3330425,2
194290285,194284530,1114122,0.25387365,-0.022535663,0.3339039,2
194310298,194305210,1114122,0.2545395,-0.024518838,0.33205372,2
194331523,194326105,1114122,0.25405353,-0.025117308,0.3305328,2
194352787,194347710,1114122,0.25373733,-0.025173001,0.33320904,2
194373426,194368102,1114122,0.25495344,-0.024800852,0.33318263,2
194395316,194389531,1114122,0.25469548,-0.023718487,0.33268777,2
194415429,194410305,1114122,0.2543053,-0.025349952,0.3316989,2
194436432,194431122,1114122,0.25433913,-0.024502397,0.3323707,2
194457829,194452753,1114122,0.25590733,-0.02400521,0.33374816,2
194478434,194473107,1114122,0.2545307,-0.02288609,0.33415693,2
194500458,194494570,1114122,0.25492972,-0.02362764,0.3340503,2
194530964,194520512,1114122,0.25450367,-0.02336809,0.33388147,2
194551954,194546608,1114122,0.25428763,-0.025021512,0.32989514,2
194572915,194567819,1114122,0.25416803,-0.025024157,0.33165357,2
194593958,194588629,1114122,0.2546385,-0.024140112,0.33349136,2
194615462,194609867,1114122,0.25411496,-0.024045281,0.33272284,2
194637010,194631662,1114122,0.25519338,-0.024075665,0.33205852,2
194657969,194652872,1114122,0.25530225,-0.023139823,0.33117038,2
194679023,194673663,1114122,0.25424838,-0.023563456,0.33331978,2
194700498,194694916,1114122,0.25430495,-0.023134116,0.33295617,2
194720965,194715670,1114122,0.2538821,-0.023427479,0.33311313,2
194742003,194736656,1114122,0.2547319,-0.023653977,0.3319276,2
194763001,194757900,1114122,0.25460565,-0.022796372,0.33267695,2
194784056,194778661,1114122,0.25404882,-0.024293516,0.3297242,2
194805565,194799936,1114122,0.25446016,-0.02379109,0.33236513,2
194825577,194820468,1114122,0.2556687,-0.023280032,0.33341724,2
194845923,194840672,1114122,0.25527313,-0.023339782,0.33333218,2
194866923,194861610,1114122,0.25520933,-0.021425534,0.33311155,2
194888042,194882961,1114122,0.2550317,-0.02108985,0.33122543,2
194908928,194903608,1114122,0.2548529,-0.021467764,0.32958663,2
194930629,194924913,1114122,0.25516033,-0.022727732,0.33148414,2
194950916,194945692,1114122,0.2551314,-0.02145911,0.3332308,2
194971920,194966626,1114122,0.25482333,-0.02092467,0.33318087,2
194993092,194988026,1114122,0.25506505,-0.021706682,0.33255234,2
195013916,195008446,1114122,0.2551136,-0.023339532,0.33284986,2
195035664,195029956,1114122,0.25541842,-0.023076866,0.33285153,2
195055919,195050706,1114122,0.25498912,-0.022514895,0.33399966,2
195076921,195071609,1114122,0.25460774,-0.022834962,0.3327574,2
195098154,195093082,1114122,0.2551192,-0.021970596,0.3335959,2
195118927,195113485,1114122,0.25308025,-0.024819024,0.33087584,2
195140703,195134966,1114122,0.25400966,-0.0235729,0.3320364,2
195160989,195155753,1114122,0.25532496,-0.02356017,0.33229512,2
195181921,195176604,1114122,0.25505775,-0.02378079,0.3325336,2
195203205,195198130,1114122,0.25493348,-0.023694294,0.33253092,2
195223926,195218605,1114122,0.25486237,-0.021645345,0.33314884,2
195245731,195239988,1114122,0.25452548,-0.022051785,0.3316681,2
195265792,195260664,1114122,0.25502396,-0.021684885,0.3336716,2
195286928,195281611,1114122,0.25564075,-0.02202824,0.33420402,2
195308240,195303161,1114122,0.25576153,-0.02278478,0.33237338,2
195328946,195323604,1114122,0.25525793,-0.023059087,0.33336908,2
195350771,195345009,1114122,0.25372577,-0.024220088,0.33063892,2
195370920,195365779,1114122,0.25444537,-0.024252743,0.33100957,2
195391920,195386607,1114122,0.25463507,-0.024813704,0.33373827,2
195413316,195408219,1114122,0.25494695,-0.02468085,0.33318126,2
195433330,195428234,1114122,0.25494516,-0.02317509,0.33260575,2
195453899,195448564,1114122,0.25376797,-0.022054825,0.33141726,2
195474910,195469564,1114122,0.2546656,-0.023166228,0.3322416,2
195495916,195490776,1114122,0.25534737,-0.022502106,0.33356464,2
195516923,195511560,1114122,0.25508195,-0.022018256,0.33303583,2
195538426,195532806,1114122,0.25529033,-0.02218486,0.33328056,2
195558872,195553553,1114122,0.25495708,-0.022657964,0.3325606,2
195579914,195574554,1114122,0.2540311,-0.022495877,0.33210564,2
195600922,195595805,1114122,0.2547446,-0.023151603,0.33104253,2
195621870,195616575,1114122,0.25442603,-0.022422783,0.33067042,2
195643418,195637824,1114122,0.25510257,-0.021663245,0.33287245,2
195663873,195658583,1114122,0.25556272,-0.02132433,0.33315557,2
195684871,195679561,1114122,0.2553694,-0.021435615,0.33303392,2
195706920,195701376,1114122,0.25373083,-0.022104587,0.33073717,2
195728466,195722878,1114122,0.25481418,-0.022962952,0.33064154,2
195750009,195744662,1114122,0.25481412,-0.022963677,0.3328817,2
195770979,195765894,1114122,0.25464338,-0.022757126,0.33275712,2
195790999,195785912,1114122,0.25368947,-0.022078581,0.33209643,2
195811917,195806388,1114122,0.25441235,-0.022908343,0.33251536,2
195833497,195827880,1114122,0.2554745,-0.02190449,0.33392036,2
195853919,195848654,1114122,0.25457722,-0.02080014,0.3349762,2
195874922,195869612,1114122,0.25470352,-0.020921681,0.3329791,2
195896054,195890961,1114122,0.25540903,-0.021431454,0.33339447,2
195916920,195911607,1114122,0.25494057,-0.021616679,0.33274963,2
195938543,195932919,1114122,0.25337976,-0.023722075,0.3306688,2
195958916,195953677,1114122,0.25571227,-0.023347434,0.33197844,2
195979920,195974613,1114122,0.2548323,-0.02256307,0.33303785,2
196002019,195996468,1114122,0.25413638,-0.022968275,0.33279204,2
196023629,196017972,1114122,0.25566125,-0.023141082,0.3322156,2
196043985,196038726,1114122,0.2539598,-0.02338757,0.3310737,2
196064970,196059656,1114122,0.2550882,-0.020661255,0.33310193,2
196086184,196081072,1114122,0.25497347,-0.021488335,0.3333488,2
196106966,196101496,1114122,0.2548315,-0.020340921,0.33465508,2
196128643,196122977,1114122,0.2543283,-0.022094296,0.3331858,2
196149004,196143739,1114122,0.2551677,-0.02286315,0.33060557,2
196169967,196164659,1114122,0.25417542,-0.022949338,0.32943216,2
196191208,196186078,1114122,0.2551273,-0.022856116,0.3331651,2
196212014,196206681,1114122,0.25513455,-0.022989418,0.33240652,2
196233676,196227999,1114122,0.25457504,-0.022231491,0.33295074,2
196253965,196248763,1114122,0.25539887,-0.022716181,0.33288753,2
196274978,196269660,1114122,0.25469908,-0.022310935,0.33107322,2
196296286,196291132,1114122,0.25491008,-0.021053918,0.33290344,2
196317018,196311666,1114122,0.25514388,-0.023898788,0.33289605,2
196338776,196333046,1114122,0.25431737,-0.02336499,0.33347875,2
196358966,196353793,1114122,0.2541257,-0.022771087,0.33262986,2
196380013,196374660,1114122,0.2555249,-0.022096796,0.3322029,2
196401453,196396183,1114122,0.2542236,-0.023103073,0.32991445,2
196421971,196416678,1114122,0.2552191,-0.022342633,0.33316115,2
196443784,196438066,1114122,0.2551669,-0.022850554,0.33360565,2
196463800,196458730,1114122,0.2550719,-0.021096949,0.3332262,2
196483920,196478797,1114122,0.25514007,-0.021619096,0.33323255,2
196504925,196499610,1114122,0.2541399,-0.023031406,0.33147264,2
196526332,196521235,1114122,0.25422493,-0.023128357,0.33075482,2
196546923,196541607,1114122,0.2549377,-0.023037557,0.33360428,2
196568862,196563055,1114122,0.25521734,-0.023047104,0.3339284,2
196588917,196583822,1114122,0.25528568,-0.021361802,0.33243194,2
196609923,196604610,1114122,0.25537777,-0.021589993,0.33335567,2
196631390,196625816,1114122,0.25371543,-0.02255572,0.32998157,2
196651920,196646607,1114122,0.25570476,-0.021001104,0.33383435,2
196672968,196667633,1114122,0.25552434,-0.020614188,0.33258766,2
196693920,196688845,1114122,0.2554093,-0.019962873,0.33297932,2
196713985,196708867,1114122,0.25535616,-0.021926742,0.3322788,2
196734870,196729350,1114122,0.25478086,-0.021611497,0.33026713,2
196756452,196750833,1114122,0.25463623,-0.021149598,0.33114034,2
196776866,196771610,1114122,0.25481272,-0.02146352,0.3319862,2
196797877,196792560,1114122,0.25485897,-0.020844707,0.3310204,2
196818996,196813899,1114122,0.2555633,-0.021333447,0.33263564,2
196839871,196834557,1114122,0.25580305,-0.021342233,0.3328792,2
196861524,196855855,1114122,0.25517422,-0.020040397,0.33237675,2
196881907,196876630,1114122,0.25522435,-0.020229936,0.33309945,2
196902873,196897556,1114122,0.2556011,-0.019822832,0.33246064,2
196924058,196918944,1114122,0.25547656,-0.019731427,0.33273792,2
196944927,196939562,1114122,0.25592136,-0.02131715,0.33240056,2
196966618,196960900,1114122,0.2550907,-0.020705428,0.33058226,2
196986863,196981653,1114122,0.2553055,-0.020254586,0.33194077,2
197007867,197002556,1114122,0.25572622,-0.019922636,0.3317034,2
197029062,197023976,1114122,0.25546718,-0.020294843,0.33242357,2
197049924,197044559,1114122,0.25574535,-0.019540997,0.33305985,2
197071630,197065927,1114122,0.25566214,-0.019475598,0.3319779,2
197091641,197086558,1114122,0.2558523,-0.018569343,0.3319313,2
197111820,197106673,1114122,0.2557087,-0.020336624,0.33306748,2
197132876,197127507,1114122,0.25580072,-0.019826636,0.33286357,2
197154111,197149031,1114122,0.25572583,-0.019916326,0.33206332,2
197174820,197169507,1114122,0.255522,-0.019833926,0.33157957,2
197196675,197190926,1114122,0.25598878,-0.020351743,0.33079147,2
197217920,197212556,1114122,0.25502765,-0.020278733,0.33197707,2
197239159,197234077,1114122,0.25613233,-0.019322656,0.33306313,2
197259874,197254555,1114122,0.2563687,-0.017795496,0.33217072,2
197281745,197275957,1114122,0.25653186,-0.017864525,0.33329386,2
197301869,197296720,1114122,0.25614756,-0.018868726,0.3339787,2
197322869,197317566,1114122,0.2557189,-0.019786492,0.33034182,2
197344206,197339132,1114122,0.2556414,-0.018356416,0.3320461,2
197364866,197359553,1114122,0.25598645,-0.018838288,0.33293605,2
197386769,197380983,1114122,0.25550717,-0.0180882,0.33328146,2
197406863,197401741,1114122,0.25609118,-0.019298725,0.3320222,2
197427875,197422558,1114122,0.2543138,-0.019615283,0.3312,2
197449927,197444512,1114122,0.25548458,-0.019880194,0.3333796,2
197471797,197466020,1114122,0.2554415,-0.016877037,0.3339081,2
197491919,197486785,1114122,0.25538126,-0.01723689,0.3336709,2
197512928,197507607,1114122,0.255624,-0.018773198,0.3332502,2
197534970,197529558,1114122,0.25582236,-0.018018508,0.33368528,2
197556868,197551078,1114122,0.25367495,-0.01812678,0.32993543,2
197576966,197571844,1114122,0.2551331,-0.017804816,0.33007297,2
197597970,197592659,1114122,0.25548238,-0.016893927,0.3330688,2
197620021,197614599,1114122,0.25505263,-0.017794903,0.3326719,2
197641917,197636128,1114122,0.25531328,-0.01819035,0.33367977,2
197662059,197656888,1114122,0.2551039,-0.01726801,0.3310271,2
197683030,197677716,1114122,0.25619394,-0.016778516,0.33275777,2
197705081,197699688,1114122,0.25520036,-0.016841564,0.33290422,2
197726980,197721156,1114122,0.25560433,-0.018409697,0.3334462,2
197747126,197741945,1114122,0.25531027,-0.018871658,0.33348674,2
197768070,197762757,1114122,0.25418234,-0.01866224,0.33282837,2
197790120,197784715,1114122,0.25512034,-0.019043226,0.32992554,2
197811945,197806195,1114122,0.25488487,-0.018379148,0.33295554,2
197832198,197826964,1114122,0.25458395,-0.017242,0.33317953,2
197853120,197847809,1114122,0.25432292,-0.018311642,0.33278677,2
197875172,197869765,1114122,0.25498074,-0.01720329,0.33206475,2
197896992,197891243,1114122,0.25485373,-0.017065555,0.3304214,2
197917210,197912008,1114122,0.25516784,-0.018447593,0.32992008,2
197938170,197932855,1114122,0.25560346,-0.018392842,0.3321259,2
197959521,197954437,1114122,0.25519502,-0.018214706,0.3319182,2
197980208,197974873,1114122,0.25445786,-0.017857842,0.33178395,2
198002040,197996269,1114122,0.25512338,-0.01836475,0.33223873,2
198022166,198017035,1114122,0.2551477,-0.018815976,0.33388385,2
198043226,198037855,1114122,0.25542164,-0.017246082,0.33327156,2
198064572,198059487,1114122,0.2564806,-0.01618115,0.3335958,2
198085216,198079853,1114122,0.2560733,-0.016760813,0.33339593,2
198107098,198101296,1114122,0.25563493,-0.017502505,0.33295727,2
198128228,198122906,1114122,0.25472987,-0.019195583,0.32912147,2
198149658,198144529,1114122,0.25586587,-0.018819846,0.331334,2
198170223,198164905,1114122,0.25538462,-0.017297935,0.33247155,2
198192127,198186336,1114122,0.25597274,-0.017848212,0.33248562,2
198212221,198207097,1114122,0.25596267,-0.016926223,0.332716,2
198233259,198227906,1114122,0.2555418,-0.018726025,0.33112842,2
198254745,198249585,1114122,0.25548258,-0.016898133,0.33282882,2
198275267,198269916,1114122,0.25541294,-0.01708468,0.3333498,2
198297302,198291372,1114122,0.25453132,-0.016270822,0.33380884,2
198318308,198312954,1114122,0.2558583,-0.018680919,0.33241254,2
198339740,198334609,1114122,0.25560176,-0.019095883,0.33069304,2
198360270,198354959,1114122,0.25410908,-0.01877998,0.33042836,2
198381327,198375970,1114122,0.2553922,-0.019647796,0.33269584,2
198402290,198397191,1114122,0.25515568,-0.019699378,0.33357304,2
198423274,198417964,1114122,0.25511116,-0.018876255,0.33260387,2
198444733,198439191,1114122,0.2552208,-0.017955136,0.333156,2
198465270,198459958,1114122,0.25415123,-0.018823583,0.33262956,2
198486313,198480957,1114122,0.2543281,-0.01840492,0.32974762,2
198508323,198502757,1114122,0.2547157,-0.01820207,0.3334313,2
198529784,198524238,1114122,0.2557704,-0.019266676,0.33285734,2
198550329,198545010,1114122,0.2558334,-0.020430118,0.3326702,2
198571363,198566011,1114122,0.25495136,-0.01960572,0.331449,2
198592329,198587247,1114122,0.2550741,-0.02187085,0.330034,2
198613319,198607770,1114122,0.25508446,-0.021329237,0.3336688,2
198634832,198629244,1114122,0.25609565,-0.020118278,0.33307078,2
198655323,198650015,1114122,0.25516915,-0.019947793,0.3330958,2
198676390,198671014,1114122,0.2555681,-0.019948373,0.33202142,2
198697436,198692307,1114122,0.25481802,-0.02156175,0.3309472,2
198718344,198713005,1114122,0.25417313,-0.021435868,0.3315767,2
198739906,198734277,1114122,0.25414044,-0.020831712,0.33181006,2
198760322,198755039,1114122,0.2541691,-0.021362193,0.33121586,2
198781320,198776009,1114122,0.25522554,-0.021723056,0.33211482,2
198802475,198797370,1114122,0.25530303,-0.02094645,0.33342797,2
198823320,198818009,1114122,0.25545585,-0.022295263,0.33204395,2
198844924,198839294,1114122,0.25460863,-0.020642264,0.33269483,2
198865353,198860077,1114122,0.25543714,-0.019004457,0.33312988,2
198886331,198881005,1114122,0.25512886,-0.019940002,0.33341515,2
198908370,198902866,1114122,0.25499573,-0.019691415,0.3335307,2
198929977,198924345,1114122,0.2552955,-0.020806085,0.33230633,2
198950418,198945108,1114122,0.254596,-0.019671138,0.33116454,2
198971369,198966058,1114122,0.25508082,-0.019053033,0.33380532,2
198992575,198987453,1114122,0.25550961,-0.019606587,0.33313712,2
199013395,199008058,1114122,0.256059,-0.01944112,0.33290327,2
199035031,199029375,1114122,0.25541332,-0.020772588,0.3323077,2
199055370,199050136,1114122,0.25456452,-0.01835551,0.33331072,2
199076389,199071063,1114122,0.25549233,-0.017814532,0.3329184,2
199097662,199092497,1114122,0.25559652,-0.0175291,0.333597,2
199118422,199113057,1114122,0.25486374,-0.017988972,0.33239117,2
199140073,199134409,1114122,0.2551694,-0.019214533,0.33168814,2
199160115,199155032,1114122,0.25547147,-0.01890064,0.33232927,2
199181464,199176080,1114122,0.2552813,-0.019806184,0.3301357,2
199202653,199197528,1114122,0.25557083,-0.018528238,0.33340693,2
199223381,199218054,1114122,0.25577062,-0.017798096,0.33244222,2
199245134,199239432,1114122,0.25573945,-0.017223384,0.3332759,2
199265142,199260070,1114122,0.2555328,-0.01708763,0.3312714,2
199285318,199280167,1114122,0.2553318,-0.017056443,0.33014813,2
199306325,199301007,1114122,0.25591594,-0.016799157,0.33299404,2
199327666,199322579,1114122,0.25535548,-0.016760424,0.33346564,2
199348324,199343005,1114122,0.25547034,-0.017408919,0.33323395,2
199370192,199364421,1114122,0.2559901,-0.01890565,0.33365685,2
199390407,199385190,1114122,0.25545743,-0.018640995,0.33116633,2
199411316,199406005,1114122,0.25491387,-0.018914532,0.3320814,2
199432725,199427628,1114122,0.25560609,-0.018442692,0.3338466,2
199453320,199448004,1114122,0.2553593,-0.018304098,0.33416164,2
199475250,199469457,1114122,0.25547585,-0.017511398,0.33423516,2
199495337,199490223,1114122,0.2557757,-0.018628884,0.33285087,2
199516324,199511005,1114122,0.25508672,-0.019158248,0.33008623,2
199538366,199532989,1114122,0.2550772,-0.01898424,0.3308844,2
199560294,199554526,1114122,0.2551126,-0.018902224,0.3334042,2
199580386,199575264,1114122,0.25557512,-0.018607523,0.3334478,2
199601406,199596054,1114122,0.25495413,-0.018923054,0.3340022,2
199623434,199618041,1114122,0.25518578,-0.020252313,0.33169904,2
199645433,199639540,1114122,0.25418413,-0.021638665,0.33141893,2
199665472,199660329,1114122,0.25529262,-0.018545361,0.33384314,2
199686425,199681102,1114122,0.25508112,-0.019057957,0.33352536,2
199708474,199703081,1114122,0.25483862,-0.020472135,0.3340165,2
199730354,199724581,1114122,0.25328314,-0.022675073,0.33093667,2
199750586,199745359,1114122,0.25449547,-0.022232743,0.33034945,2
199771486,199766162,1114122,0.2546112,-0.022159941,0.33031034,2
199793533,199788154,1114122,0.25505263,-0.022213979,0.33315742,2
199815417,199809631,1114122,0.25492492,-0.021328287,0.33322647,2
199835640,199830406,1114122,0.25514126,-0.02090481,0.33302522,2
199856533,199851212,1114122,0.25512156,-0.019803155,0.3320935,2
199878569,199873186,1114122,0.2546156,-0.020035349,0.33320874,2
199900462,199894672,1114122,0.25487047,-0.018850626,0.3333202,2
199920691,199915446,1114122,0.25555792,-0.020497765,0.33250695,2
199941606,199936268,1114122,0.25412157,-0.020485781,0.33328632,2
199962985,199957884,1114122,0.2539134,-0.022531476,0.33198428,2
199983611,199978255,1114122,0.25397244,-0.022148458,0.33126116,2
200005507,199999705,1114122,0.25501204,-0.020728495,0.33358157,2
200025567,200020470,1114122,0.25469184,-0.021441597,0.33286428,2
200046605,200041268,1114122,0.25548917,-0.019965101,0.33310053,2
200068078,200062959,1114122,0.25491506,-0.0204098,0.3332569,2
200088566,200083256,1114122,0.2540655,-0.0194486,0.3308347,2
200109629,200104264,1114122,0.25500244,-0.019813515,0.333412,2
200130607,200125487,1114122,0.25482535,-0.019489788,0.33312613,2
200151643,200146271,1114122,0.255325,-0.021352049,0.33311248,2
200173120,200167509,1114122,0.25513023,-0.020702008,0.333183,2
200193573,200188283,1114122,0.25488877,-0.021396264,0.33150655,2
200214638,200209268,1114122,0.25444448,-0.020556422,0.3325316,2
200235631,200230529,1114122,0.25442594,-0.019478649,0.33252025,2
200256574,200251256,1114122,0.25491935,-0.019015599,0.3331626,2
200278164,200272533,1114122,0.2557029,-0.020228539,0.33238626,2
200298183,200293071,1114122,0.25497156,-0.019980464,0.33289325,2
200318543,200313287,1114122,0.25388163,-0.020471346,0.33108258,2
200339533,200334212,1114122,0.25480473,-0.021316158,0.3312645,2
200360669,200355585,1114122,0.25515866,-0.019752707,0.33281356,2
200381541,200376211,1114122,0.25450024,-0.020113762,0.33292788,2
200403244,200397516,1114122,0.2551661,-0.021364445,0.33419037,2
200423529,200418293,1114122,0.25520766,-0.019921169,0.332456,2
200444538,200439220,1114122,0.2546383,-0.01971823,0.3331658,2
200465725,200460652,1114122,0.2547835,-0.018717201,0.33383763,2
200486537,200481215,1114122,0.25477535,-0.017831698,0.33426845,2
200508266,200502549,1114122,0.2554666,-0.019549705,0.33397597,2
200528530,200523317,1114122,0.25556904,-0.019967342,0.33322173,2
200549534,200544213,1114122,0.25454155,-0.021611853,0.3317838,2
200570760,200565692,1114122,0.25465858,-0.020826869,0.33141738,2
200591549,200586222,1114122,0.255145,-0.020237524,0.33241835,2
200613286,200607565,1114122,0.25544286,-0.020583916,0.3340663,2
200633619,200628357,1114122,0.25524426,-0.022070415,0.33283868,2
200654540,200649212,1114122,0.25464305,-0.020540565,0.33177426,2
200675821,200670751,1114122,0.25524774,-0.0191894,0.3333691,2
200696557,200691222,1114122,0.25498736,-0.018800301,0.33428144,2
200718352,200712596,1114122,0.25514817,-0.019559007,0.3324514,2
200738588,200733364,1114122,0.2549364,-0.021540184,0.3325488,2
200759529,200754212,1114122,0.25520742,-0.02139045,0.33283114,2
200780867,200775778,1114122,0.25498188,-0.020905234,0.33022273,2
200801585,200796219,1114122,0.25406814,-0.020969097,0.33057034,2
200823414,200817625,1114122,0.25379583,-0.02035824,0.33044016,2
200843529,200838392,1114122,0.25513,-0.0206971,0.33346295,2
200864523,200859207,1114122,0.2554761,-0.019723715,0.33317786,2
200885943,200880828,1114122,0.25417507,-0.018526796,0.3314268,2
200906633,200901222,1114122,0.255244,-0.019119233,0.3328083,2
200928516,200922650,1114122,0.25448537,-0.020576842,0.33377248,2
200949629,200944271,1114122,0.25558427,-0.020248726,0.33314484,2
200971021,200965872,1114122,0.25512755,-0.020652201,0.33374247,2
200991614,200986270,1114122,0.2557345,-0.022285879,0.33344793,2
201013486,201007687,1114122,0.2543736,-0.022193275,0.3322274,2
201033552,201028391,1114122,0.25438613,-0.021687396,0.33154234,2
201064016,201053616,1114122,0.25428858,-0.022342876,0.33405456,2
201085057,201079716,1114122,0.25503558,-0.022636354,0.3340416,2
201106074,201100954,1114122,0.2558971,-0.021606922,0.33400333,2
201127032,201121715,1114122,0.25469765,-0.02375705,0.33048803,2
201148575,201142982,1114122,0.2551424,-0.022397228,0.33208054,2
201168599,201163512,1114122,0.25529212,-0.022216413,0.33148074,2
201190067,201184712,1114122,0.25516468,-0.022073098,0.33243752,2
201211070,201206000,1114122,0.25505754,-0.022303779,0.33259836,2
201232029,201226719,1114122,0.2560405,-0.022044946,0.33220977,2
201253611,201247999,1114122,0.25413167,-0.020668864,0.32968807,2
201274020,201268752,1114122,0.25506657,-0.020261982,0.33305752,2
201295020,201289713,1114122,0.25543743,-0.021220304,0.33415276,2
201316143,201311039,1114122,0.2551602,-0.02125497,0.33358914,2
201337071,201331712,1114122,0.25576308,-0.022078235,0.33400625,2
201358670,201353031,1114122,0.2543679,-0.022084476,0.329306,2
201379052,201373790,1114122,0.25519037,-0.023282796,0.33177033,2
201400050,201394729,1114122,0.25423247,-0.022532674,0.33290893,2
201421168,201416082,1114122,0.25507528,-0.021895457,0.33319446,2
201442024,201436706,1114122,0.25485477,-0.022242442,0.33319488,2
201463705,201458047,1114122,0.25472784,-0.021370072,0.33250403,2
201484013,201478795,1114122,0.25390464,-0.021631923,0.33093482,2
201505057,201499712,1114122,0.25479543,-0.021883102,0.33303034,2
201526209,201521130,1114122,0.2553326,-0.022229135,0.3331616,2
201547023,201541721,1114122,0.255281,-0.022011513,0.33175853,2
201568812,201563098,1114122,0.25540614,-0.022114161,0.33312148,2
201590160,201584756,1114122,0.25475717,-0.022646409,0.33031744,2
201611270,201606183,1114122,0.25435206,-0.022530746,0.33111054,2
201632080,201626770,1114122,0.25548473,-0.02282929,0.33352998,2
201653826,201648095,1114122,0.25472498,-0.021318864,0.3331435,2
201674070,201668872,1114122,0.25479808,-0.02193081,0.33259082,2
201695070,201689770,1114122,0.2551918,-0.022572713,0.331323,2
201716310,201711225,1114122,0.25509262,-0.023684643,0.32901287,2
201737069,201731752,1114122,0.25545454,-0.02300461,0.33025113,2
201758896,201753115,1114122,0.25534093,-0.023118135,0.3325308,2
201779086,201773927,1114122,0.25594634,-0.020306807,0.3332306,2
201800079,201794757,1114122,0.25615558,-0.021223474,0.33164293,2
201821406,201816294,1114122,0.25525826,-0.021588335,0.32851362,2
201841440,201836313,1114122,0.25502175,-0.020906724,0.33254346,2
201862023,201856717,1114122,0.2548503,-0.019949384,0.33201113,2
201883920,201878126,1114122,0.2553891,-0.021063074,0.3338704,2
201904053,201898885,1114122,0.2556113,-0.021484394,0.33327794,2
201925017,201919715,1114122,0.25533533,-0.023751734,0.33277726,2
201946426,201941339,1114122,0.25387558,-0.022567172,0.32982397,2
201967045,201961731,1114122,0.25494224,-0.022383597,0.3322375,2
201988953,201983157,1114122,0.25494218,-0.02312036,0.3334452,2
202009017,202003919,1114122,0.25525206,-0.022952456,0.33488798,2
202030024,202024710,1114122,0.25492465,-0.022796867,0.33364162,2
202051485,202046396,1114122,0.25442857,-0.022471927,0.3324311,2
202072069,202066719,1114122,0.2551154,-0.02116439,0.33406755,2
202093057,202087716,1114122,0.25549802,-0.021600697,0.33311749,2
202114030,202108928,1114122,0.25459522,-0.021868069,0.33326733,2
202135041,202129726,1114122,0.25453776,-0.021543812,0.33338317,2
202156559,202150980,1114122,0.25438166,-0.02307738,0.3318766,2
202177016,202171717,1114122,0.2542373,-0.021883639,0.33126223,2
202198058,202192714,1114122,0.25499117,-0.022552798,0.3341201,2
202219075,202213966,1114122,0.2555708,-0.0229466,0.33393246,2
202240066,202234712,1114122,0.25475153,-0.021808635,0.3325889,2
202261623,202256004,1114122,0.25531223,-0.019642781,0.33273464,2
202281633,202276541,1114122,0.2541137,-0.020337675,0.33032447,2
202301651,202296554,1114122,0.25473642,-0.020056568,0.33237064,2
202323020,202317660,1114122,0.25538307,-0.020951483,0.33338916,2
202344123,202339023,1114122,0.25589103,-0.02075718,0.3323944,2
202364969,202359661,1114122,0.25595132,-0.020398723,0.3325516,2
202386669,202380975,1114122,0.25509578,-0.020800179,0.33202344,2
202407013,202401748,1114122,0.2542681,-0.020979937,0.33057332,2
202427974,202422669,1114122,0.25566787,-0.022527844,0.33308947,2
202449176,202444076,1114122,0.2553813,-0.020918502,0.3329888,2
202469970,202464662,1114122,0.25532806,-0.020672144,0.3332255,2
202491741,202486005,1114122,0.25479168,-0.021077596,0.333462,2
202511984,202506781,1114122,0.2545408,-0.020861082,0.33137602,2
202532976,202527667,1114122,0.25499114,-0.022549953,0.3319999,2
202554233,202549149,1114122,0.25504166,-0.022011183,0.33331516,2
202574970,202569532,1114122,0.25533593,-0.021554828,0.33295467,2
202596735,202591042,1114122,0.25509268,-0.022216845,0.33311802,2
202616986,202611792,1114122,0.25583518,-0.021198435,0.3320781,2
202637969,202632658,1114122,0.25552344,-0.021331254,0.33035487,2
202659299,202654206,1114122,0.25572032,-0.019816007,0.3332223,2
202679970,202674587,1114122,0.25651908,-0.020573603,0.33344156,2
202701779,202696048,1114122,0.25562394,-0.020245984,0.33342534,2
202722011,202716810,1114122,0.25584036,-0.020557826,0.33223158,2
202742970,202737660,1114122,0.25513577,-0.02153552,0.32887137,2
202764324,202759229,1114122,0.2554952,-0.022282679,0.33060429,2
202785002,202779679,1114122,0.25468993,-0.022143237,0.33151138,2
202806835,202801073,1114122,0.25569326,-0.022259835,0.33252704,2
202827010,202821836,1114122,0.25463438,-0.02185408,0.33190766,2
202847972,202842656,1114122,0.25554007,-0.020904686,0.33199084,2
202869425,202864299,1114122,0.2553598,-0.021991976,0.3308394,2
202890020,202884662,1114122,0.25590992,-0.019633852,0.3328231,2
202911893,202906105,1114122,0.25606397,-0.021005826,0.33239943,2
202931976,202926850,1114122,0.25634807,-0.02109748,0.33260444,2
202953009,202947662,1114122,0.2558332,-0.02042663,0.3328702,2
202974513,202969346,1114122,0.25496835,-0.019917965,0.32961234,2
202994966,202989675,1114122,0.25568032,-0.020549161,0.33222923,2
203016000,203010662,1114122,0.25635314,-0.020454064,0.33291793,2
203036965,203031869,1114122,0.25565365,-0.020056572,0.3329438,2
203058020,203052661,1114122,0.25599986,-0.019085985,0.33249873,2
203079530,203073918,1114122,0.25517485,-0.01637002,0.33241898,2
203102032,203096176,1114122,0.25642842,-0.017423678,0.33080766,2
203132572,203122113,1114122,0.2558435,-0.0186526,0.3324654,2
203153566,203148217,1114122,0.25656855,-0.019277006,0.33246887,2
203174593,203169456,1114122,0.25657272,-0.018618867,0.33362222,2
203195533,203190214,1114122,0.2557522,-0.018929822,0.33153352,2
203217034,203211461,1114122,0.25564352,-0.01913103,0.33109403,2
203237046,203231978,1114122,0.25599936,-0.020548958,0.33323383,2
203257523,203252197,1114122,0.25532013,-0.019789442,0.33349633,2
203278474,203273161,1114122,0.25532585,-0.020632152,0.33322504,2
203299608,203294504,1114122,0.25445932,-0.022303592,0.33302984,2
203320521,203315169,1114122,0.2543286,-0.024305187,0.32992834,2
203342090,203336469,1114122,0.25483087,-0.024744507,0.33146018,2
203362477,203357230,1114122,0.25508264,-0.024241114,0.33365873,2
203383475,203378178,1114122,0.25463247,-0.024028534,0.33301008,2
203404723,203399558,1114122,0.25469804,-0.02302947,0.33332074,2
203425529,203420158,1114122,0.2544195,-0.023040254,0.33183676,2
203447136,203441487,1114122,0.25439918,-0.023403002,0.33384034,2
203467163,203462089,1114122,0.25412035,-0.022672854,0.33366883,2
203488509,203483160,1114122,0.25477386,-0.022957308,0.33312106,2
203509697,203504594,1114122,0.25426874,-0.023203537,0.33343637,2
203530477,203525176,1114122,0.25476545,-0.024275016,0.3330145,2
203552187,203546516,1114122,0.25367993,-0.024111278,0.33215722,2
203572480,203567273,1114122,0.25416672,-0.024998888,0.33081326,2
203593479,203588161,1114122,0.25543752,-0.022692379,0.33208779,2
203614728,203609629,1114122,0.25460768,-0.021360772,0.33266225,2
203635492,203630158,1114122,0.2551375,-0.020834625,0.3324644,2
203657252,203651541,1114122,0.25455755,-0.021170534,0.3319795,2
203677480,203672296,1114122,0.2537216,-0.021197304,0.3301277,2
203698492,203693167,1114122,0.25517118,-0.020721003,0.3322237,2
203719775,203714677,1114122,0.25514418,-0.022430222,0.3324809,2
203740474,203735161,1114122,0.25504082,-0.023467114,0.33217007,2
203762328,203756550,1114122,0.25546956,-0.022549296,0.33352688,2
203782585,203777323,1114122,0.25429016,-0.023595031,0.32936043,2
203803510,203798162,1114122,0.25451636,-0.021881225,0.3299861,2
203825575,203820096,1114122,0.25392482,-0.022003837,0.3302589,2
203847404,203841617,1114122,0.25536215,-0.020564834,0.33262485,2
203867566,203862392,1114122,0.25508317,-0.021304656,0.33278847,2
203888533,203883230,1114122,0.25413376,-0.01997428,0.3329212,2
203910566,203905158,1114122,0.2554437,-0.022806747,0.33240908,2
203932379,203926643,1114122,0.25403917,-0.022645345,0.3327073,2
203952622,203947418,1114122,0.25472423,-0.023513649,0.33308607,2
203973570,203968257,1114122,0.2548068,-0.022829661,0.33368027,2
203995616,203990202,1114122,0.2551942,-0.022619046,0.3332436,2
204017422,204011689,1114122,0.25435388,-0.023299761,0.33047843,2
204037647,204032470,1114122,0.25412816,-0.022077836,0.33122262,2
204058623,204053307,1114122,0.2554804,-0.0212765,0.33335394,2
204079991,204074910,1114122,0.25504154,-0.02053699,0.33322,2
204100620,204095305,1114122,0.25433037,-0.0206594,0.33313107,2
204122479,204116722,1114122,0.2544142,-0.02220596,0.33162808,2
204142718,204137490,1114122,0.2547273,-0.022096995,0.3319915,2
204163623,204158308,1114122,0.2547828,-0.023122199,0.3328429,2
204185040,204179917,1114122,0.2552759,-0.021917503,0.3325575,2
204205658,204200304,1114122,0.2550599,-0.020873807,0.33226365,2
204227519,204221740,1114122,0.25553656,-0.022310812,0.33140522,2
204247620,204242502,1114122,0.2554716,-0.022584353,0.3315271,2
204268626,204263311,1114122,0.25536895,-0.019954398,0.3333387,2
204290078,204284972,1114122,0.25472143,-0.020516846,0.33337525,2
204310619,204305305,1114122,0.25538915,-0.021064464,0.33379045,2
204331660,204326309,1114122,0.2557888,-0.022551168,0.33213136,2
204352623,204347520,1114122,0.25428224,-0.021977007,0.33062378,2
204373665,204368312,1114122,0.25399563,-0.023312539,0.33091342,2
204395135,204389546,1114122,0.2555798,-0.022374043,0.33248657,2
204415619,204410309,1114122,0.2548253,-0.020961158,0.3333813,2
204436696,204431324,1114122,0.2549906,-0.022540838,0.33251986,2
204457652,204452561,1114122,0.2547146,-0.021126583,0.33270133,2
204478620,204473304,1114122,0.25387537,-0.021090895,0.32984877,2
204500218,204494567,1114122,0.25398988,-0.021734525,0.3321772,2
204520624,204515327,1114122,0.2548699,-0.02178427,0.3320703,2
204541704,204536308,1114122,0.25468808,-0.022110283,0.33339116,2
204562680,204557601,1114122,0.25517893,-0.022336248,0.3334005,2
204583618,204578306,1114122,0.25462547,-0.023161959,0.33236098,2
204605210,204599576,1114122,0.2552178,-0.023052689,0.3313283,2
204625616,204620351,1114122,0.2550295,-0.021785904,0.33247265,2
204646619,204641316,1114122,0.254631,-0.021793038,0.33310705,2
204667741,204662670,1114122,0.25457013,-0.020668186,0.33337462,2
204688658,204683303,1114122,0.2558291,-0.021088285,0.333797,2
204710322,204704613,1114122,0.2535745,-0.02142654,0.33024794,2
204730623,204725371,1114122,0.2540819,-0.022695204,0.32998824,2
204751619,204746306,1114122,0.25445276,-0.022916092,0.32991582,2
204772795,204767719,1114122,0.253954,-0.022544175,0.33138496,2
204793620,204788306,1114122,0.25508848,-0.02213825,0.33303714,2
204815313,204809645,1114122,0.254573,-0.022926778,0.32967764,2
204835671,204830399,1114122,0.25534177,-0.023132876,0.3316909,2
204856620,204851308,1114122,0.25548002,-0.022005528,0.33272135,2
204877851,204872772,1114122,0.2540251,-0.021648977,0.33261687,2
204898631,204893309,1114122,0.25463772,-0.020443048,0.3327732,2
204920362,204914651,1114122,0.2542648,-0.022392396,0.3319079,2
204940663,204935418,1114122,0.25385666,-0.022219859,0.33138025,2
204961623,204956303,1114122,0.25535196,-0.021113524,0.3331504,2
204982906,204977799,1114122,0.2549249,-0.022064308,0.33219397,2
205003653,204998319,1114122,0.25565034,-0.022205066,0.33324587,2
205025427,205019680,1114122,0.25508755,-0.022858145,0.33292454,2
205045622,205040450,1114122,0.2541067,-0.022419523,0.33214593,2
205066622,205061305,1114122,0.25476253,-0.021275412,0.3334636,2
205087956,205082847,1114122,0.2549988,-0.021219637,0.3328264,2
205108699,205103301,1114122,0.25455123,-0.021792214,0.3329059,2
205130490,205124702,1114122,0.25558823,-0.022531223,0.33264834,2
205150616,205145457,1114122,0.25444502,-0.02277649,0.33331454,2
205171656,205166325,1114122,0.25528538,-0.022090083,0.3295592,2
205193022,205187891,1114122,0.25474644,-0.021714643,0.3333879,2
205213623,205208316,1114122,0.25519103,-0.022559376,0.33208287,2
205235548,205229746,1114122,0.25477713,-0.02228091,0.33303416,2
205256708,205251355,1114122,0.2555381,-0.023078453,0.33313328,2
205278023,205272932,1114122,0.2548833,-0.02055848,0.33149785,2
205298673,205293366,1114122,0.25448972,-0.020654712,0.33161318,2
205320574,205314806,1114122,0.25450286,-0.02236959,0.33167106,2
205341757,205336405,1114122,0.25501242,-0.021470826,0.33218914,2
205363064,205357978,1114122,0.2550211,-0.022367593,0.33339858,2
205383721,205378405,1114122,0.25412488,-0.021283574,0.33329457,2
205405613,205399847,1114122,0.2535077,-0.022401022,0.32905692,2
205425720,205420595,1114122,0.2549718,-0.02219278,0.33183593,2
205446717,205441409,1114122,0.2542339,-0.021822596,0.3324616,2
205468128,205463032,1114122,0.2546103,-0.020673158,0.33321524,2
205488713,205483405,1114122,0.2545384,-0.020081542,0.33260807,2
205510717,205504854,1114122,0.25371924,-0.02115452,0.33028725,2
205530727,205525630,1114122,0.25464442,-0.021300439,0.32938194,2
205551721,205546404,1114122,0.2546245,-0.021671642,0.33318573,2
205573774,205568390,1114122,0.25461268,-0.022190142,0.33315086,2
205595708,205589901,1114122,0.2552204,-0.023103222,0.33300894,2
205615771,205610660,1114122,0.2551883,-0.023244906,0.33164987,2
205636786,205631456,1114122,0.254503,-0.02310843,0.33047858,2
205658255,205653112,1114122,0.25430602,-0.020944927,0.33269364,2
205678766,205673455,1114122,0.25501955,-0.020866014,0.332583,2
205699807,205694466,1114122,0.25415114,-0.020294968,0.33288473,2
205720802,205715707,1114122,0.2539399,-0.022285242,0.33246216,2
205741770,205736458,1114122,0.2550764,-0.022650411,0.3310821,2
205763243,205757681,1114122,0.25424576,-0.022038687,0.3292638,2
205783773,205778455,1114122,0.2541179,-0.022625824,0.33178818,2
205804814,205799456,1114122,0.25544852,-0.02215984,0.33292252,2
205825850,205820729,1114122,0.25537878,-0.022344986,0.33352345,2
205846769,205841454,1114122,0.2557743,-0.021547072,0.33248085,2
205868302,205862705,1114122,0.253708,-0.021682136,0.32973242,2
205888797,205883485,1114122,0.25347418,-0.020310737,0.329875,2
205909767,205904455,1114122,0.2547723,-0.02219251,0.3335132,2
205930903,205925769,1114122,0.25475842,-0.022672404,0.33339795,2
205951773,205946463,1114122,0.25542393,-0.023179326,0.3338527,2
205973366,205967755,1114122,0.25402403,-0.023098575,0.32955155,2
205993400,205988313,1114122,0.25460964,-0.02287006,0.33303782,2
206013757,206008495,1114122,0.25483704,-0.022650767,0.33259875,2
206034720,206029437,1114122,0.25493115,-0.02217871,0.33251527,2
206055911,206050812,1114122,0.25458786,-0.020260546,0.3339307,2
206076781,206071407,1114122,0.25468498,-0.021315996,0.33318293,2
206098460,206092777,1114122,0.25452948,-0.02212333,0.3298688,2
206119780,206114458,1114122,0.2553733,-0.02077042,0.3323071,2
206140957,206135858,1114122,0.2556099,-0.021457724,0.33251756,2
206161767,206156456,1114122,0.25440812,-0.02209511,0.33338696,2
206183471,206177806,1114122,0.2552079,-0.02213563,0.33355886,2
206203495,206198419,1114122,0.25461948,-0.022312915,0.33071208,2
206224820,206219458,1114122,0.25561133,-0.021485081,0.33323795,2
206246009,206240904,1114122,0.25498503,-0.021701636,0.33259112,2
206266776,206261460,1114122,0.25515726,-0.02046349,0.3332209,2
206288517,206282832,1114122,0.25469667,-0.020796092,0.33329773,2
206308771,206303592,1114122,0.25521612,-0.021549735,0.33287293,2
206329780,206324454,1114122,0.25357187,-0.022114139,0.32969496,2
206351054,206345951,1114122,0.2547992,-0.022686463,0.3304385,2
206371770,206366455,1114122,0.2553742,-0.021523314,0.33259487,2
206393570,206387841,1114122,0.25507724,-0.022667266,0.33240238,2
206413763,206408610,1114122,0.25495172,-0.022559734,0.33359957,2
206434763,206429458,1114122,0.2551002,-0.023089688,0.33112696,2
206456123,206451015,1114122,0.25555992,-0.021271717,0.33387506,2
206476769,206471453,1114122,0.25485277,-0.020731755,0.33289927,2
206498771,206492901,1114122,0.25445473,-0.020746596,0.33309376,2
206518826,206513667,1114122,0.25515702,-0.022668092,0.3326035,2
