timestamp,data_rate,rate_multiplier,tx_rate_avg,tx_error_rate_avg,tx_message_count,tx_buffer_overruns,rx_rate_avg,rx_message_count,rx_message_lost_count,rx_buffer_overruns,rx_parse_errors,rx_packet_drop_count,rx_message_lost_rate,type,mode,flow_control,forwarding,mavlink_v2,ftp,streams,heartbeat_type_antenna_tracker,heartbeat_type_gcs,heartbeat_type_onboard_controller,heartbeat_type_gimbal,heartbeat_type_adsb,heartbeat_type_camera,heartbeat_component_telemetry_radio,heartbeat_component_log,heartbeat_component_osd,heartbeat_component_obstacle_avoidance,heartbeat_component_vio,heartbeat_component_pairing_manager,heartbeat_component_udp_bridge,heartbeat_component_uart_bridge,avoidance_system_healthy
186497710,2880.0,0.076525696,2744.5354,0.0,3539,0,0.0,9,0,0,0,0,0.0,0,1,0,1,1,1,11,0,0,0,0,0,0,0,0,0,0,0,0,0,0,0
187245535,2880.0,0.076525696,2688.1345,0.0,3575,0,42.98616,9,0,0,0,0,0.0,0,1,0,1,1,1,11,0,0,0,0,0,0,0,0,0,0,0,0,0,0,0
188007626,2880.0,0.076525696,2791.1545,0.0,3616,0,0.0,9,0,0,0,0,0.0,0,1,0,1,1,1,11,0,0,0,0,0,0,0,0,0,0,0,0,0,0,0
188758630,2880.0,0.076525696,2791.1545,0.0,3658,0,0.0,9,0,0,0,0,0.0,0,1,0,1,1,1,11,0,0,0,0,0,0,0,0,0,0,0,0,0,0,0
189508630,2880.0,0.076525696,2790.508,0.0,3697,0,0.0,9,0,0,0,0,0.0,0,1,0,1,1,1,11,0,0,0,0,0,0,0,0,0,0,0,0,0,0,0
190263961,2880.0,0.076525696,2721.4285,0.0,3739,0,0.0,9,0,0,0,0,0.0,0,1,0,1,1,1,11,0,0,0,0,0,0,0,0,0,0,0,0,0,0,0
191769681,2880.0,0.076525696,2793.3853,0.0,3820,0,0.0,9,0,0,0,0,0.0,0,1,0,1,1,1,11,0,0,0,0,0,0,0,0,0,0,0,0,0,0,0
192519795,2880.0,0.076525696,2773.3247,0.0,3859,0,0.0,9,0,0,0,0,0.0,0,1,0,1,1,1,11,0,0,0,0,0,0,0,0,0,0,0,0,0,0,0
193280645,2880.0,0.076525696,2719.3677,0.0,3901,0,0.0,9,0,0,0,0,0.0,0,1,0,1,1,1,11,0,0,0,0,0,0,0,0,0,0,0,0,0,0,0
194796086,2880.0,0.076525696,2772.986,0.0,3980,0,0.0,9,0,0,0,0,0.0,0,1,0,1,1,1,11,0,0,0,0,0,0,0,0,0,0,0,0,0,0,0
195546692,2880.0,0.076525696,2814.8655,0.0,4019,0,0.0,9,0,0,0,0,0.0,0,1,0,1,1,1,11,0,0,0,0,0,0,0,0,0,0,0,0,0,0,0
196301909,2880.0,0.076525696,2698.941,0.0,4060,0,0.0,9,0,0,0,0,0.0,0,1,0,1,1,1,11,0,0,0,0,0,0,0,0,0,0,0,0,0,0,0
197812861,2880.0,0.076525696,2773.1062,0.0,4141,0,0.0,9,0,0,0,0,0.0,0,1,0,1,1,1,11,0,0,0,0,0,0,0,0,0,0,0,0,0,0,0
198562896,2880.0,0.076525696,2690.615,0.0,4182,0,0.0,9,0,0,0,0,0.0,0,1,0,1,1,1,11,0,0,0,0,0,0,0,0,0,0,0,0,0,0,0
199313833,2880.0,0.076525696,2815.3892,0.0,4222,0,0.0,9,0,0,0,0,0.0,0,1,0,1,1,1,11,0,0,0,0,0,0,0,0,0,0,0,0,0,0,0
200819823,2880.0,0.076525696,2719.5906,0.0,4301,0,0.0,9,0,0,0,0,0.0,0,1,0,1,1,1,11,0,0,0,0,0,0,0,0,0,0,0,0,0,0,0
201569695,2880.0,0.076525696,2793.352,0.0,4342,0,0.0,9,0,0,0,0,0.0,0,1,0,1,1,1,11,0,0,0,0,0,0,0,0,0,0,0,0,0,0,0
202324768,2880.0,0.076525696,2779.2205,0.0,4383,0,0.0,9,0,0,0,0,0.0,0,1,0,1,1,1,11,0,0,0,0,0,0,0,0,0,0,0,0,0,0,0
203825966,2880.0,0.076525696,2720.8982,0.0,4462,0,0.0,9,0,0,0,0,0.0,0,1,0,1,1,1,11,0,0,0,0,0,0,0,0,0,0,0,0,0,0,0
204581086,2880.0,0.076525696,2765.327,0.0,4503,0,0.0,9,0,0,0,0,0.0,0,1,0,1,1,1,11,0,0,0,0,0,0,0,0,0,0,0,0,0,0,0
205341082,2880.0,0.076525696,2802.0208,0.0,4544,0,0.0,9,0,0,0,0,0.0,0,1,0,1,1,1,11,0,0,0,0,0,0,0,0,0,0,0,0,0,0,0
206846626,2880.0,0.076525696,2696.3145,0.0,4622,0,0.0,9,0,0,0,0,0.0,0,1,0,1,1,1,11,0,0,0,0,0,0,0,0,0,0,0,0,0,0,0
207602801,2880.0,0.076525696,2795.4324,0.0,4664,0,0.0,9,0,0,0,0,0.0,0,1,0,1,1,1,11,0,0,0,0,0,0,0,0,0,0,0,0,0,0,0
208357839,2880.0,0.076525696,2813.7463,0.0,4706,0,0.0,9,0,0,0,0,0.0,0,1,0,1,1,1,11,0,0,0,0,0,0,0,0,0,0,0,0,0,0,0
209112764,2880.0,0.076525696,2700.7568,0.0,4744,0,0.0,9,0,0,0,0,0.0,0,1,0,1,1,1,11,0,0,0,0,0,0,0,0,0,0,0,0,0,0,0
210618810,2880.0,0.076525696,2763.7969,0.0,4825,0,0.0,9,0,0,0,0,0.0,0,1,0,1,1,1,11,0,0,0,0,0,0,0,0,0,0,0,0,0,0,0
211373932,2880.0,0.076525696,2800.6465,0.0,4868,0,0.0,9,0,0,0,0,0.0,0,1,0,1,1,1,11,0,0,0,0,0,0,0,0,0,0,0,0,0,0,0
212124690,2880.0,0.076525696,2698.2395,0.0,4906,0,0.0,9,0,0,0,0,0.0,0,1,0,1,1,1,11,0,0,0,0,0,0,0,0,0,0,0,0,0,0,0
213639842,2880.0,0.076525696,2816.3127,0.0,4986,0,0.0,9,0,0,0,0,0.0,0,1,0,1,1,1,11,0,0,0,0,0,0,0,0,0,0,0,0,0,0,0
214390715,2880.0,0.076525696,2813.9768,0.0,5028,0,0.0,9,0,0,0,0,0.0,0,1,0,1,1,1,11,0,0,0,0,0,0,0,0,0,0,0,0,0,0,0
215145951,2880.0,0.076525696,2664.6953,0.0,5066,0,0.0,9,0,0,0,0,0.0,0,1,0,1,1,1,11,0,0,0,0,0,0,0,0,0,0,0,0,0,0,0
216656675,2880.0,0.076525696,2785.7324,0.0,5150,0,0.0,9,0,0,0,0,0.0,0,1,0,1,1,1,11,0,0,0,0,0,0,0,0,0,0,0,0,0,0,0
217406493,2880.0,0.076525696,2815.2988,0.0,5189,0,0.0,9,0,0,0,0,0.0,0,1,0,1,1,1,11,0,0,0,0,0,0,0,0,0,0,0,0,0,0,0
218167092,2880.0,0.076525696,2687.447,0.0,5230,0,0.0,9,0,0,0,0,0.0,0,1,0,1,1,1,11,0,0,0,0,0,0,0,0,0,0,0,0,0,0,0
219671674,2880.0,0.076525696,2780.9104,0.0,5311,0,0.0,9,0,0,0,0,0.0,0,1,0,1,1,1,11,0,0,0,0,0,0,0,0,0,0,0,0,0,0,0
220421933,2880.0,0.076525696,2815.4958,0.0,5351,0,0.0,9,0,0,0,0,0.0,0,1,0,1,1,1,11,0,0,0,0,0,0,0,0,0,0,0,0,0,0,0
221177438,2880.0,0.076525696,2719.4055,0.0,5390,0,0.0,9,0,0,0,0,0.0,0,1,0,1,1,1,11,0,0,0,0,0,0,0,0,0,0,0,0,0,0,0
222688526,2880.0,0.076525696,2753.5984,0.0,5471,0,0.0,9,0,0,0,0,0.0,0,1,0,1,1,1,11,0,0,0,0,0,0,0,0,0,0,0,0,0,0,0
223443484,2880.0,0.076525696,2790.2097,0.0,5512,0,0.0,9,0,0,0,0,0.0,0,1,0,1,1,1,11,0,0,0,0,0,0,0,0,0,0,0,0,0,0,0
224203489,2880.0,0.076525696,2721.7878,0.0,5552,0,0.0,9,0,0,0,0,0.0,0,1,0,1,1,1,11,0,0,0,0,0,0,0,0,0,0,0,0,0,0,0
225709591,2880.0,0.076525696,2772.4438,0.0,5634,0,0.0,9,0,0,0,0,0.0,0,1,0,1,1,1,11,0,0,0,0,0,0,0,0,0,0,0,0,0,0,0
226469778,2880.0,0.076525696,2815.8845,0.0,5675,0,0.0,9,0,0,0,0,0.0,0,1,0,1,1,1,11,0,0,0,0,0,0,0,0,0,0,0,0,0,0,0
227220441,2880.0,0.076525696,2740.3718,0.0,5714,0,0.0,9,0,0,0,0,0.0,0,1,0,1,1,1,11,0,0,0,0,0,0,0,0,0,0,0,0,0,0,0
228730663,2880.0,0.076525696,2722.763,0.0,5794,0,0.0,9,0,0,0,0,0.0,0,1,0,1,1,1,11,0,0,0,0,0,0,0,0,0,0,0,0,0,0,0
229487791,2880.0,0.076525696,2813.4312,0.0,5834,0,0.0,9,0,0,0,0,0.0,0,1,0,1,1,1,11,0,0,0,0,0,0,0,0,0,0,0,0,0,0,0
230233483,2880.0,0.076525696,2738.1343,0.0,5875,0,0.0,9,0,0,0,0,0.0,0,1,0,1,1,1,11,0,0,0,0,0,0,0,0,0,0,0,0,0,0,0
231743731,2880.0,0.076525696,2773.8433,0.0,5955,0,0.0,9,0,0,0,0,0.0,0,1,0,1,1,1,11,0,0,0,0,0,0,0,0,0,0,0,0,0,0,0
232494791,2880.0,0.076525696,2792.0508,0.0,5997,0,0.0,9,0,0,0,0,0.0,0,1,0,1,1,1,11,0,0,0,0,0,0,0,0,0,0,0,0,0,0,0
233249856,2880.0,0.076525696,2719.8674,0.0,6038,0,0.0,9,0,0,0,0,0.0,0,1,0,1,1,1,11,0,0,0,0,0,0,0,0,0,0,0,0,0,0,0
234750636,2880.0,0.076525696,2764.8462,0.0,6115,0,0.0,9,0,0,0,0,0.0,0,1,0,1,1,1,11,0,0,0,0,0,0,0,0,0,0,0,0,0,0,0
235506411,2880.0,0.076525696,2815.2173,0.0,6157,0,0.0,9,0,0,0,0,0.0,0,1,0,1,1,1,11,0,0,0,0,0,0,0,0,0,0,0,0,0,0,0
236261786,2880.0,0.076525696,2697.007,0.0,6200,0,0.0,9,0,0,0,0,0.0,0,1,0,1,1,1,11,0,0,0,0,0,0,0,0,0,0,0,0,0,0,0
237776912,2880.0,0.076525696,2795.7874,0.0,6279,0,0.0,9,0,0,0,0,0.0,0,1,0,1,1,1,11,0,0,0,0,0,0,0,0,0,0,0,0,0,0,0
238527756,2880.0,0.076525696,2719.6855,0.0,6319,0,0.0,9,0,0,0,0,0.0,0,1,0,1,1,1,11,0,0,0,0,0,0,0,0,0,0,0,0,0,0,0
239283451,2880.0,0.076525696,2813.302,0.0,6361,0,0.0,9,0,0,0,0,0.0,0,1,0,1,1,1,11,0,0,0,0,0,0,0,0,0,0,0,0,0,0,0
240794005,2880.0,0.076525696,2766.0872,0.0,6438,0,0.0,9,0,0,0,0,0.0,0,1,0,1,1,1,11,0,0,0,0,0,0,0,0,0,0,0,0,0,0,0
241544437,2880.0,0.076525696,2758.6042,0.0,6479,0,0.0,9,0,0,0,0,0.0,0,1,0,1,1,1,11,0,0,0,0,0,0,0,0,0,0,0,0,0,0,0
242304849,2880.0,0.076525696,2719.153,0.0,6521,0,0.0,9,0,0,0,0,0.0,0,1,0,1,1,1,11,0,0,0,0,0,0,0,0,0,0,0,0,0,0,0
243815703,2880.0,0.076525696,2781.8071,0.0,6600,0,0.0,9,0,0,0,0,0.0,0,1,0,1,1,1,11,0,0,0,0,0,0,0,0,0,0,0,0,0,0,0
244565756,2880.0,0.076525696,2813.4172,0.0,6642,0,0.0,9,0,0,0,0,0.0,0,1,0,1,1,1,11,0,0,0,0,0,0,0,0,0,0,0,0,0,0,0
245316514,2880.0,0.076525696,2696.627,0.0,6683,0,0.0,9,0,0,0,0,0.0,0,1,0,1,1,1,11,0,0,0,0,0,0,0,0,0,0,0,0,0,0,0
246826631,2880.0,0.076525696,2753.242,0.0,6761,0,0.0,9,0,0,0,0,0.0,0,1,0,1,1,1,11,0,0,0,0,0,0,0,0,0,0,0,0,0,0,0
247581910,2880.0,0.076525696,2815.7268,0.0,6802,0,0.0,9,0,0,0,0,0.0,0,1,0,1,1,1,11,0,0,0,0,0,0,0,0,0,0,0,0,0,0,0
248332900,2880.0,0.076525696,2719.395,0.0,6843,0,0.0,9,0,0,0,0,0.0,0,1,0,1,1,1,11,0,0,0,0,0,0,0,0,0,0,0,0,0,0,0
249088439,2880.0,0.076525696,2770.2742,0.0,6881,0,0.0,9,0,0,0,0,0.0,0,1,0,1,1,1,11,0,0,0,0,0,0,0,0,0,0,0,0,0,0,0
250598631,2880.0,0.076525696,2721.785,0.0,6964,0,0.0,9,0,0,0,0,0.0,0,1,0,1,1,1,11,0,0,0,0,0,0,0,0,0,0,0,0,0,0,0
251354177,2880.0,0.076525696,2802.1462,0.0,7006,0,0.0,9,0,0,0,0,0.0,0,1,0,1,1,1,11,0,0,0,0,0,0,0,0,0,0,0,0,0,0,0
252114512,2880.0,0.076525696,2766.6455,0.0,7044,0,0.0,9,0,0,0,0,0.0,0,1,0,1,1,1,11,0,0,0,0,0,0,0,0,0,0,0,0,0,0,0
253620443,2880.0,0.076525696,2698.4116,0.0,7125,0,0.0,9,0,0,0,0,0.0,0,1,0,1,1,1,11,0,0,0,0,0,0,0,0,0,0,0,0,0,0,0
254370631,2880.0,0.076525696,2813.7656,0.0,7166,0,0.0,9,0,0,0,0,0.0,0,1,0,1,1,1,11,0,0,0,0,0,0,0,0,0,0,0,0,0,0,0
255125669,2880.0,0.076525696,2794.7454,0.0,7204,0,0.0,9,0,0,0,0,0.0,0,1,0,1,1,1,11,0,0,0,0,0,0,0,0,0,0,0,0,0,0,0
256636677,2880.0,0.076525696,2720.5337,0.0,7286,0,0.0,9,0,0,0,0,0.0,0,1,0,1,1,1,11,0,0,0,0,0,0,0,0,0,0,0,0,0,0,0
257386678,2880.0,0.076525696,2815.3835,0.0,7328,0,0.0,9,0,0,0,0,0.0,0,1,0,1,1,1,11,0,0,0,0,0,0,0,0,0,0,0,0,0,0,0
258137629,2880.0,0.076525696,2668.031,0.0,7365,0,0.0,9,0,0,0,0,0.0,0,1,0,1,1,1,11,0,0,0,0,0,0,0,0,0,0,0,0,0,0,0
259642851,2880.0,0.076525696,2795.0273,0.0,7447,0,0.0,9,0,0,0,0,0.0,0,1,0,1,1,1,11,0,0,0,0,0,0,0,0,0,0,0,0,0,0,0
260393887,2880.0,0.076525696,2813.302,0.0,7488,0,0.0,9,0,0,0,0,0.0,0,1,0,1,1,1,11,0,0,0,0,0,0,0,0,0,0,0,0,0,0,0
261144437,2880.0,0.076525696,2719.335,0.0,7526,0,0.0,9,0,0,0,0,0.0,0,1,0,1,1,1,11,0,0,0,0,0,0,0,0,0,0,0,0,0,0,0
262659749,2880.0,0.076525696,2778.525,0.0,7610,0,0.0,9,0,0,0,0,0.0,0,1,0,1,1,1,11,0,0,0,0,0,0,0,0,0,0,0,0,0,0,0
263420757,2880.0,0.076525696,2791.2637,0.0,7650,0,0.0,9,0,0,0,0,0.0,0,1,0,1,1,1,11,0,0,0,0,0,0,0,0,0,0,0,0,0,0,0
264180977,2880.0,0.076525696,2729.6697,0.0,7689,0,0.0,9,0,0,0,0,0.0,0,1,0,1,1,1,11,0,0,0,0,0,0,0,0,0,0,0,0,0,0,0
265689720,2880.0,0.076525696,2792.8455,0.0,7770,0,0.0,9,0,0,0,0,0.0,0,1,0,1,1,1,11,0,0,0,0,0,0,0,0,0,0,0,0,0,0,0
266444776,2880.0,0.076525696,2779.8472,0.0,7812,0,0.0,9,0,0,0,0,0.0,0,1,0,1,1,1,11,0,0,0,0,0,0,0,0,0,0,0,0,0,0,0
267205089,2880.0,0.076525696,2714.4004,0.0,7850,0,0.0,9,0,0,0,0,0.0,0,1,0,1,1,1,11,0,0,0,0,0,0,0,0,0,0,0,0,0,0,0
268710936,2880.0,0.076525696,2803.204,0.0,7931,0,0.0,9,0,0,0,0,0.0,0,1,0,1,1,1,11,0,0,0,0,0,0,0,0,0,0,0,0,0,0,0
269466672,2880.0,0.076525696,2809.542,0.0,7973,0,0.0,9,0,0,0,0,0.0,0,1,0,1,1,1,11,0,0,0,0,0,0,0,0,0,0,0,0,0,0,0
270226215,2880.0,0.076525696,2697.4463,0.0,8012,0,0.0,9,0,0,0,0,0.0,0,1,0,1,1,1,11,0,0,0,0,0,0,0,0,0,0,0,0,0,0,0
271732954,2880.0,0.076525696,2773.9377,0.0,8095,0,0.0,9,0,0,0,0,0.0,0,1,0,1,1,1,11,0,0,0,0,0,0,0,0,0,0,0,0,0,0,0
272493366,2880.0,0.076525696,2800.5679,0.0,8135,0,0.0,9,0,0,0,0,0.0,0,1,0,1,1,1,11,0,0,0,0,0,0,0,0,0,0,0,0,0,0,0
273247732,2880.0,0.076525696,2788.507,0.0,8175,0,0.0,9,0,0,0,0,0.0,0,1,0,1,1,1,11,0,0,0,0,0,0,0,0,0,0,0,0,0,0,0
274754249,2880.0,0.076525696,2809.7434,0.0,8255,0,0.0,9,0,0,0,0,0.0,0,1,0,1,1,1,11,0,0,0,0,0,0,0,0,0,0,0,0,0,0,0
275509266,2880.0,0.076525696,2694.1382,0.0,8296,0,0.0,9,0,0,0,0,0.0,0,1,0,1,1,1,11,0,0,0,0,0,0,0,0,0,0,0,0,0,0,0
276265086,2880.0,0.076525696,2759.9812,0.0,8335,0,0.0,9,0,0,0,0,0.0,0,1,0,1,1,1,11,0,0,0,0,0,0,0,0,0,0,0,0,0,0,0
277789035,2880.0,0.076525696,2820.3164,0.0,8417,0,0.0,9,0,0,0,0,0.0,0,1,0,1,1,1,11,0,0,0,0,0,0,0,0,0,0,0,0,0,0,0
278536543,2880.0,0.076525696,2715.772,0.0,8459,0,0.0,9,0,0,0,0,0.0,0,1,0,1,1,1,11,0,0,0,0,0,0,0,0,0,0,0,0,0,0,0
279294882,2880.0,0.076525696,2764.9138,0.0,8498,0,0.0,9,0,0,0,0,0.0,0,1,0,1,1,1,11,0,0,0,0,0,0,0,0,0,0,0,0,0,0,0
280810736,2880.0,0.076525696,2819.7927,0.0,8578,0,0.0,9,0,0,0,0,0.0,0,1,0,1,1,1,11,0,0,0,0,0,0,0,0,0,0,0,0,0,0,0
281571906,2880.0,0.076525696,2728.5483,0.0,8619,0,0.0,9,0,0,0,0,0.0,0,1,0,1,1,1,11,0,0,0,0,0,0,0,0,0,0,0,0,0,0,0
282323568,2880.0,0.076525696,2771.1128,0.0,8661,0,0.0,9,0,0,0,0,0.0,0,1,0,1,1,1,11,0,0,0,0,0,0,0,0,0,0,0,0,0,0,0
283833472,2880.0,0.076525696,2799.1106,0.0,8741,0,0.0,9,0,0,0,0,0.0,0,1,0,1,1,1,11,0,0,0,0,0,0,0,0,0,0,0,0,0,0,0
284583813,2880.0,0.076525696,2729.2139,0.0,8782,0,0.0,9,0,0,0,0,0.0,0,1,0,1,1,1,11,0,0,0,0,0,0,0,0,0,0,0,0,0,0,0
285344198,2880.0,0.076525696,2803.2686,0.0,8822,0,0.0,9,0,0,0,0,0.0,0,1,0,1,1,1,11,0,0,0,0,0,0,0,0,0,0,0,0,0,0,0
286099951,2880.0,0.076525696,2803.2686,0.0,8861,0,0.0,9,0,0,0,0,0.0,0,1,0,1,1,1,11,0,0,0,0,0,0,0,0,0,0,0,0,0,0,0
287611316,2880.0,0.076525696,2726.7388,0.0,8944,0,0.0,9,0,0,0,0,0.0,0,1,0,1,1,1,11,0,0,0,0,0,0,0,0,0,0,0,0,0,0,0
288371248,2880.0,0.076525696,2735.7576,0.0,8984,0,0.0,9,0,0,0,0,0.0,0,1,0,1,1,1,11,0,0,0,0,0,0,0,0,0,0,0,0,0,0,0
289127940,2880.0,0.076525696,2820.277,0.0,9023,0,0.0,9,0,0,0,0,0.0,0,1,0,1,1,1,11,0,0,0,0,0,0,0,0,0,0,0,0,0,0,0
290646673,2880.0,0.076525696,2717.8242,0.0,9105,0,0.0,9,0,0,0,0,0.0,0,1,0,1,1,1,11,0,0,0,0,0,0,0,0,0,0,0,0,0,0,0
291397338,2880.0,0.076525696,2801.319,0.0,9145,0,0.0,9,0,0,0,0,0.0,0,1,0,1,1,1,11,0,0,0,0,0,0,0,0,0,0,0,0,0,0,0
292157752,2880.0,0.076525696,2798.487,0.0,9185,0,0.0,9,0,0,0,0,0.0,0,1,0,1,1,1,11,0,0,0,0,0,0,0,0,0,0,0,0,0,0,0
293664049,2880.0,0.076525696,2729.6536,0.0,9268,0,0.0,9,0,0,0,0,0.0,0,1,0,1,1,1,11,0,0,0,0,0,0,0,0,0,0,0,0,0,0,0
294418944,2880.0,0.076525696,2746.1646,0.0,9308,0,0.0,9,0,0,0,0,0.0,0,1,0,1,1,1,11,0,0,0,0,0,0,0,0,0,0,0,0,0,0,0
295174546,2880.0,0.076525696,2818.4927,0.0,9346,0,0.0,9,0,0,0,0,0.0,0,1,0,1,1,1,11,0,0,0,0,0,0,0,0,0,0,0,0,0,0,0
296680733,2880.0,0.076525696,2773.2017,0.0,9428,0,0.0,9,0,0,0,0,0.0,0,1,0,1,1,1,11,0,0,0,0,0,0,0,0,0,0,0,0,0,0,0
297440452,2880.0,0.076525696,2805.6343,0.0,9468,0,0.0,9,0,0,0,0,0.0,0,1,0,1,1,1,11,0,0,0,0,0,0,0,0,0,0,0,0,0,0,0
298190649,2880.0,0.076525696,2707.346,0.0,9506,0,0.0,9,0,0,0,0,0.0,0,1,0,1,1,1,11,0,0,0,0,0,0,0,0,0,0,0,0,0,0,0
299699613,2880.0,0.076525696,2800.7708,0.0,9590,0,0.0,9,0,0,0,0,0.0,0,1,0,1,1,1,11,0,0,0,0,0,0,0,0,0,0,0,0,0,0,0
300462755,2880.0,0.076525696,2698.5278,0.0,9630,0,0.0,9,0,0,0,0,0.0,0,1,0,1,1,1,11,0,0,0,0,0,0,0,0,0,0,0,0,0,0,0
301212596,2880.0,0.076525696,2798.5176,0.0,9670,0,0.0,9,0,0,0,0,0.0,0,1,0,1,1,1,11,0,0,0,0,0,0,0,0,0,0,0,0,0,0,0
302733061,2880.0,0.076525696,2729.2605,0.0,9751,0,0.0,9,0,0,0,0,0.0,0,1,0,1,1,1,11,0,0,0,0,0,0,0,0,0,0,0,0,0,0,0
303484660,2880.0,0.076525696,2791.836,0.0,9790,0,0.0,9,0,0,0,0,0.0,0,1,0,1,1,1,11,0,0,0,0,0,0,0,0,0,0,0,0,0,0,0
304234940,2880.0,0.076525696,2805.9773,0.0,9831,0,0.0,9,0,0,0,0,0.0,0,1,0,1,1,1,11,0,0,0,0,0,0,0,0,0,0,0,0,0,0,0
305755127,2880.0,0.076525696,2778.763,0.0,9913,0,0.0,9,0,0,0,0,0.0,0,1,0,1,1,1,11,0,0,0,0,0,0,0,0,0,0,0,0,0,0,0
306515745,2880.0,0.076525696,2790.0928,0.0,9953,0,0.0,9,0,0,0,0,0.0,0,1,0,1,1,1,11,0,0,0,0,0,0,0,0,0,0,0,0,0,0,0
307261325,2880.0,0.076525696,2727.3682,0.0,9994,0,0.0,9,0,0,0,0,0.0,0,1,0,1,1,1,11,0,0,0,0,0,0,0,0,0,0,0,0,0,0,0
308772418,2880.0,0.076525696,2780.7834,0.0,10073,0,0.0,9,0,0,0,0,0.0,0,1,0,1,1,1,11,0,0,0,0,0,0,0,0,0,0,0,0,0,0,0
309532801,2880.0,0.076525696,2794.1182,0.0,10114,0,0.0,9,0,0,0,0,0.0,0,1,0,1,1,1,11,0,0,0,0,0,0,0,0,0,0,0,0,0,0,0
310284026,2880.0,0.076525696,2714.379,0.0,10156,0,0.0,9,0,0,0,0,0.0,0,1,0,1,1,1,11,0,0,0,0,0,0,0,0,0,0,0,0,0,0,0
311798691,2880.0,0.076525696,2791.4775,0.0,10236,0,0.0,9,0,0,0,0,0.0,0,1,0,1,1,1,11,0,0,0,0,0,0,0,0,0,0,0,0,0,0,0
312548631,2880.0,0.076525696,2813.5562,0.0,10276,0,0.0,9,0,0,0,0,0.0,0,1,0,1,1,1,11,0,0,0,0,0,0,0,0,0,0,0,0,0,0,0
313309006,2880.0,0.076525696,2696.072,0.0,10318,0,0.0,9,0,0,0,0,0.0,0,1,0,1,1,1,11,0,0,0,0,0,0,0,0,0,0,0,0,0,0,0
314819484,2880.0,0.076525696,2775.092,0.0,10398,0,0.0,9,0,0,0,0,0.0,0,1,0,1,1,1,11,0,0,0,0,0,0,0,0,0,0,0,0,0,0,0
315580047,2880.0,0.076525696,2833.6907,0.0,10439,0,0.0,9,0,0,0,0,0.0,0,1,0,1,1,1,11,0,0,0,0,0,0,0,0,0,0,0,0,0,0,0
316336362,2880.0,0.076525696,2724.6814,0.0,10479,0,0.0,9,0,0,0,0,0.0,0,1,0,1,1,1,11,0,0,0,0,0,0,0,0,0,0,0,0,0,0,0
317096106,2880.0,0.076525696,2724.6814,0.0,10518,0,0.0,9,0,0,0,0,0.0,0,1,0,1,1,1,11,0,0,0,0,0,0,0,0,0,0,0,0,0,0,0
318607118,2880.0,0.076525696,2800.325,0.0,10601,0,0.0,9,0,0,0,0,0.0,0,1,0,1,1,1,11,0,0,0,0,0,0,0,0,0,0,0,0,0,0,0
319368016,2880.0,0.076525696,2697.3115,0.0,10642,0,0.0,9,0,0,0,0,0.0,0,1,0,1,1,1,11,0,0,0,0,0,0,0,0,0,0,0,0,0,0,0
320118319,2880.0,0.076525696,2697.3115,0.0,10680,0,0.0,9,0,0,0,0,0.0,0,1,0,1,1,1,11,0,0,0,0,0,0,0,0,0,0,0,0,0,0,0
321633653,2880.0,0.076525696,2823.8276,0.0,10762,0,0.0,9,0,0,0,0,0.0,0,1,0,1,1,1,11,0,0,0,0,0,0,0,0,0,0,0,0,0,0,0
322385544,2880.0,0.076525696,2692.8625,0.0,10804,0,0.0,9,0,0,0,0,0.0,0,1,0,1,1,1,11,0,0,0,0,0,0,0,0,0,0,0,0,0,0,0
323137439,2880.0,0.076525696,2692.8625,0.0,10841,0,0.0,9,0,0,0,0,0.0,0,1,0,1,1,1,11,0,0,0,0,0,0,0,0,0,0,0,0,0,0,0
324645520,2880.0,0.076525696,2822.222,0.0,10922,0,0.0,9,0,0,0,0,0.0,0,1,0,1,1,1,11,0,0,0,0,0,0,0,0,0,0,0,0,0,0,0
325414992,2880.0,0.076525696,2698.83,0.0,10965,0,0.0,9,0,0,0,0,0.0,0,1,0,1,1,1,11,0,0,0,0,0,0,0,0,0,0,0,0,0,0,0
326165578,2880.0,0.076525696,2698.83,0.0,11004,0,0.0,9,0,0,0,0,0.0,0,1,0,1,1,1,11,0,0,0,0,0,0,0,0,0,0,0,0,0,0,0
327686480,2880.0,0.076525696,2808.335,0.0,11086,0,0.0,9,0,0,0,0,0.0,0,1,0,1,1,1,11,0,0,0,0,0,0,0,0,0,0,0,0,0,0,0
328430449,2880.0,0.076525696,2778.4492,0.0,11126,0,0.0,9,0,0,0,0,0.0,0,1,0,1,1,1,11,0,0,0,0,0,0,0,0,0,0,0,0,0,0,0
329197303,2880.0,0.076525696,2778.4492,0.0,11167,0,0.0,9,0,0,0,0,0.0,0,1,0,1,1,1,11,0,0,0,0,0,0,0,0,0,0,0,0,0,0,0
330703777,2880.0,0.076525696,2822.1936,0.0,11246,0,0.0,9,0,0,0,0,0.0,0,1,0,1,1,1,11,0,0,0,0,0,0,0,0,0,0,0,0,0,0,0
331458671,2880.0,0.076525696,2734.0007,0.0,11288,0,0.0,9,0,0,0,0,0.0,0,1,0,1,1,1,11,0,0,0,0,0,0,0,0,0,0,0,0,0,0,0
332219058,2880.0,0.076525696,2734.0007,0.0,11328,0,0.0,9,0,0,0,0,0.0,0,1,0,1,1,1,11,0,0,0,0,0,0,0,0,0,0,0,0,0,0,0
333733445,2880.0,0.076525696,2724.8281,0.0,11408,0,0.0,9,0,0,0,0,0.0,0,1,0,1,1,1,11,0,0,0,0,0,0,0,0,0,0,0,0,0,0,0
334485969,2880.0,0.076525696,2792.2473,0.0,11450,0,0.0,9,0,0,0,0,0.0,0,1,0,1,1,1,11,0,0,0,0,0,0,0,0,0,0,0,0,0,0,0
335246130,2880.0,0.076525696,2795.214,0.0,11491,0,0.0,9,0,0,0,0,0.0,0,1,0,1,1,1,11,0,0,0,0,0,0,0,0,0,0,0,0,0,0,0
336766665,2880.0,0.076525696,2749.5483,0.0,11573,0,0.0,9,0,0,0,0,0.0,0,1,0,1,1,1,11,0,0,0,0,0,0,0,0,0,0,0,0,0,0,0
337517074,2880.0,0.076525696,2750.05,0.0,11611,0,0.0,9,0,0,0,0,0.0,0,1,0,1,1,1,11,0,0,0,0,0,0,0,0,0,0,0,0,0,0,0
338281080,2880.0,0.076525696,2823.7715,0.0,11652,0,0.0,9,0,0,0,0,0.0,0,1,0,1,1,1,11,0,0,0,0,0,0,0,0,0,0,0,0,0,0,0
339792610,2880.0,0.076525696,2713.41,0.0,11734,0,0.0,9,0,0,0,0,0.0,0,1,0,1,1,1,11,0,0,0,0,0,0,0,0,0,0,0,0,0,0,0
340538860,2880.0,0.076525696,2782.6938,0.0,11774,0,0.0,9,0,0,0,0,0.0,0,1,0,1,1,1,11,0,0,0,0,0,0,0,0,0,0,0,0,0,0,0
341288839,2880.0,0.076525696,2821.4521,0.0,11813,0,0.0,9,0,0,0,0,0.0,0,1,0,1,1,1,11,0,0,0,0,0,0,0,0,0,0,0,0,0,0,0
342804974,2880.0,0.076525696,2740.796,0.0,11894,0,0.0,9,0,0,0,0,0.0,0,1,0,1,1,1,11,0,0,0,0,0,0,0,0,0,0,0,0,0,0,0
343560444,2880.0,0.076525696,2731.603,0.0,11936,0,0.0,9,0,0,0,0,0.0,0,1,0,1,1,1,11,0,0,0,0,0,0,0,0,0,0,0,0,0,0,0
344315596,2880.0,0.076525696,2799.3708,0.0,11974,0,0.0,9,0,0,0,0,0.0,0,1,0,1,1,1,11,0,0,0,0,0,0,0,0,0,0,0,0,0,0,0
345826231,2880.0,0.076525696,2749.4768,0.0,12057,0,0.0,9,0,0,0,0,0.0,0,1,0,1,1,1,11,0,0,0,0,0,0,0,0,0,0,0,0,0,0,0
346576655,2880.0,0.076525696,2780.9172,0.0,12096,0,0.0,9,0,0,0,0,0.0,0,1,0,1,1,1,11,0,0,0,0,0,0,0,0,0,0,0,0,0,0,0
347337678,2880.0,0.076525696,2821.472,0.0,12138,0,0.0,9,0,0,0,0,0.0,0,1,0,1,1,1,11,0,0,0,0,0,0,0,0,0,0,0,0,0,0,0
348847742,2880.0,0.076525696,2712.4065,0.0,12219,0,0.0,9,0,0,0,0,0.0,0,1,0,1,1,1,11,0,0,0,0,0,0,0,0,0,0,0,0,0,0,0
349601880,2880.0,0.076525696,2750.9602,0.0,12258,0,0.0,9,0,0,0,0,0.0,0,1,0,1,1,1,11,0,0,0,0,0,0,0,0,0,0,0,0,0,0,0
350353639,2880.0,0.076525696,2831.8152,0.0,12300,0,0.0,9,0,0,0,0,0.0,0,1,0,1,1,1,11,0,0,0,0,0,0,0,0,0,0,0,0,0,0,0
351109043,2880.0,0.076525696,2831.8152,0.0,12338,0,0.0,9,0,0,0,0,0.0,0,1,0,1,1,1,11,0,0,0,0,0,0,0,0,0,0,0,0,0,0,0
352619351,2880.0,0.076525696,2745.3506,0.0,12419,0,0.0,9,0,0,0,0,0.0,0,1,0,1,1,1,11,0,0,0,0,0,0,0,0,0,0,0,0,0,0,0
353379784,2880.0,0.076525696,2822.662,0.0,12461,0,0.0,9,0,0,0,0,0.0,0,1,0,1,1,1,11,0,0,0,0,0,0,0,0,0,0,0,0,0,0,0
354126164,2880.0,0.076525696,2822.662,0.0,12501,0,0.0,9,0,0,0,0,0.0,0,1,0,1,1,1,11,0,0,0,0,0,0,0,0,0,0,0,0,0,0,0
355639440,2880.0,0.076525696,2739.846,0.0,12582,0,0.0,9,0,0,0,0,0.0,0,1,0,1,1,1,11,0,0,0,0,0,0,0,0,0,0,0,0,0,0,0
356391839,2880.0,0.076525696,2793.7334,0.0,12623,0,0.0,9,0,0,0,0,0.0,0,1,0,1,1,1,11,0,0,0,0,0,0,0,0,0,0,0,0,0,0,0
357142496,2880.0,0.076525696,2793.7334,0.0,12662,0,0.0,9,0,0,0,0,0.0,0,1,0,1,1,1,11,0,0,0,0,0,0,0,0,0,0,0,0,0,0,0
358648318,2880.0,0.076525696,2702.4116,0.0,12742,0,0.0,9,0,0,0,0,0.0,0,1,0,1,1,1,11,0,0,0,0,0,0,0,0,0,0,0,0,0,0,0
359413243,2880.0,0.076525696,2842.493,0.0,12783,0,0.0,9,0,0,0,0,0.0,0,1,0,1,1,1,11,0,0,0,0,0,0,0,0,0,0,0,0,0,0,0
360159039,2880.0,0.076525696,2842.493,0.0,12822,0,0.0,9,0,0,0,0,0.0,0,1,0,1,1,1,11,0,0,0,0,0,0,0,0,0,0,0,0,0,0,0
361664872,2880.0,0.076525696,2747.6345,0.0,12904,0,0.0,9,0,0,0,0,0.0,0,1,0,1,1,1,11,0,0,0,0,0,0,0,0,0,0,0,0,0,0,0
362418529,2880.0,0.076525696,2738.1172,0.0,12944,0,0.0,9,0,0,0,0,0.0,0,1,0,1,1,1,11,0,0,0,0,0,0,0,0,0,0,0,0,0,0,0
363175487,2880.0,0.076525696,2738.1172,0.0,12984,0,0.0,9,0,0,0,0,0.0,0,1,0,1,1,1,11,0,0,0,0,0,0,0,0,0,0,0,0,0,0,0
364696772,2880.0,0.076525696,2808.4858,0.0,13065,0,0.0,9,0,0,0,0,0.0,0,1,0,1,1,1,11,0,0,0,0,0,0,0,0,0,0,0,0,0,0,0
365451891,2880.0,0.076525696,2687.7385,0.0,13107,0,0.0,9,0,0,0,0,0.0,0,1,0,1,1,1,11,0,0,0,0,0,0,0,0,0,0,0,0,0,0,0
366207882,2880.0,0.076525696,2687.7385,0.0,13146,0,0.0,9,0,0,0,0,0.0,0,1,0,1,1,1,11,0,0,0,0,0,0,0,0,0,0,0,0,0,0,0
367723281,2880.0,0.076525696,2763.5623,0.0,13227,0,0.0,9,0,0,0,0,0.0,0,1,0,1,1,1,11,0,0,0,0,0,0,0,0,0,0,0,0,0,0,0
368481782,2880.0,0.076525696,2708.9753,0.0,13268,0,0.0,9,0,0,0,0,0.0,0,1,0,1,1,1,11,0,0,0,0,0,0,0,0,0,0,0,0,0,0,0
369238405,2880.0,0.076525696,2708.9753,0.0,13308,0,0.0,9,0,0,0,0,0.0,0,1,0,1,1,1,11,0,0,0,0,0,0,0,0,0,0,0,0,0,0,0
370742622,2880.0,0.076525696,2813.1194,0.0,13389,0,0.0,9,0,0,0,0,0.0,0,1,0,1,1,1,11,0,0,0,0,0,0,0,0,0,0,0,0,0,0,0
371493606,2880.0,0.076525696,2708.7864,0.0,13428,0,0.0,9,0,0,0,0,0.0,0,1,0,1,1,1,11,0,0,0,0,0,0,0,0,0,0,0,0,0,0,0
372258795,2880.0,0.076525696,2708.7864,0.0,13469,0,0.0,9,0,0,0,0,0.0,0,1,0,1,1,1,11,0,0,0,0,0,0,0,0,0,0,0,0,0,0,0
373764758,2880.0,0.076525696,2808.182,0.0,13550,0,0.0,9,0,0,0,0,0.0,0,1,0,1,1,1,11,0,0,0,0,0,0,0,0,0,0,0,0,0,0,0
374531223,2880.0,0.076525696,2667.338,0.0,13591,0,0.0,9,0,0,0,0,0.0,0,1,0,1,1,1,11,0,0,0,0,0,0,0,0,0,0,0,0,0,0,0
375291418,2880.0,0.076525696,2667.338,0.0,13634,0,0.0,9,0,0,0,0,0.0,0,1,0,1,1,1,11,0,0,0,0,0,0,0,0,0,0,0,0,0,0,0
376803440,2880.0,0.076525696,2810.9177,0.0,13713,0,0.0,9,0,0,0,0,0.0,0,1,0,1,1,1,11,0,0,0,0,0,0,0,0,0,0,0,0,0,0,0
377562977,2880.0,0.076525696,2721.4014,0.0,13754,0,0.0,9,0,0,0,0,0.0,0,1,0,1,1,1,11,0,0,0,0,0,0,0,0,0,0,0,0,0,0,0
378313920,2880.0,0.076525696,2721.4014,0.0,13795,0,0.0,9,0,0,0,0,0.0,0,1,0,1,1,1,11,0,0,0,0,0,0,0,0,0,0,0,0,0,0,0
379820443,2880.0,0.076525696,2813.6758,0.0,13873,0,0.0,9,0,0,0,0,0.0,0,1,0,1,1,1,11,0,0,0,0,0,0,0,0,0,0,0,0,0,0,0
380575492,2880.0,0.076525696,2690.0276,0.0,13914,0,0.0,9,0,0,0,0,0.0,0,1,0,1,1,1,11,0,0,0,0,0,0,0,0,0,0,0,0,0,0,0
