timestamp,timestamp_sample,states[0],states[1],states[2],states[3],states[4],states[5],states[6],states[7],states[8],states[9],states[10],states[11],states[12],states[13],states[14],states[15],states[16],states[17],states[18],states[19],states[20],states[21],states[22],states[23],covariances[0],covariances[1],covariances[2],covariances[3],covariances[4],covariances[5],covariances[6],covariances[7],covariances[8],covariances[9],covariances[10],covariances[11],covariances[12],covariances[13],covariances[14],covariances[15],covariances[16],covariances[17],covariances[18],covariances[19],covariances[20],covariances[21],covariances[22],covariances[23],n_states
186840030,186838176,0.99757767,0.027017957,0.01016402,0.06328944,-0.005541297,-0.0052128043,0.012552207,0.0018858715,-0.0015894881,5.4360876,1.082073e-06,-7.4057143e-06,6.7586103e-07,0.0,0.0,0.00036568864,0.28187284,-0.008982278,0.32060865,0.0,0.0,0.0,0.0,0.0,1.432305e-07,4.531185e-06,4.550238e-06,3.5914734e-05,0.015124525,0.015124129,0.021700306,0.042889763,0.04288975,0.2881149,2.0530655e-11,2.0561799e-11,3.3077385e-11,4.0000004e-06,4.0000004e-06,5.000031e-08,0.0,0.0,0.0,0.0,0.0,0.0,0.0,0.0,24
186850571,186848181,0.9975767,0.027094794,0.010150441,0.06327432,-0.004714539,-0.0055805966,0.013225058,0.0018345391,-0.0016433591,5.436217,1.0821007e-06,-7.4058116e-06,6.740883e-07,0.0,0.0,0.00036568864,0.28187284,-0.008982278,0.32060865,0.0,0.0,0.0,0.0,0.0,1.4306585e-07,4.5416673e-06,4.5608713e-06,3.588441e-05,0.015217229,0.015216826,0.02144456,0.043292273,0.04329226,0.28268948,2.0540644e-11,2.0571735e-11,3.306636e-11,4.0000004e-06,4.0000004e-06,5e-08,0.0,0.0,0.0,0.0,0.0,0.0,0.0,0.0,24
187840331,187838647,0.9979633,0.02421984,0.009460604,0.05825142,0.00015561306,-0.0069276965,0.009056033,0.0014317641,-0.0050593233,5.43155,1.064463e-06,-7.411795e-06,6.68309e-07,0.0,0.0,0.000368854,0.28187284,-0.008982278,0.32060865,0.0,0.0,0.0,0.0,0.0,1.2153295e-07,4.53718e-06,4.5519173e-06,3.5963014e-05,0.015289691,0.015289285,0.021578856,0.043267168,0.043267194,0.2855243,2.0533426e-11,2.0565211e-11,3.308562e-11,4.0000004e-06,4.0000004e-06,5.000018e-08,0.0,0.0,0.0,0.0,0.0,0.0,0.0,0.0,24
188851054,188849128,0.9980789,0.019806737,0.009247677,0.05797165,-0.0052069207,-0.0070133777,0.0035967971,0.00049761945,-0.0061602797,5.4271536,1.0365367e-06,-7.4139584e-06,6.474364e-07,0.0,0.0,0.00037100379,0.28187284,-0.008982278,0.32060865,0.0,0.0,0.0,0.0,0.0,1.1978685e-07,4.548779e-06,4.5571614e-06,3.596009e-05,0.015423664,0.015423394,0.021517044,0.043855615,0.043855634,0.28417993,2.0544401e-11,2.0576851e-11,3.3081822e-11,4.0000004e-06,4.0000004e-06,5.0000178e-08,0.0,0.0,0.0,0.0,0.0,0.0,0.0,0.0,24
189841284,189839599,0.99826926,0.015794104,0.008538491,0.056001466,-0.01468445,-0.009528119,0.0011341962,-0.0014595904,-0.0049396898,5.431329,1.0119542e-06,-7.4069303e-06,6.1786056e-07,0.0,0.0,0.00037131872,0.28187284,-0.008982278,0.32060865,0.0,0.0,0.0,0.0,0.0,1.1140783e-07,4.541607e-06,4.545901e-06,3.596474e-05,0.0153334215,0.015333524,0.021651315,0.04349961,0.043499667,0.28699112,2.0539926e-11,2.0573017e-11,3.3078776e-11,4.0000004e-06,4.0000004e-06,5.0000313e-08,0.0,0.0,0.0,0.0,0.0,0.0,0.0,0.0,24
190842152,190840115,0.99828434,0.023706635,0.00921907,0.052739702,0.003058749,-0.003295243,0.0022808192,0.0001562383,-0.0022324657,5.425796,9.959592e-07,-7.403657e-06,5.946262e-07,0.0,0.0,0.00037325695,0.28187284,-0.008982278,0.32060865,0.0,0.0,0.0,0.0,0.0,1.0056616e-07,4.5469765e-06,4.5633096e-06,3.5929486e-05,0.015337132,0.01533728,0.021534033,0.043505564,0.043505754,0.28444356,2.0548709e-11,2.0582197e-11,3.306579e-11,4.0000004e-06,4.0000004e-06,5.0000178e-08,0.0,0.0,0.0,0.0,0.0,0.0,0.0,0.0,24
191842572,191840552,0.9979139,0.02132395,0.0093534235,0.060214095,-0.006303343,0.0028407702,0.0010034775,-0.0054057757,0.00023047568,5.4236236,9.944375e-07,-7.3870533e-06,5.973021e-07,0.0,0.0,0.00037394892,0.28187284,-0.008982278,0.32060865,0.0,0.0,0.0,0.0,0.0,1.3050024e-07,4.554682e-06,4.5674756e-06,3.597909e-05,0.015354686,0.015354774,0.021417394,0.043508116,0.04350845,0.28193212,2.0557459e-11,2.0591025e-11,3.3093767e-11,4.0000004e-06,4.0000004e-06,5e-08,0.0,0.0,0.0,0.0,0.0,0.0,0.0,0.0,24
192842658,192841028,0.9984476,0.02108748,0.008323743,0.05087821,0.05777546,-0.025570989,0.0021142862,-0.004656026,0.0024725527,5.4200444,1.0019492e-06,-7.3591955e-06,5.7098464e-07,0.0,0.0,0.0003744532,0.28187284,-0.008982278,0.32060865,0.0,0.0,0.0,0.0,0.0,9.4015505e-08,4.5599186e-06,4.5737156e-06,3.6034522e-05,0.015373609,0.015373906,0.02161,0.043519758,0.04352007,0.28600156,2.0563988e-11,2.0597206e-11,3.3100637e-11,4.0000004e-06,4.0000004e-06,5.0000256e-08,0.0,0.0,0.0,0.0,0.0,0.0,0.0,0.0,24
193843425,193841505,0.9983342,0.023686767,0.008984065,0.05183717,0.0057105594,0.004322362,-0.0033611513,-0.007582505,0.0027732986,5.405606,1.0157834e-06,-7.3286124e-06,6.0644004e-07,0.0,0.0,0.00037611276,0.28187284,-0.008982278,0.32060865,0.0,0.0,0.0,0.0,0.0,9.851906e-08,4.5633983e-06,4.581446e-06,3.5985107e-05,0.015393118,0.015392842,0.021492364,0.0435371,0.043537427,0.28347877,2.0567817e-11,2.0600254e-11,3.308572e-11,4.0000004e-06,4.0000004e-06,5.000009e-08,0.0,0.0,0.0,0.0,0.0,0.0,0.0,0.0,24
194843883,194841982,0.99764335,0.0261694,0.00940324,0.06272575,0.024452914,-0.0042016893,-0.004520336,-0.0037131007,0.002667657,5.396088,1.0316608e-06,-7.3039287e-06,6.5746735e-07,0.0,0.0,0.00037639312,0.28187284,-0.008982278,0.32060865,0.0,0.0,0.0,0.0,0.0,1.4409491e-07,4.5648817e-06,4.5870815e-06,3.595257e-05,0.015403637,0.015403282,0.021685159,0.04355303,0.043553174,0.28760168,2.0569633e-11,2.060098e-11,3.3091977e-11,4.0000004e-06,4.0000004e-06,5.000032e-08,0.0,0.0,0.0,0.0,0.0,0.0,0.0,0.0,24
195844168,195842459,0.9977864,0.025589395,0.009660065,0.06061601,-0.0058045145,0.004174165,-0.013503572,-0.0044469344,0.0019382344,5.3785806,1.0437471e-06,-7.2838243e-06,7.069902e-07,0.0,0.0,0.00037757607,0.28187284,-0.008982278,0.32060865,0.0,0.0,0.0,0.0,0.0,1.3544702e-07,4.5658617e-06,4.5862384e-06,3.597828e-05,0.015413823,0.0154135525,0.021564525,0.04356443,0.04356447,0.28505716,2.0570263e-11,2.0600341e-11,3.3098215e-11,4.0000004e-06,4.0000004e-06,5.000018e-08,0.0,0.0,0.0,0.0,0.0,0.0,0.0,0.0,24
196845243,196842961,0.9977727,0.027321756,0.009446239,0.060116634,0.0005159539,0.0032391949,-0.01458127,-0.0051785135,0.0027633938,5.351023,1.0571858e-06,-7.2558723e-06,7.568056e-07,0.0,0.0,0.00037969754,0.28187284,-0.008982278,0.32060865,0.0,0.0,0.0,0.0,0.0,1.3418e-07,4.5654183e-06,4.588746e-06,3.5937184e-05,0.015412772,0.015412617,0.021441597,0.043571096,0.04357118,0.28250268,2.057032e-11,2.0599142e-11,3.3084417e-11,4.0000004e-06,4.0000004e-06,5e-08,0.0,0.0,0.0,0.0,0.0,0.0,0.0,0.0,24
197845131,197843418,0.9979225,0.029148439,0.010044136,0.056569967,-0.004855562,0.004085694,-0.029363124,-0.004035893,0.0045869173,5.303137,1.0781582e-06,-7.2334706e-06,8.30904e-07,0.0,0.0,0.00038426704,0.28187284,-0.008982278,0.32060865,0.0,0.0,0.0,0.0,0.0,1.2070606e-07,4.5653724e-06,4.591134e-06,3.596772e-05,0.015418572,0.015418428,0.021633731,0.043574117,0.04357433,0.28660738,2.057031e-11,2.0598006e-11,3.309272e-11,4.0000004e-06,4.0000004e-06,5.0000178e-08,0.0,0.0,0.0,0.0,0.0,0.0,0.0,0.0,24
198845835,198843893,0.9977596,0.027400056,0.009975657,0.060213454,0.003912497,0.0043712757,-0.03861756,-0.0013935725,0.0062481407,5.2433248,1.106615e-06,-7.2200514e-06,8.82057e-07,0.0,0.0,0.00038929164,0.28187284,-0.008982278,0.32060865,0.0,0.0,0.0,0.0,0.0,1.3591689e-07,4.5657825e-06,4.587028e-06,3.5917452e-05,0.015418665,0.015418464,0.021512518,0.043575652,0.04357592,0.28406796,2.057028e-11,2.0597026e-11,3.307965e-11,4.0000004e-06,4.0000004e-06,5.000018e-08,0.0,0.0,0.0,0.0,0.0,0.0,0.0,0.0,24
199846389,199844378,0.99773085,0.027522579,0.010157022,0.060601305,0.014221282,0.014337888,-0.05082915,-0.00035569665,0.006017798,5.160859,1.1367792e-06,-7.212387e-06,9.528309e-07,0.0,0.0,0.00039626815,0.28187284,-0.008982278,0.32060865,0.0,0.0,0.0,0.0,0.0,1.3838638e-07,4.56591e-06,4.5863276e-06,3.593577e-05,0.015418614,0.015418285,0.021389745,0.043576486,0.043576766,0.28152114,2.0570252e-11,2.059642e-11,3.308791e-11,4.0000004e-06,4.0000004e-06,5e-08,0.0,0.0,0.0,0.0,0.0,0.0,0.0,0.0,24
200846837,200844854,0.99755776,0.029831061,0.009850796,0.06238219,0.019436022,0.0042742286,-0.07048553,0.0011422881,0.006193066,5.0410895,1.1677844e-06,-7.2135635e-06,1.0205067e-06,0.0,0.0,0.000407383,0.28187284,-0.008982278,0.32060865,0.0,0.0,0.0,0.0,0.0,1.473304e-07,4.5651905e-06,4.5897277e-06,3.5887188e-05,0.01542037,0.01541993,0.021578616,0.043576907,0.04357713,0.2855609,2.0570275e-11,2.0596193e-11,3.3075046e-11,4.0000004e-06,4.0000004e-06,5.000018e-08,0.0,0.0,0.0,0.0,0.0,0.0,0.0,0.0,24
201847171,201845339,0.9977443,0.02622697,0.008889109,0.061150946,-0.017468125,0.005949949,-0.085864976,-8.988873e-05,0.005810243,4.9376554,1.1957175e-06,-7.225681e-06,1.0621754e-06,0.0,0.0,0.000412481,0.28187284,-0.008982278,0.32060865,0.0,0.0,0.0,0.0,0.0,1.4131788e-07,4.56565e-06,4.5833676e-06,3.5919904e-05,0.015424088,0.015423597,0.02146089,0.04357772,0.04357779,0.2830402,2.0570299e-11,2.0596438e-11,3.3082585e-11,4.0000004e-06,4.0000004e-06,5.000009e-08,0.0,0.0,0.0,0.0,0.0,0.0,0.0,0.0,24
202847700,202845812,0.9979443,0.02586192,0.008850213,0.0579674,0.0075857495,0.0046473173,-0.08273277,0.0006677094,0.0062295753,4.84179,1.2235311e-06,-7.240809e-06,1.1245651e-06,0.0,0.0,0.00041446442,0.28187284,-0.008982278,0.32060865,0.0,0.0,0.0,0.0,0.0,1.2790122e-07,4.565818e-06,4.5826555e-06,3.589773e-05,0.015415733,0.015415066,0.021653095,0.043578357,0.043578256,0.2871226,2.0570283e-11,2.0596908e-11,3.3069162e-11,4.0000004e-06,4.0000004e-06,5.000018e-08,0.0,0.0,0.0,0.0,0.0,0.0,0.0,0.0,24
203848449,203846293,0.9977779,0.02608295,0.009396476,0.06058608,0.0067093177,0.0055596936,-0.096563876,0.0031377322,0.0065483246,4.74804,1.2519988e-06,-7.2554394e-06,1.1713928e-06,0.0,0.0,0.00041449655,0.28187284,-0.008982278,0.32060865,0.0,0.0,0.0,0.0,0.0,1.3967457e-07,4.566064e-06,4.5829884e-06,3.5906847e-05,0.015421847,0.015421217,0.021531962,0.04357952,0.04357934,0.28454024,2.0570115e-11,2.0597555e-11,3.3076448e-11,4.0000004e-06,4.0000004e-06,5.000018e-08,0.0,0.0,0.0,0.0,0.0,0.0,0.0,0.0,24
204848603,204846775,0.9976795,0.026833871,0.00958743,0.06183641,0.0016149493,0.0066367947,-0.10552634,0.0026987193,0.0067545883,4.645703,1.2813592e-06,-7.271049e-06,1.2373962e-06,0.0,0.0,0.0004144769,0.28187284,-0.008982278,0.32060865,0.0,0.0,0.0,0.0,0.0,1.4599688e-07,4.565783e-06,4.5841166e-06,3.592038e-05,0.015423023,0.015422422,0.02141384,0.043580934,0.043580756,0.28201878,2.056984e-11,2.0598238e-11,3.3083546e-11,4.0000004e-06,4.0000004e-06,5e-08,0.0,0.0,0.0,0.0,0.0,0.0,0.0,0.0,24
205849164,205847257,0.9976997,0.026895164,0.009471043,0.06150139,0.0016565971,0.0057747005,-0.11470792,0.0004466755,0.0015334317,4.535121,1.3392943e-06,-7.294862e-06,1.298136e-06,0.0,0.0,0.0004145263,0.28187284,-0.008982278,0.32060865,0.0,0.0,0.0,0.0,0.0,1.4412512e-07,3.734451e-06,3.7534355e-06,3.588475e-05,0.007789221,0.007788754,0.021606443,0.008537062,0.008537055,0.28608882,1.9790362e-11,1.9822179e-11,3.3067195e-11,4.0000004e-06,4.0000004e-06,5.000018e-08,0.0,0.0,0.0,0.0,0.0,0.0,0.0,0.0,24
206840018,206837735,0.9976773,0.026595272,0.009217567,0.06202943,0.00037557638,0.0071891234,-0.124043256,0.0006833304,0.003540712,4.4152207,1.3829421e-06,-7.3087663e-06,1.3583751e-06,0.0,0.0,0.00041474562,0.28187284,-0.008982278,0.32060865,0.0,0.0,0.0,0.0,0.0,1.4683715e-07,3.7725815e-06,3.7913985e-06,3.5878395e-05,0.008245742,0.008245212,0.021428607,0.00494066,0.0049405685,0.2823122,1.981265e-11,1.9845106e-11,3.3065765e-11,4.0000004e-06,4.0000004e-06,5e-08,0.0,0.0,0.0,0.0,0.0,0.0,0.0,0.0,24
207840245,207838223,0.9976469,0.025689544,0.009216835,0.06289552,0.002854476,0.008583316,-0.130742,0.0025022412,0.010254053,4.288168,1.4056632e-06,-7.3120314e-06,1.4199462e-06,0.0,0.0,0.00041473174,0.28187284,-0.008982278,0.32060865,0.0,0.0,0.0,0.0,0.0,1.5150613e-07,4.3548307e-06,4.3720925e-06,3.589675e-05,0.013363277,0.013362618,0.021621866,0.021059172,0.021058647,0.28639787,2.0361643e-11,2.0393033e-11,3.3074862e-11,4.0000004e-06,4.0000004e-06,5.0000203e-08,0.0,0.0,0.0,0.0,0.0,0.0,0.0,0.0,24
208840550,208838704,0.9976495,0.026330004,0.00897269,0.06262466,0.012201001,0.007864676,-0.13976696,0.005227658,0.011324014,4.152258,1.4587939e-06,-7.3404112e-06,1.4623502e-06,0.0,0.0,0.00041470322,0.28187284,-0.008982278,0.32060865,0.0,0.0,0.0,0.0,0.0,1.508679e-07,4.291956e-06,4.3109258e-06,3.5971385e-05,0.014165415,0.014164837,0.021502921,0.03758388,0.037583433,0.28385586,2.026723e-11,2.0299411e-11,3.310061e-11,4.0000004e-06,4.0000004e-06,5.000009e-08,0.0,0.0,0.0,0.0,0.0,0.0,0.0,0.0,24
209851290,209849193,0.99780995,0.026079776,0.00903417,0.06011453,0.013932102,0.001143836,-0.15240672,0.010131898,0.008572698,4.0054984,1.5018926e-06,-7.380143e-06,1.5316889e-06,0.0,0.0,0.0004146833,0.28187284,-0.008982278,0.32060865,0.0,0.0,0.0,0.0,0.0,1.398063e-07,4.1896647e-06,4.2083034e-06,3.5969388e-05,0.013146552,0.013145792,0.021440512,0.042808738,0.042808518,0.28254074,2.0187468e-11,2.0220168e-11,3.3094492e-11,4.0000004e-06,4.0000004e-06,5e-08,0.0,0.0,0.0,0.0,0.0,0.0,0.0,0.0,24
210841863,210839673,0.9973368,0.027612694,0.009585577,0.06682096,0.02045628,-0.001626942,-0.15904686,0.008382622,0.00480391,3.8538346,1.5239517e-06,-7.422998e-06,1.5914741e-06,0.0,0.0,0.0004146764,0.28187284,-0.008982278,0.32060865,0.0,0.0,0.0,0.0,0.0,1.7163825e-07,4.252166e-06,4.27343e-06,3.5923786e-05,0.012873808,0.012872933,0.021574588,0.042102333,0.04210203,0.28538516,2.0276699e-11,2.0309341e-11,3.3089406e-11,4.0000004e-06,4.0000004e-06,5.0000192e-08,0.0,0.0,0.0,0.0,0.0,0.0,0.0,0.0,24
211841956,211840160,0.99739367,0.026022047,0.009248742,0.06665712,0.0039136116,-0.0032413246,-0.1658704,0.008223359,0.00071746536,3.6899223,1.5281404e-06,-7.462668e-06,1.6305283e-06,0.0,0.0,0.00041506573,0.28187284,-0.008982278,0.32060865,0.0,0.0,0.0,0.0,0.0,1.7076738e-07,4.392938e-06,4.4114427e-06,3.5944442e-05,0.013535716,0.013534886,0.021456052,0.04153273,0.041532323,0.2828648,2.0423744e-11,2.0456177e-11,3.309534e-11,4.0000004e-06,4.0000004e-06,5.000009e-08,0.0,0.0,0.0,0.0,0.0,0.0,0.0,0.0,24
212842313,212840647,0.99731064,0.02690575,0.010764857,0.067318924,-0.02984245,-0.0053897887,-0.1780025,0.0027525253,-0.0005834239,3.5186067,1.5244224e-06,-7.474302e-06,1.6858668e-06,0.0,0.0,0.00041507048,0.28187284,-0.008982278,0.32060865,0.0,0.0,0.0,0.0,0.0,1.7477947e-07,4.500991e-06,4.520093e-06,3.595432e-05,0.014391626,0.014391184,0.021647723,0.041704264,0.041703865,0.28694078,2.0521067e-11,2.0553417e-11,3.310035e-11,4.0000004e-06,4.0000004e-06,5.0000256e-08,0.0,0.0,0.0,0.0,0.0,0.0,0.0,0.0,24
213842840,213841134,0.99747866,0.026722005,0.010375281,0.0649197,0.01081337,-0.0006173538,-0.18572903,0.005917971,-0.0010140896,3.336805,1.5167224e-06,-7.4922777e-06,1.7516242e-06,0.0,0.0,0.00041508029,0.28187284,-0.008982278,0.32060865,0.0,0.0,0.0,0.0,0.0,1.6348729e-07,4.5450356e-06,4.5642105e-06,3.598073e-05,0.01499603,0.014995442,0.021525262,0.04228195,0.04228164,0.2843622,2.05514e-11,2.0583812e-11,3.3104647e-11,4.0000004e-06,4.0000004e-06,5.000009e-08,0.0,0.0,0.0,0.0,0.0,0.0,0.0,0.0,24
214843769,214841622,0.99838036,0.0257878,0.008732245,0.049954113,0.025895752,0.0062637017,-0.20066592,0.012259054,-9.323615e-06,3.1442297,1.5066844e-06,-7.529332e-06,1.8196164e-06,0.0,0.0,0.00041509751,0.28187284,-0.008982278,0.32060865,0.0,0.0,0.0,0.0,0.0,1.0014971e-07,4.5451766e-06,4.563916e-06,3.6059875e-05,0.015267752,0.015267216,0.021406163,0.04280346,0.042803258,0.28183872,2.0543178e-11,2.0575685e-11,3.3108346e-11,4.0000004e-06,4.0000004e-06,5e-08,0.0,0.0,0.0,0.0,0.0,0.0,0.0,0.0,24
215843769,215842115,0.9986733,0.025999881,0.007927366,0.04373582,-0.015419028,0.014491906,-0.20990215,0.0056047826,0.0055734497,2.9389048,1.5151749e-06,-7.5711305e-06,1.8983003e-06,0.0,0.0,0.0004151015,0.28187284,-0.008982278,0.32060865,0.0,0.0,0.0,0.0,0.0,7.884747e-08,4.532505e-06,4.552259e-06,3.6093086e-05,0.015314071,0.015313608,0.021600092,0.04308299,0.043082844,0.28592122,2.0528622e-11,2.0561119e-11,3.31113e-11,4.0000004e-06,4.0000004e-06,5.000015e-08,0.0,0.0,0.0,0.0,0.0,0.0,0.0,0.0,24
216844182,216842599,0.998477,0.026465531,0.009467075,0.047473066,0.015383655,0.017104931,-0.21603486,0.0077133537,0.011885583,2.7262285,1.5555142e-06,-7.606158e-06,1.9893782e-06,0.0,0.0,0.00041507898,0.28187284,-0.008982278,0.32060865,0.0,0.0,0.0,0.0,0.0,9.2066074e-08,4.526232e-06,4.5458414e-06,3.608942e-05,0.015281109,0.015280498,0.021481546,0.043160684,0.043160513,0.2833953,2.052351e-11,2.0555878e-11,3.311396e-11,4.0000004e-06,4.0000004e-06,5.000009e-08,0.0,0.0,0.0,0.0,0.0,0.0,0.0,0.0,24
217844938,217843088,0.998243,0.02440719,0.008512131,0.053318325,0.018766325,0.021312946,-0.22540256,0.007961408,0.015877185,2.5030978,1.6175075e-06,-7.650812e-06,2.0617329e-06,0.0,0.0,0.00041504268,0.28187284,-0.008982278,0.32060865,0.0,0.0,0.0,0.0,0.0,1.1361449e-07,4.5277916e-06,4.5443285e-06,3.6081634e-05,0.0152554065,0.015254769,0.02167411,0.043148417,0.043148205,0.28748196,2.0528476e-11,2.056063e-11,3.311663e-11,4.0000004e-06,4.0000004e-06,5.0000263e-08,0.0,0.0,0.0,0.0,0.0,0.0,0.0,0.0,24
218845659,218843607,0.9982554,0.025157986,0.008173787,0.052786898,0.003990827,0.018531825,-0.23405385,0.009363803,0.017082669,2.2722392,1.693087e-06,-7.699353e-06,2.1088676e-06,0.0,0.0,0.00041499958,0.28187284,-0.008982278,0.32060865,0.0,0.0,0.0,0.0,0.0,1.11568e-07,4.5342513e-06,4.552357e-06,3.6034682e-05,0.015255407,0.015254765,0.021557363,0.043122414,0.043122176,0.2849669,2.0538135e-11,2.0569942e-11,3.309819e-11,4.0000004e-06,4.0000004e-06,5.0000097e-08,0.0,0.0,0.0,0.0,0.0,0.0,0.0,0.0,24
219845928,219844072,0.9979507,0.022487575,0.008564497,0.05929235,0.042753663,0.014507134,-0.23929305,0.013327415,0.016416926,2.033271,1.7675221e-06,-7.757612e-06,2.1416251e-06,0.0,0.0,0.00041496023,0.28187284,-0.008982278,0.32060865,0.0,0.0,0.0,0.0,0.0,1.3796031e-07,4.5427623e-06,4.5559996e-06,3.602322e-05,0.015270889,0.015270274,0.02143821,0.043114163,0.04311392,0.28244388,2.0547515e-11,2.0579023e-11,3.3101973e-11,4.0000004e-06,4.0000004e-06,5e-08,0.0,0.0,0.0,0.0,0.0,0.0,0.0,0.0,24
220846203,220844557,0.9977751,0.022453668,0.009205905,0.06209646,0.011060663,0.011855211,-0.25308418,0.015274318,0.014604868,1.7851454,1.833006e-06,-7.846788e-06,2.1685596e-06,0.0,0.0,0.00041493244,0.28187284,-0.008982278,0.32060865,0.0,0.0,0.0,0.0,0.0,1.5048104e-07,4.5490683e-06,4.5619804e-06,3.6022022e-05,0.015296909,0.015296253,0.02163144,0.043124203,0.043123912,0.28652313,2.0554149e-11,2.0585351e-11,3.3105955e-11,4.0000004e-06,4.0000004e-06,5.0000292e-08,0.0,0.0,0.0,0.0,0.0,0.0,0.0,0.0,24
221847019,221845048,0.99767107,0.022985082,0.008526907,0.06365138,0.0049940166,0.013088389,-0.26413715,0.011369847,0.013780866,1.5275395,1.8923112e-06,-7.917797e-06,2.1964336e-06,0.0,0.0,0.00041491096,0.28187284,-0.008982278,0.32060865,0.0,0.0,0.0,0.0,0.0,1.5742624e-07,4.5519264e-06,4.566392e-06,3.5968173e-05,0.015315767,0.015315159,0.021511303,0.043141693,0.043141447,0.28396466,2.0557694e-11,2.058857e-11,3.3088938e-11,4.0000004e-06,4.0000004e-06,5.0000093e-08,0.0,0.0,0.0,0.0,0.0,0.0,0.0,0.0,24
222847552,222845539,0.99758744,0.023331497,0.009490327,0.06469166,0.008644385,0.00973144,-0.2720195,0.012587504,0.013718409,1.2593307,1.9518602e-06,-7.981741e-06,2.2352938e-06,0.0,0.0,0.00041489254,0.28187284,-0.008982278,0.32060865,0.0,0.0,0.0,0.0,0.0,1.6249766e-07,4.5538773e-06,4.568402e-06,3.597323e-05,0.015324372,0.015323816,0.021707578,0.04315783,0.043157548,0.28811204,2.055907e-11,2.0589577e-11,3.3092987e-11,4.0000004e-06,4.0000004e-06,5.00004e-08,0.0,0.0,0.0,0.0,0.0,0.0,0.0,0.0,24
223847946,223846032,0.9974604,0.02597102,0.009665938,0.06561117,0.023640718,0.013673658,-0.28378513,0.014076143,0.012735521,0.98002666,2.0082573e-06,-8.051115e-06,2.2785698e-06,0.0,0.0,0.00041487828,0.28187284,-0.008982278,0.32060865,0.0,0.0,0.0,0.0,0.0,1.6754569e-07,4.5537154e-06,4.5728966e-06,3.597572e-05,0.015329798,0.015329243,0.021586386,0.043168757,0.04316848,0.2855443,2.0559318e-11,2.0589362e-11,3.3097188e-11,4.0000004e-06,4.0000004e-06,5.000021e-08,0.0,0.0,0.0,0.0,0.0,0.0,0.0,0.0,24
224848627,224846525,0.99882704,0.023300467,0.005897533,0.042034417,0.017286275,0.012041715,-0.3012768,0.011381338,0.011295424,0.68507856,2.057069e-06,-8.119668e-06,2.3404675e-06,0.0,0.0,0.00041486582,0.28187284,-0.008982278,0.32060865,0.0,0.0,0.0,0.0,0.0,7.2869014e-08,4.5519596e-06,4.568633e-06,3.60309e-05,0.015335508,0.015334978,0.021463787,0.043176822,0.04317658,0.28297377,2.0559042e-11,2.058856e-11,3.3081357e-11,4.0000004e-06,4.0000004e-06,5.000009e-08,0.0,0.0,0.0,0.0,0.0,0.0,0.0,0.0,24
225848889,225847018,0.9985135,0.027511787,0.00882761,0.046216212,0.040925644,0.019349901,-0.3138983,0.018492503,0.012977114,0.37935165,2.1059393e-06,-8.186268e-06,2.4513265e-06,0.0,0.0,0.00041484777,0.28187284,-0.008982278,0.32060865,0.0,0.0,0.0,0.0,0.0,8.812095e-08,4.552061e-06,4.574674e-06,3.6025176e-05,0.0153351845,0.015334669,0.021657739,0.04317844,0.043178227,0.28709003,2.0558727e-11,2.058768e-11,3.308788e-11,4.0000004e-06,4.0000004e-06,5.0000267e-08,0.0,0.0,0.0,0.0,0.0,0.0,0.0,0.0,24
226849409,226847512,0.9983349,0.027210156,0.009436754,0.049979165,0.036675256,0.014955311,-0.3253732,0.028197551,0.0139381,0.059189036,2.1561734e-06,-8.30828e-06,2.5572044e-06,0.0,0.0,0.0004148332,0.28187284,-0.008982278,0.32060865,0.0,0.0,0.0,0.0,0.0,1.01870576e-07,4.552285e-06,4.573433e-06,3.602662e-05,0.01533334,0.015332819,0.021536626,0.043179315,0.04317912,0.28453806,2.055868e-11,2.0586957e-11,3.3094374e-11,4.0000004e-06,4.0000004e-06,5.000009e-08,0.0,0.0,0.0,0.0,0.0,0.0,0.0,0.0,24
227840156,227838002,0.99812084,0.027192028,0.010236081,0.053951968,0.04210568,0.02258849,-0.33655754,0.03385017,0.014601189,-0.26935124,2.206137e-06,-8.465533e-06,2.6691719e-06,0.0,0.0,0.0004148204,0.28187284,-0.008982278,0.32060865,0.0,0.0,0.0,0.0,0.0,1.1754167e-07,4.5422717e-06,4.5622824e-06,3.5996985e-05,0.015238105,0.015237564,0.021668524,0.04277523,0.042775065,0.28737688,2.05489e-11,2.0576497e-11,3.309005e-11,4.0000004e-06,4.0000004e-06,5.0000207e-08,0.0,0.0,0.0,0.0,0.0,0.0,0.0,0.0,24
228840593,228838498,0.99786496,0.027886098,0.011384322,0.05795208,0.028653124,0.014787167,-0.35156193,0.033341065,0.014867218,-0.61030483,2.25895e-06,-8.636441e-06,2.769882e-06,0.0,0.0,0.00041440598,0.28187284,-0.008982278,0.32060865,0.0,0.0,0.0,0.0,0.0,1.3471929e-07,4.5431207e-06,4.563053e-06,3.5992114e-05,0.015240438,0.015239827,0.021549234,0.04277419,0.042774025,0.28484908,2.0549354e-11,2.0576374e-11,3.309558e-11,4.0000004e-06,4.0000004e-06,5.0000004e-08,0.0,0.0,0.0,0.0,0.0,0.0,0.0,0.0,24
229841337,229838993,0.997083,0.028945023,0.010111332,0.06989678,0.035887837,0.013878305,-0.36719394,0.037198532,0.01543537,-0.9529997,2.313343e-06,-8.810442e-06,2.831852e-06,0.0,0.0,0.00041104425,0.28187284,-0.008982278,0.32060865,0.0,0.0,0.0,0.0,0.0,1.9142409e-07,4.5418897e-06,4.5644483e-06,3.5949342e-05,0.015245236,0.0152445175,0.021428142,0.042776912,0.04277673,0.28231654,2.0549585e-11,2.057626e-11,3.3101095e-11,4.0000004e-06,4.0000004e-06,5e-08,0.0,0.0,0.0,0.0,0.0,0.0,0.0,0.0,24
230851099,230849496,0.9976993,0.02691663,0.01108363,0.061226625,0.03814151,0.00983942,-0.35683295,0.026806798,0.012024485,-1.2274315,2.3597402e-06,-8.965877e-06,2.8430015e-06,0.0,0.0,0.00039366217,0.28187284,-0.008982278,0.32060865,0.0,0.0,0.0,0.0,0.0,1.484679e-07,4.55346e-06,4.5709426e-06,3.597975e-05,0.015334176,0.015333344,0.021677746,0.04318138,0.04318113,0.28762746,2.055956e-11,2.058615e-11,3.309627e-11,4.0000004e-06,4.0000004e-06,5.0000253e-08,0.0,0.0,0.0,0.0,0.0,0.0,0.0,0.0,24
231842237,231839987,0.99777025,0.026095273,0.009426243,0.060702812,-0.008824363,0.007567909,-0.337863,0.016137023,0.011404209,-1.4186791,2.399335e-06,-9.0744115e-06,2.8363281e-06,0.0,0.0,0.0003646705,0.28187284,-0.008982278,0.32060865,0.0,0.0,0.0,0.0,0.0,1.4522044e-07,4.541845e-06,4.558937e-06,3.5973222e-05,0.015240095,0.015239293,0.021496434,0.042777583,0.042777244,0.28379187,2.0549527e-11,2.057638e-11,3.309204e-11,4.0000004e-06,4.0000004e-06,5e-08,0.0,0.0,0.0,0.0,0.0,0.0,0.0,0.0,24
232842853,232840485,0.9975994,0.029118411,0.008546757,0.062244475,0.0077056913,0.017109336,-0.3041964,0.014583957,0.0142407585,-1.5669535,2.447748e-06,-9.1539205e-06,2.8511877e-06,0.0,0.0,0.00033254243,0.28187284,-0.008982278,0.32060865,0.0,0.0,0.0,0.0,0.0,1.5242269e-07,4.540838e-06,4.5642046e-06,3.5920428e-05,0.015232524,0.015231595,0.021692183,0.042773083,0.04277264,0.28792858,2.0549795e-11,2.0576976e-11,3.3077138e-11,4.0000004e-06,4.0000004e-06,5.0000292e-08,0.0,0.0,0.0,0.0,0.0,0.0,0.0,0.0,24
233843086,233840983,0.9981307,0.023677997,0.009239956,0.055580903,0.020073012,0.021562463,-0.26393905,0.01127132,0.017313834,-1.6298906,2.5126303e-06,-9.224953e-06,2.8481063e-06,0.0,0.0,0.0002911883,0.28187284,-0.008982278,0.32060865,0.0,0.0,0.0,0.0,0.0,1.2189912e-07,4.5432057e-06,4.55605e-06,3.597524e-05,0.0152312685,0.015230353,0.021572392,0.042768996,0.042768564,0.28536373,2.0550325e-11,2.057797e-11,3.3083963e-11,4.0000004e-06,4.0000004e-06,5.000013e-08,0.0,0.0,0.0,0.0,0.0,0.0,0.0,0.0,24
234843417,234841482,0.99818784,0.024206784,0.008530945,0.05442826,0.010581954,0.022638971,-0.22177815,0.012851452,0.02028258,-1.6508616,2.591168e-06,-9.298127e-06,2.8485792e-06,0.0,0.0,0.0002496728,0.28187284,-0.008982278,0.32060865,0.0,0.0,0.0,0.0,0.0,1.16999644e-07,4.5433326e-06,4.5577513e-06,3.5997396e-05,0.015231025,0.01523028,0.021452421,0.042766653,0.04276619,0.28280276,2.0550808e-11,2.0578999e-11,3.309091e-11,4.0000004e-06,4.0000004e-06,5e-08,0.0,0.0,0.0,0.0,0.0,0.0,0.0,0.0,24
235844414,235841982,0.9977728,0.02562946,0.010285667,0.060720127,0.008888338,0.02242563,-0.17724407,0.013437493,0.023036504,-1.6652993,2.6851142e-06,-9.37599e-06,2.8427635e-06,0.0,0.0,0.00021512645,0.28187284,-0.008982278,0.32060865,0.0,0.0,0.0,0.0,0.0,1.4356151e-07,4.5448437e-06,4.5606407e-06,3.5927074e-05,0.015224282,0.01522362,0.021648126,0.042763315,0.04276294,0.28692093,2.0551215e-11,2.0579852e-11,3.3076274e-11,4.0000004e-06,4.0000004e-06,5.0000278e-08,0.0,0.0,0.0,0.0,0.0,0.0,0.0,0.0,24
236844524,236842478,0.9977285,0.02625122,0.010345368,0.06116893,0.006080793,0.025416594,-0.13186073,0.009476421,0.024486344,-1.6504785,2.7888927e-06,-9.442908e-06,2.8757354e-06,0.0,0.0,0.00018383525,0.28187284,-0.008982278,0.32060865,0.0,0.0,0.0,0.0,0.0,1.4567854e-07,4.5455236e-06,4.5626102e-06,3.594195e-05,0.015217535,0.015216856,0.021529173,0.042757735,0.042757414,0.28438282,2.0551838e-11,2.058085e-11,3.3083404e-11,4.0000004e-06,4.0000004e-06,5.00001e-08,0.0,0.0,0.0,0.0,0.0,0.0,0.0,0.0,24
237845543,237842982,0.99773145,0.026274659,0.010364454,0.06110828,0.0011043543,0.01738619,-0.09409649,0.00082056574,0.004333353,-1.6189953,3.001263e-06,-9.531582e-06,2.917161e-06,0.0,0.0,0.00015679399,0.28187284,-0.008982278,0.32060865,0.0,0.0,0.0,0.0,0.0,1.4475816e-07,3.6962751e-06,3.7136956e-06,3.595932e-05,0.0073059043,0.0073053553,0.02140863,0.0050753695,0.0050753574,0.28184223,1.975775e-11,1.9788967e-11,3.308818e-11,4.0000004e-06,4.0000004e-06,5e-08,0.0,0.0,0.0,0.0,0.0,0.0,0.0,0.0,24
238845704,238843491,0.9977035,0.02623099,0.010417602,0.06157345,0.002322946,0.017823355,-0.06115755,0.00073493895,0.0074146083,-1.59669,3.2002997e-06,-9.5751075e-06,2.9744078e-06,0.0,0.0,0.00013798664,0.28187284,-0.008982278,0.32060865,0.0,0.0,0.0,0.0,0.0,1.4673122e-07,3.3884758e-06,3.4057914e-06,3.5972233e-05,0.006238938,0.006238426,0.02159991,0.003302053,0.0033019944,0.28590387,1.9396134e-11,1.9428015e-11,3.309305e-11,4.0000004e-06,4.0000004e-06,5.000007e-08,0.0,0.0,0.0,0.0,0.0,0.0,0.0,0.0,24
239846267,239843986,0.99771166,0.026029252,0.010404608,0.061528493,0.001304855,0.012073408,-0.03567648,0.0009224906,0.0066335406,-1.5864439,3.4200036e-06,-9.626129e-06,3.032269e-06,0.0,0.0,0.00012691692,0.28187284,-0.008982278,0.32060865,0.0,0.0,0.0,0.0,0.0,1.4611534e-07,3.0465528e-06,3.0634803e-06,3.5931113e-05,0.004456898,0.0044563776,0.02148134,0.0031635906,0.0031635305,0.28338164,1.9031311e-11,1.9063747e-11,3.3077537e-11,4.0000004e-06,4.0000004e-06,5e-08,0.0,0.0,0.0,0.0,0.0,0.0,0.0,0.0,24
240846890,240844488,0.99768376,0.026015503,0.010415974,0.061983205,0.0043770554,0.008246153,-0.021834655,0.0017406547,0.005093449,-1.6011606,3.5698138e-06,-9.676943e-06,3.1013506e-06,0.0,0.0,0.0001242997,0.28187284,-0.008982278,0.32060865,0.0,0.0,0.0,0.0,0.0,1.4832733e-07,2.9972362e-06,3.0141614e-06,3.5945017e-05,0.003972939,0.0039723488,0.02167382,0.0029786043,0.0029785214,0.2874779,1.8987902e-11,1.9020334e-11,3.308357e-11,4.0000004e-06,4.0000004e-06,5.0000235e-08,0.0,0.0,0.0,0.0,0.0,0.0,0.0,0.0,24
241847339,241844991,0.9977029,0.02610676,0.0104385875,0.061630633,0.0038574403,0.0067868447,-0.0073203607,0.0020131355,0.003963679,-1.6078858,3.6769459e-06,-9.738634e-06,3.1707825e-06,0.0,0.0,0.00012286549,0.28187284,-0.008982278,0.32060865,0.0,0.0,0.0,0.0,0.0,1.4691504e-07,2.9933863e-06,3.0105589e-06,3.5961526e-05,0.003936205,0.0039356006,0.02155281,0.0029261743,0.0029260763,0.2849143,1.8979516e-11,1.9012025e-11,3.3088966e-11,4.0000004e-06,4.0000004e-06,5.0000057e-08,0.0,0.0,0.0,0.0,0.0,0.0,0.0,0.0,24
242848039,242845494,0.997776,0.026846122,0.010594537,0.06008575,0.0033378971,0.009535727,0.003511848,0.0034822999,0.0066333497,-1.6096247,3.7342372e-06,-9.777302e-06,3.2340924e-06,0.0,0.0,0.00012281969,0.28187284,-0.008982278,0.32060865,0.0,0.0,0.0,0.0,0.0,1.4053758e-07,3.320878e-06,3.3393899e-06,3.5981997e-05,0.005684851,0.005684,0.021436198,0.0055835214,0.0055832015,0.28242788,1.9331658e-11,1.9363493e-11,3.3095134e-11,4.0000004e-06,4.0000004e-06,5e-08,0.0,0.0,0.0,0.0,0.0,0.0,0.0,0.0,24
243848314,243846005,0.9977564,0.0261064,0.010160725,0.060806964,0.04810415,0.020423241,0.022512337,0.0066381358,0.017089333,-1.6007249,3.7675718e-06,-9.794106e-06,3.2931575e-06,0.0,0.0,0.00012279919,0.28187284,-0.008982278,0.32060865,0.0,0.0,0.0,0.0,0.0,1.4397328e-07,3.961954e-06,3.9793654e-06,3.593752e-05,0.010196537,0.010195547,0.021629987,0.018952629,0.018951314,0.2865379,1.9978894e-11,2.0009295e-11,3.3080903e-11,4.0000004e-06,4.0000004e-06,5.000029e-08,0.0,0.0,0.0,0.0,0.0,0.0,0.0,0.0,24
244848901,244846503,0.9976997,0.02596182,0.010484562,0.061736815,0.0017275021,0.016956335,0.028353019,0.00845596,0.022207316,-1.5786754,3.8538674e-06,-9.839645e-06,3.3548613e-06,0.0,0.0,0.0001227456,0.28187284,-0.008982278,0.32060865,0.0,0.0,0.0,0.0,0.0,1.484012e-07,4.1270728e-06,4.144049e-06,3.5949568e-05,0.012314153,0.01231318,0.021508988,0.033642836,0.033641417,0.2839764,2.0114643e-11,2.014479e-11,3.3087342e-11,4.0000004e-06,4.0000004e-06,5.000006e-08,0.0,0.0,0.0,0.0,0.0,0.0,0.0,0.0,24
245849224,245847008,0.997718,0.025903972,0.0105302725,0.061458074,-0.00086095557,0.006730081,0.041087665,0.0012558585,0.004058776,-1.543753,4.024377e-06,-9.916389e-06,3.431257e-06,0.0,0.0,0.00012263688,0.28187284,-0.008982278,0.32060865,0.0,0.0,0.0,0.0,0.0,1.4667748e-07,3.2960365e-06,3.3131105e-06,3.596387e-05,0.005430964,0.0054302905,0.021703431,0.008259866,0.008259829,0.2881094,1.9316817e-11,1.9348783e-11,3.3089705e-11,4.0000004e-06,4.0000004e-06,5e-08,0.0,0.0,0.0,0.0,0.0,0.0,0.0,0.0,24
246849563,246847513,0.99773717,0.025970925,0.0104686115,0.06112694,-0.00063129846,0.0079496885,0.053177815,0.000143263,0.0033121638,-1.4969354,4.1023627e-06,-9.931058e-06,3.5169464e-06,0.0,0.0,0.0001225841,0.28187284,-0.008982278,0.32060865,0.0,0.0,0.0,0.0,0.0,1.4550245e-07,3.3302517e-06,3.3475278e-06,3.59789e-05,0.0054738,0.005473087,0.02158545,0.0030828225,0.003082734,0.28558326,1.9347572e-11,1.9379458e-11,3.309449e-11,4.0000004e-06,4.0000004e-06,5.0000132e-08,0.0,0.0,0.0,0.0,0.0,0.0,0.0,0.0,24
247850299,247848019,0.9977053,0.025639357,0.010478047,0.06178201,0.0002119209,0.005390135,0.06359194,-0.00012987413,0.0029906745,-1.4389026,4.2024135e-06,-9.935268e-06,3.5923806e-06,0.0,0.0,0.00012251337,0.28187284,-0.008982278,0.32060865,0.0,0.0,0.0,0.0,0.0,1.4817665e-07,3.0557705e-06,3.0724846e-06,3.5933397e-05,0.004567482,0.0045669703,0.021465315,0.0031127073,0.0031126253,0.28304577,1.9024605e-11,1.905724e-11,3.3077936e-11,4.0000004e-06,4.0000004e-06,5e-08,0.0,0.0,0.0,0.0,0.0,0.0,0.0,0.0,24
248840455,248838521,0.99771434,0.025907952,0.010427315,0.061531737,0.0008018901,0.003546168,0.071871616,0.00021825997,0.003174202,-1.3723404,4.263599e-06,-9.937304e-06,3.6581666e-06,0.0,0.0,0.0001224707,0.28187284,-0.008982278,0.32060865,0.0,0.0,0.0,0.0,0.0,1.4739182e-07,3.1344412e-06,3.1518e-06,3.5978846e-05,0.0049013845,0.0049007176,0.021598842,0.00420003,0.0041998816,0.28589058,1.9118783e-11,1.9151332e-11,3.309431e-11,4.0000004e-06,4.0000004e-06,5.000027e-08,0.0,0.0,0.0,0.0,0.0,0.0,0.0,0.0,24
249840714,249839033,0.9977069,0.0259198,0.010423743,0.061649334,0.0052596126,0.0042949393,0.08122905,0.0016508528,0.00241766,-1.2965002,4.3106434e-06,-9.95445e-06,3.7133698e-06,0.0,0.0,0.00012244207,0.28187284,-0.008982278,0.32060865,0.0,0.0,0.0,0.0,0.0,1.4795955e-07,3.1285977e-06,3.1460975e-06,3.599367e-05,0.004747302,0.004746586,0.021480411,0.0040649637,0.00406479,0.2833735,1.9119064e-11,1.9151774e-11,3.3099905e-11,4.0000004e-06,4.0000004e-06,5.0000093e-08,0.0,0.0,0.0,0.0,0.0,0.0,0.0,0.0,24
250841628,250839535,0.99769485,0.02586024,0.010427636,0.061868187,0.0042262217,0.005990243,0.09225858,0.0029918733,0.0032050223,-1.2096771,4.3576592e-06,-1.00021525e-05,3.7898456e-06,0.0,0.0,0.0001224206,0.28187284,-0.008982278,0.32060865,0.0,0.0,0.0,0.0,0.0,1.488863e-07,3.1317938e-06,3.1492054e-06,3.5947887e-05,0.0047511393,0.004750446,0.021673128,0.0040472434,0.0040470646,0.28747225,1.9121836e-11,1.9154565e-11,3.3083012e-11,4.0000004e-06,4.0000004e-06,5.000036e-08,0.0,0.0,0.0,0.0,0.0,0.0,0.0,0.0,24
251841816,251840043,0.99772644,0.025588518,0.01037193,0.06147993,0.0018236809,0.006258818,0.10069591,0.0053842943,0.006170775,-1.1131111,4.3816704e-06,-1.0026314e-05,3.881847e-06,0.0,0.0,0.0001224097,0.28187284,-0.008982278,0.32060865,0.0,0.0,0.0,0.0,0.0,1.477486e-07,3.635975e-06,3.6529561e-06,3.5964862e-05,0.0077089546,0.007707948,0.021550898,0.010077755,0.010077074,0.28488824,1.96564e-11,1.9687947e-11,3.3089805e-11,4.0000004e-06,4.0000004e-06,5.0000178e-08,0.0,0.0,0.0,0.0,0.0,0.0,0.0,0.0,24
252842618,252840551,0.99770784,0.025941487,0.01039096,0.06163004,0.0065891515,0.009713248,0.11256454,0.009203178,0.010919856,-1.0068812,4.4030803e-06,-1.0049474e-05,3.884732e-06,0.0,0.0,0.00012239983,0.28187284,-0.008982278,0.32060865,0.0,0.0,0.0,0.0,0.0,1.4855839e-07,4.201935e-06,4.2195543e-06,3.597819e-05,0.012314776,0.012313607,0.021433331,0.027978025,0.027976325,0.28238466,2.0206286e-11,2.0236611e-11,3.309616e-11,4.0000004e-06,4.0000004e-06,5e-08,0.0,0.0,0.0,0.0,0.0,0.0,0.0,0.0,24
253842781,253841059,0.99771595,0.025532722,0.010286303,0.06168678,0.010227808,0.013437955,0.12142359,0.011550258,0.013931239,-0.8899196,4.4480207e-06,-1.0099936e-05,3.8452677e-06,0.0,0.0,0.00012237906,0.28187284,-0.008982278,0.32060865,0.0,0.0,0.0,0.0,0.0,1.4810914e-07,4.309469e-06,4.3264604e-06,3.599234e-05,0.013971094,0.013970093,0.021626847,0.043068018,0.043066613,0.2864811,2.0289983e-11,2.0320138e-11,3.3100633e-11,4.0000004e-06,4.0000004e-06,5.0000363e-08,0.0,0.0,0.0,0.0,0.0,0.0,0.0,0.0,24
254843513,254841569,0.99767244,0.02612799,0.010247167,0.062146023,0.011916424,0.011650473,0.12902217,0.012010107,0.014927756,-0.76530015,4.501429e-06,-1.015797e-05,3.7816e-06,0.0,0.0,0.00012235343,0.28187284,-0.008982278,0.32060865,0.0,0.0,0.0,0.0,0.0,1.4928493e-07,4.326818e-06,4.3449345e-06,3.5947014e-05,0.014046169,0.014045173,0.021507122,0.048000246,0.047999375,0.2839387,2.0316885e-11,2.034694e-11,3.3084945e-11,4.0000004e-06,4.0000004e-06,5.000018e-08,0.0,0.0,0.0,0.0,0.0,0.0,0.0,0.0,24
255843748,255842078,0.9977001,0.02634919,0.010071304,0.061634224,0.01596824,0.01669352,0.14026299,0.014473284,0.01642191,-0.63126373,4.5537445e-06,-1.021285e-05,3.8250846e-06,0.0,0.0,0.0001223277,0.28187284,-0.008982278,0.32060865,0.0,0.0,0.0,0.0,0.0,1.4708387e-07,4.4289327e-06,4.4475573e-06,3.596592e-05,0.014425773,0.014424655,0.021699147,0.048501834,0.048501097,0.28803438,2.0433103e-11,2.046285e-11,3.3091873e-11,4.0000004e-06,4.0000004e-06,5.000045e-08,0.0,0.0,0.0,0.0,0.0,0.0,0.0,0.0,24
256844252,256842588,0.9976748,0.026555512,0.00997221,0.061971273,0.018777022,0.020025855,0.14990766,0.017800087,0.019785736,-0.4863013,4.613002e-06,-1.0277552e-05,3.8941084e-06,0.0,0.0,0.00012229802,0.28187284,-0.008982278,0.32060865,0.0,0.0,0.0,0.0,0.0,1.4871418e-07,4.560546e-06,4.5794814e-06,3.5924353e-05,0.015235196,0.015234053,0.021581555,0.04862852,0.04862769,0.2855087,2.0566882e-11,2.0596172e-11,3.3078505e-11,4.0000004e-06,4.0000004e-06,5.000027e-08,0.0,0.0,0.0,0.0,0.0,0.0,0.0,0.0,24
257845187,257843099,0.9976654,0.026509622,0.010042314,0.062131766,0.02282045,0.02322952,0.1604641,0.02104063,0.023373447,-0.33134356,4.685777e-06,-1.03595285e-05,3.9613374e-06,0.0,0.0,0.00012226039,0.28187284,-0.008982278,0.32060865,0.0,0.0,0.0,0.0,0.0,1.4945512e-07,4.658523e-06,4.677135e-06,3.5886114e-05,0.016058227,0.01605714,0.021461956,0.049228843,0.04922794,0.28297576,2.065753e-11,2.0686406e-11,3.3066223e-11,4.0000004e-06,4.0000004e-06,5.000009e-08,0.0,0.0,0.0,0.0,0.0,0.0,0.0,0.0,24
258845341,258843619,0.99763596,0.02597625,0.010035062,0.0628268,0.024414476,0.02449501,0.16865568,0.023942895,0.025943298,-0.16816446,4.7720478e-06,-1.045809e-05,4.0222153e-06,0.0,0.0,0.00012221502,0.28187284,-0.008982278,0.32060865,0.0,0.0,0.0,0.0,0.0,1.526537e-07,4.706056e-06,4.7235153e-06,3.5905563e-05,0.016616233,0.016615244,0.021652142,0.049999446,0.04999861,0.2870372,2.0696266e-11,2.072486e-11,3.3075678e-11,4.0000004e-06,4.0000004e-06,5.000036e-08,0.0,0.0,0.0,0.0,0.0,0.0,0.0,0.0,24
259846190,259844122,0.9976207,0.02579308,0.0100328345,0.063143186,0.025647493,0.023320187,0.17692842,0.026669908,0.026434219,0.005385229,4.8649435e-06,-1.0570336e-05,4.0930017e-06,0.0,0.0,0.00012216729,0.28187284,-0.008982278,0.32060865,0.0,0.0,0.0,0.0,0.0,1.540286e-07,4.7191484e-06,4.7361495e-06,3.5869263e-05,0.016878543,0.016877595,0.021534422,0.050582513,0.050581753,0.2845175,2.0704471e-11,2.0732813e-11,3.306428e-11,4.0000004e-06,4.0000004e-06,5.0000178e-08,0.0,0.0,0.0,0.0,0.0,0.0,0.0,0.0,24
260846586,260844661,0.9975385,0.026050804,0.010213095,0.06429667,0.026449507,0.023952415,0.18180826,0.02884314,0.026804404,0.18615054,4.958235e-06,-1.0693309e-05,4.162779e-06,0.0,0.0,0.00012212242,0.28187284,-0.008982278,0.32060865,0.0,0.0,0.0,0.0,0.0,1.5965382e-07,4.7201256e-06,4.7373883e-06,3.5885616e-05,0.016958933,0.016957982,0.021415086,0.050885286,0.050884582,0.28199282,2.070496e-11,2.0733129e-11,3.3073565e-11,4.0000004e-06,4.0000004e-06,5e-08,0.0,0.0,0.0,0.0,0.0,0.0,0.0,0.0,24
261847046,261845147,0.9976315,0.025479665,0.010105947,0.063089095,0.03196261,0.026006322,0.18597302,0.030942697,0.027045717,0.36973098,5.0511e-06,-1.0819682e-05,4.2594106e-06,0.0,0.0,0.00012208008,0.28187284,-0.008982278,0.32060865,0.0,0.0,0.0,0.0,0.0,1.542483e-07,4.7218077e-06,4.7380945e-06,3.5913854e-05,0.016969943,0.016968966,0.021606088,0.05099159,0.050990846,0.28605008,2.0708678e-11,2.0736666e-11,3.308241e-11,4.0000004e-06,4.0000004e-06,5.000027e-08,0.0,0.0,0.0,0.0,0.0,0.0,0.0,0.0,24
262847522,262845660,0.9950744,0.02131518,0.0037241015,0.0967401,1.1470966,0.20002903,0.15724954,0.32090253,0.05992929,0.5315238,5.1305533e-06,-1.1110537e-05,4.6917366e-06,0.0,0.0,0.00012676223,0.28187284,-0.008982278,0.32060865,0.0,0.0,0.0,0.0,0.0,3.536578e-07,4.725394e-06,4.73844e-06,3.574428e-05,0.017002713,0.017173463,0.02150351,0.05100988,0.051020086,0.283489,2.0716871e-11,2.0744462e-11,3.3088254e-11,4.0000004e-06,4.0000004e-06,5.000009e-08,0.0,0.0,0.0,0.0,0.0,0.0,0.0,0.0,24
263847874,263846174,0.9613384,0.03132142,0.0048406255,-0.2735399,6.4225,-3.557741,0.11021159,3.4775035,-0.36399487,0.47133544,5.2258583e-06,-1.25641645e-05,6.0298357e-06,2.9035013e-07,2.4895633e-07,0.00016228863,0.28187284,-0.008982278,0.32060865,0.0,0.0,0.0,0.0,0.0,2.6531825e-06,5.1585384e-06,5.188971e-06,3.3543103e-05,0.029889716,0.0336493,0.02229253,0.07434666,0.07588135,0.28769255,2.1123492e-11,2.1147133e-11,3.3086516e-11,4.000002e-06,4.000002e-06,5.000063e-08,0.0,0.0,0.0,0.0,0.0,0.0,0.0,0.0,24
264848666,264846689,0.9736408,0.09959716,0.11187394,-0.17201243,11.026648,-7.0997972,-2.7138977,11.876011,-6.812757,-0.5771609,5.0913427e-06,-1.27243875e-05,6.88812e-06,9.493409e-06,7.892285e-07,0.00016228303,0.28187284,-0.008982278,0.32060865,0.0,0.0,0.0,0.0,0.0,1.159929e-06,6.5422646e-06,6.4333767e-06,3.4587894e-05,0.07437593,0.08325922,0.021809302,0.19739144,0.20910972,0.28184423,2.2109627e-11,2.2130945e-11,3.308539e-11,3.9999136e-06,3.999959e-06,5.0007117e-08,0.0,0.0,0.0,0.0,0.0,0.0,0.0,0.0,24
265852543,265847205,0.9704099,-0.08068683,0.18744434,-0.12906916,13.162702,-8.433167,-5.8215237,24.595179,-14.455759,-3.8916771,4.5198367e-06,-1.34785105e-05,7.088084e-06,0.0002689236,-1.8150735e-05,0.00016489986,0.30970654,0.012666777,0.30066663,0.0010537368,-0.009217105,-0.024241777,0.0,0.0,9.0599946e-07,8.398481e-06,7.338014e-06,3.680803e-05,0.19545703,0.21289085,0.025528146,0.53492826,0.5863459,0.2762524,2.30628e-11,2.3074192e-11,3.394583e-11,3.989911e-06,3.9947804e-06,5e-08,0.0010242527,3.9469844e-05,0.0010494933,0.0009802484,0.00017811982,0.0010226854,0.0,0.0,24
266842915,266837715,0.96477056,0.11432368,0.07905017,-0.22338076,12.550622,-8.7086735,-3.9609857,35.984634,-22.419703,-9.664535,2.835308e-06,-1.5749703e-05,7.1909117e-06,0.0014505953,-0.00032743328,0.0001881134,0.28864586,0.01111876,0.32122505,0.021143006,-0.0059319036,-0.034829073,0.0,0.0,2.1125177e-06,8.65224e-06,8.922989e-06,3.8626575e-05,0.36858872,0.39284945,0.03472114,1.3770278,1.4942487,0.28442776,2.3939567e-11,2.3932191e-11,3.48327e-11,3.905473e-06,3.9514985e-06,5.000027e-08,0.00069395197,3.4890083e-05,0.0006653496,0.0006912303,0.00014277005,0.00059797254,0.0,0.0,24
267840056,267838235,0.9804503,0.10578141,0.12034588,-0.11421212,11.383401,-4.560847,-3.8910239,44.408207,-26.659239,-13.921999,2.3568125e-08,-1.9613886e-05,7.352007e-06,0.0038698397,-0.0013044314,0.00022028886,0.26585948,0.007790061,0.33309114,0.045425314,0.0058824276,-0.035284087,0.0,0.0,7.40772e-07,1.0075759e-05,9.851447e-06,4.2352025e-05,0.5777015,0.60748196,0.04020304,3.0024967,3.2220225,0.29734704,2.4735722e-11,2.4696032e-11,3.5643998e-11,3.6016315e-06,3.7853588e-06,5.000009e-08,0.00053510297,3.0147025e-05,0.0003359733,0.0005399568,9.941918e-05,0.00028837568,0.0,0.0,24
268854146,268848754,0.99293137,0.03369495,0.09028967,-0.0692803,6.346909,-0.68400675,-2.2794182,45.07981,-24.214737,-17.265612,-3.5533021e-06,-2.5218142e-05,7.54007e-06,0.0037947607,-0.0026246305,0.00029733888,0.2706456,0.005187733,0.3236733,0.03659836,0.004537865,-0.02661492,0.0,0.0,2.6538538e-07,1.1139008e-05,1.0618447e-05,4.5810306e-05,0.728835,0.7755838,0.044740546,5.263067,5.620565,0.31531814,2.5476e-11,2.53665e-11,3.6430248e-11,3.0046137e-06,3.4174343e-06,5e-08,0.0004143092,2.7335223e-05,0.0002890427,0.00041085653,7.3842355e-05,0.0002663926,0.0,0.0,24
269840961,269839266,0.99105185,0.12228586,0.04053665,-0.034917198,1.7787938,2.1908681,-0.5409647,37.508007,-17.732702,-18.34137,-6.7173546e-06,-3.1164123e-05,7.716509e-06,0.0037794972,-0.0036495076,0.00044127458,0.28199536,0.003246696,0.31244776,0.02335149,0.0010646031,-0.018938802,0.0,0.0,2.0210031e-07,1.1960732e-05,1.2265787e-05,4.850667e-05,0.75815725,0.83454853,0.040094174,7.2872314,7.793266,0.3298583,2.61877e-11,2.5972537e-11,3.7256597e-11,2.2862148e-06,2.872248e-06,5.000018e-08,0.0002973952,2.5124165e-05,0.00026420978,0.00029913822,5.73002e-05,0.00024704973,0.0,0.0,24
270841798,270839784,0.9766753,0.18784559,0.06942097,0.077461,-0.8952426,6.1279373,0.7744065,27.489336,-9.520974,-19.454592,-8.256165e-06,-3.670627e-05,7.1015957e-06,0.003640944,-0.0038619908,0.00068938534,0.28056523,0.002076006,0.30717742,0.026714899,0.0024018816,-0.014130879,0.0,0.0,7.7946964e-07,1.2927077e-05,1.3886357e-05,4.9588543e-05,0.70240384,0.78218067,0.037703007,8.586621,9.194953,0.32516152,2.6784306e-11,2.6424023e-11,3.7836255e-11,1.6593386e-06,2.2933934e-06,5e-08,0.00024371127,2.2976472e-05,0.00019271541,0.00023160873,4.775172e-05,0.00019372831,0.0,0.0,24
271845497,271840323,0.9201548,0.24087386,0.23076558,0.20504202,-8.193247,13.161756,-2.716612,15.404141,0.72188735,-21.481167,-8.106866e-06,-4.0735966e-05,5.6797503e-06,0.0037775938,-0.003207277,0.0009291595,0.2800736,-4.3618355e-05,0.31250453,0.02881174,0.005979885,-0.020646866,0.0,0.0,3.5308572e-06,1.4967726e-05,1.4543866e-05,4.629191e-05,0.6243886,0.6847713,0.044567607,9.146093,9.664716,0.32745907,2.7341142e-11,2.6905544e-11,3.8045837e-11,1.2310409e-06,1.8016092e-06,5.0000256e-08,0.00016096086,1.9866511e-05,0.00014108983,0.00013177973,4.01094e-05,0.00015808907,0.0,0.0,24
272845915,272840821,0.9112774,0.13128494,0.09179865,0.37935576,-11.067262,15.072758,0.97395074,2.9705381,9.7295,-24.725668,-6.6300686e-06,-4.245755e-05,3.538182e-06,0.003308954,-0.0013853615,0.00122485,0.28278783,-0.0020456049,0.3154579,0.026152004,0.009835331,-0.025727132,0.0,0.0,7.670475e-06,1.5251141e-05,1.4693991e-05,4.415231e-05,0.5030864,0.5660417,0.046623588,9.129716,9.444607,0.3284762,2.7984708e-11,2.7513592e-11,3.833019e-11,9.588462e-07,1.4286616e-06,5.0000065e-08,9.515012e-05,1.7312737e-05,0.00013035844,7.020883e-05,3.232376e-05,0.00014418933,0.0,0.0,24
273843176,273841341,0.8672389,0.14275712,0.13084912,0.45868918,-13.16732,15.911465,-0.22031602,-7.527638,17.186281,-26.544596,-4.878024e-06,-4.179043e-05,1.4193171e-06,0.002454507,0.00067137234,0.0014037922,0.28642628,-0.003467959,0.31674054,0.021449627,0.013083402,-0.02856692,0.0,0.0,1.1231289e-05,1.634446e-05,1.5518834e-05,4.1386764e-05,0.4148532,0.4778665,0.04378205,8.79567,8.942208,0.3371033,2.8743308e-11,2.8143494e-11,3.8606684e-11,7.9633526e-07,1.1641287e-06,5.000028e-08,5.7061498e-05,1.5366293e-05,0.00012370665,4.1151794e-05,2.4659368e-05,0.00013120992,0.0,0.0,24
274843546,274841872,0.77858484,0.20874187,0.19313,0.55940443,-16.76324,16.709934,-0.43986127,-17.313244,23.511387,-28.915121,-3.3244296e-06,-3.946458e-05,-2.3360822e-07,0.0015046506,0.0027421087,0.0014755693,0.28326324,-0.004435589,0.31934237,0.023187185,0.016123403,-0.030466085,0.0,0.0,1.7622417e-05,1.707564e-05,1.6118744e-05,3.5897698e-05,0.35282546,0.42128727,0.046980225,8.339197,8.374866,0.3372741,2.951113e-11,2.8795428e-11,3.8842728e-11,6.9758113e-07,9.80616e-07,5.000013e-08,4.409462e-05,1.3877641e-05,0.000121675395,2.8498978e-05,2.1116039e-05,0.00012834316,0.0,0.0,24
275844362,275842389,0.64555454,0.21480566,0.20739572,0.702926,-21.74949,16.245064,0.12832507,-28.44942,29.2337,-30.799877,-1.999388e-06,-3.618406e-05,-1.8118659e-06,0.000628173,0.0040166653,0.0013922849,0.2785335,-0.0055177524,0.3247006,0.02663459,0.018497886,-0.03402277,0.0,0.0,2.7805028e-05,1.7467675e-05,1.6342992e-05,2.6549409e-05,0.30511302,0.3933328,0.057314727,7.857683,7.8399863,0.34509164,3.0244376e-11,2.9380557e-11,3.909086e-11,6.3527307e-07,8.509398e-07,5e-08,3.640262e-05,1.2684814e-05,0.00011494358,2.060246e-05,1.9145458e-05,0.000120520635,0.0,0.0,24
276847988,276842905,0.52462333,0.1436901,0.1676454,0.82220346,-25.877487,14.35376,-0.32114264,-40.85503,33.7612,-31.906668,-1.0386283e-06,-3.2508942e-05,-3.2000373e-06,-0.00024690604,0.003981164,0.0011214288,0.2740055,-0.0068653403,0.3262608,0.028909402,0.021307005,-0.033752963,0.0,0.0,3.6596317e-05,1.7356684e-05,1.6743787e-05,1.7817987e-05,0.27786952,0.37875813,0.06753762,7.3798923,7.373402,0.3719778,3.0940164e-11,2.9788273e-11,3.9296913e-11,5.89664e-07,7.5593977e-07,5.0000086e-08,2.8017794e-05,1.1624163e-05,0.00011235826,1.4213436e-05,1.6674352e-05,0.000115759765,0.0,0.0,24
277845085,277843422,0.49437132,0.02063804,-0.0022315313,0.8690029,-26.222204,12.392564,-1.0288742,-52.484287,36.618782,-33.330902,-5.4451516e-07,-2.87484e-05,-3.7028112e-06,-0.0011519474,0.003959446,0.00069545064,0.27289426,-0.007592692,0.33019084,0.028294936,0.022376992,-0.035922714,0.0,0.0,3.9011007e-05,1.7430184e-05,1.813639e-05,1.3559316e-05,0.272624,0.36712682,0.05952285,6.938099,6.9932966,0.384964,3.1604604e-11,2.9917496e-11,3.954631e-11,5.483435e-07,6.827736e-07,5.000011e-08,1.8564344e-05,1.0660045e-05,9.2432274e-05,9.907657e-06,1.2457787e-05,9.283179e-05,0.0,0.0,24
278845772,278843943,0.4702673,0.04854869,0.037540697,0.8803877,-23.963856,11.603946,-0.83840746,-60.54123,38.709602,-34.483624,2.6115273e-07,-2.5293795e-05,-3.844789e-06,-0.001965416,0.0039018749,0.00014520457,0.272655,-0.007699249,0.33682978,0.027347794,0.022098178,-0.040238027,0.0,0.0,4.1906223e-05,1.6740372e-05,1.6685639e-05,1.314641e-05,0.27976644,0.38148114,0.043535497,6.583292,6.7858176,0.37464938,3.2192728e-11,2.997245e-11,3.9991132e-11,5.0925075e-07,6.32798e-07,5e-08,1.3437036e-05,9.922444e-06,7.396116e-05,8.186625e-06,9.451221e-06,7.315931e-05,0.0,0.0,24
279846347,279844479,0.47519612,0.04762212,0.022493323,0.8783022,-22.477722,10.3721075,-1.3313488,-65.94305,39.663967,-35.36279,2.2845618e-06,-2.1496162e-05,-3.851097e-06,-0.0024552175,0.003919185,-0.00049706985,0.27000788,-0.007684515,0.3406623,0.027915545,0.022701394,-0.041232016,0.0,0.0,4.341968e-05,1.6763996e-05,1.5759777e-05,1.3680625e-05,0.29819736,0.43094218,0.035950553,6.3544703,6.796138,0.3651444,3.262573e-11,3.0184414e-11,4.0506057e-11,4.749687e-07,6.017121e-07,5.0000235e-08,1.1353011e-05,9.315186e-06,6.886552e-05,7.3016904e-06,8.193201e-06,6.7893096e-05,0.0,0.0,24
280846772,280845008,0.40990877,0.09080818,0.07668437,0.9043497,-20.988047,9.070014,-0.8373586,-69.0545,38.922062,-35.74015,5.520883e-06,-1.6873542e-05,-3.5879764e-06,-0.0024675373,0.0039115148,-0.0011917128,0.2660029,-0.0076206718,0.34489638,0.029321097,0.023481306,-0.041902628,0.0,0.0,4.9466835e-05,1.5857744e-05,1.4499946e-05,1.1444151e-05,0.31527779,0.4829767,0.03071386,6.2501187,6.990844,0.34310496,3.286417e-11,3.046684e-11,4.103311e-11,4.4192328e-07,5.7770467e-07,5.000009e-08,1.0123511e-05,8.7695125e-06,6.657281e-05,6.7202222e-06,7.502769e-06,6.564978e-05,0.0,0.0,24
281847190,281845509,0.34771597,0.09320455,0.20315157,0.910569,-21.273918,5.7007422,0.23680957,-71.09957,35.884605,-35.08986,9.4250245e-06,-1.13948745e-05,-3.449219e-06,-0.002022107,0.003936142,-0.0019191026,0.2603625,-0.007903467,0.35010654,0.032047816,0.024508953,-0.042891704,0.0,0.0,5.318316e-05,1.5593043e-05,1.34257025e-05,1.0457526e-05,0.33230624,0.5224463,0.031550013,6.2592897,7.305771,0.3365194,3.2983064e-11,3.0840292e-11,4.1421658e-11,4.100238e-07,5.5472447e-07,5.0000235e-08,9.318057e-06,8.256829e-06,6.486161e-05,6.1269734e-06,7.249663e-06,6.386485e-05,0.0,0.0,24
282851250,282846031,0.25808465,0.030953081,-0.0288947,0.9651939,-19.46313,2.1577463,0.7895983,-71.84111,29.471838,-34.11779,1.3383645e-05,-5.505308e-06,-3.4633813e-06,-0.0011943055,0.00395507,-0.0026480705,0.2542033,-0.008527427,0.35487038,0.03466,0.02582195,-0.04289209,0.0,0.0,5.9536167e-05,1.531892e-05,1.4835775e-05,4.4082994e-06,0.34931266,0.5531404,0.030045198,6.343917,7.670885,0.32688215,3.299696e-11,3.1252664e-11,4.1812373e-11,3.7688312e-07,5.258483e-07,5.0000132e-08,8.495974e-06,7.807138e-06,6.303701e-05,5.6496024e-06,6.9375487e-06,6.204451e-05,0.0,0.0,24
283838224,283836568,0.31914023,-0.098815374,-0.063619494,0.94039226,-12.970397,2.7564807,-0.9102388,-68.08032,23.024725,-32.94418,1.6365115e-05,1.7214408e-07,-3.7455686e-06,-0.0001179446,0.003969818,-0.0033552689,0.24931633,-0.009301508,0.3637142,0.03629952,0.025810037,-0.046233173,0.0,0.0,5.634584e-05,1.5465814e-05,1.7273785e-05,6.7131896e-06,0.364349,0.59982896,0.02258361,6.466201,7.990379,0.31764886,3.2880067e-11,3.171764e-11,4.2366215e-11,3.45723e-07,4.902244e-07,5.000027e-08,7.1792456e-06,7.4599143e-06,4.8857193e-05,5.40785e-06,5.963614e-06,4.814939e-05,0.0,0.0,24
284852192,284847077,0.29658785,-0.09260549,-0.0783719,0.9472686,-7.737023,0.95242256,-0.28018558,-58.821804,17.462706,-33.608154,1.9274736e-05,5.544905e-06,-3.8763774e-06,0.0011334943,0.003994134,-0.0039840504,0.2436553,-0.0104796905,0.3678064,0.037945133,0.026951753,-0.045293707,0.0,0.0,6.013252e-05,1.5095411e-05,1.6596561e-05,5.9370814e-06,0.37253618,0.6172942,0.020747177,6.701136,8.361122,0.29851916,3.2710855e-11,3.217735e-11,4.2702206e-11,3.1559657e-07,4.513056e-07,5.0000132e-08,6.3756156e-06,7.167509e-06,4.4630193e-05,5.228203e-06,5.6751114e-06,4.3943666e-05,0.0,0.0,24
285852880,285847601,0.35243642,-0.11447706,-0.26599878,0.8899035,-2.6231673,2.7848988,2.6633322,-46.963726,13.121852,-31.966827,2.030389e-05,9.355183e-06,-5.277441e-06,0.002396295,0.0040046144,-0.004002224,0.23924941,-0.01177408,0.37473464,0.039197836,0.02673217,-0.047229268,0.0,0.0,5.6095334e-05,1.9157042e-05,1.609588e-05,8.229211e-06,0.36069906,0.5929897,0.021797234,6.8995004,8.5720005,0.28300238,3.2667948e-11,3.266444e-11,4.3077854e-11,2.889511e-07,4.1035548e-07,5.000004e-08,5.60547e-06,6.9423954e-06,3.41703e-05,5.0756967e-06,5.0830918e-06,3.387719e-05,0.0,0.0,24
286849808,286848162,0.48770988,-0.1838781,-0.17651138,0.8349681,5.3858876,5.116946,2.5015037,-32.47863,12.202187,-28.943367,1.9613268e-05,1.1769628e-05,-7.147238e-06,0.00358105,0.0040020943,-0.003990615,0.23571262,-0.01298325,0.3804981,0.039869983,0.02616081,-0.04867913,0.0,0.0,4.9190287e-05,1.616559e-05,1.9139463e-05,1.6626826e-05,0.3589095,0.61440396,0.028152298,7.0508547,8.676808,0.28173116,3.256329e-11,3.306529e-11,4.3139638e-11,2.6454424e-07,3.6955956e-07,5.0000136e-08,5.09002e-06,6.7484475e-06,2.7369206e-05,4.92906e-06,4.690626e-06,2.7423936e-05,0.0,0.0,24
287840418,287838644,0.5516813,-0.15270486,0.0017544625,0.8199549,12.091006,3.4559941,-0.048306644,-15.110832,11.476843,-29.095003,1.8486371e-05,1.3892342e-05,-6.7434617e-06,0.0040020933,0.003800851,-0.0038857006,0.23333025,-0.01402189,0.38388368,0.039911043,0.02607866,-0.04914533,0.0,0.0,4.7066744e-05,1.3702134e-05,1.8403629e-05,2.2605936e-05,0.35356152,0.6413914,0.03160201,7.1346354,8.762676,0.28415576,3.2230177e-11,3.3345927e-11,4.267727e-11,2.4143205e-07,3.3041772e-07,5.0000093e-08,4.765783e-06,6.5707304e-06,2.4552812e-05,4.8067263e-06,4.4733747e-06,2.4708128e-05,0.0,0.0,24
288841118,288839168,0.60670084,-0.112090245,0.00051454577,0.7869877,14.124231,0.788397,1.3761343,-0.50203663,8.173198,-31.307169,1.5774962e-05,1.5339781e-05,-5.2065643e-06,0.0040069795,0.0032045431,-0.0034573786,0.23266713,-0.014823949,0.38636523,0.03945311,0.025866916,-0.050426215,0.0,0.0,4.358961e-05,1.3800428e-05,1.7282058e-05,2.6786562e-05,0.32169375,0.57574385,0.030239016,7.133433,8.787459,0.2904416,3.1795813e-11,3.3473984e-11,4.193634e-11,2.2047875e-07,2.955516e-07,5e-08,4.559847e-06,6.397443e-06,2.318029e-05,4.686073e-06,4.2815136e-06,2.335963e-05,0.0,0.0,24
289844897,289839748,0.6090109,-0.01499798,0.051467407,0.7913482,13.33236,-0.571333,3.0628428,9.567958,4.2870374,-32.069843,1.3175764e-05,1.6292805e-05,-3.4507573e-06,0.0039746966,0.0025251564,-0.00294278,0.23324446,-0.015272877,0.38765746,0.03891895,0.025605544,-0.051950812,0.0,0.0,4.4697787e-05,1.390487e-05,1.5201599e-05,2.737255e-05,0.29052353,0.48661163,0.026982462,7.0192246,8.642568,0.29890528,3.1449763e-11,3.3456835e-11,4.1258837e-11,2.0269073e-07,2.6799066e-07,5e-08,4.416393e-06,6.222253e-06,2.287627e-05,4.6335863e-06,4.161672e-06,2.3037677e-05,0.0,0.0,24
290845107,290840218,0.5322234,-0.036399562,0.17194586,0.8281594,10.324602,-2.786983,-0.25001577,14.830344,0.6102392,-33.424114,1.1163951e-05,1.7970004e-05,-1.3856059e-06,0.003742173,0.0018758359,-0.0024209518,0.23429404,-0.015488494,0.3881559,0.03850488,0.02546057,-0.05347954,0.0,0.0,4.7517646e-05,1.5475049e-05,1.6057746e-05,2.1822054e-05,0.2855465,0.4222062,0.023124063,6.8683524,8.386721,0.29322004,3.1146016e-11,3.3424423e-11,4.0690333e-11,1.8787439e-07,2.4759808e-07,5e-08,4.2972556e-06,6.0556454e-06,2.2389553e-05,4.5965767e-06,4.096067e-06,2.2404185e-05,0.0,0.0,24
291845851,291840744,0.42573825,-0.0658094,0.33144757,0.8393799,6.6621804,-7.518843,-2.361539,15.919955,-4.5325613,-37.84062,9.87904e-06,2.0255493e-05,-7.437943e-08,0.0033843885,0.0013841589,-0.001961373,0.23520145,-0.015447579,0.38790423,0.038330156,0.025327498,-0.054359894,0.0,0.0,4.6844685e-05,2.0278178e-05,1.64391e-05,1.6417473e-05,0.29554975,0.36924765,0.022493117,6.7748995,8.1012,0.29057866,3.0916932e-11,3.3432965e-11,4.0178357e-11,1.7547737e-07,2.3363799e-07,5e-08,4.1588064e-06,5.901738e-06,2.0659767e-05,4.4720628e-06,4.040156e-06,2.0440913e-05,0.0,0.0,24
292843214,292841278,0.05618771,-0.07055022,0.29408798,0.95151347,3.0266662,-13.662509,-0.08718124,13.856595,-12.20093,-41.969547,9.265125e-06,2.3431934e-05,-5.321926e-07,0.0029816802,0.0010908103,-0.0015347713,0.23577058,-0.015193731,0.38769042,0.038492575,0.024978744,-0.05507715,0.0,0.0,5.777848e-05,2.0734713e-05,1.7416396e-05,1.9120873e-06,0.31598222,0.31055918,0.025498735,6.746022,7.7800717,0.2827131,3.10124e-11,3.3403898e-11,3.971755e-11,1.6546157e-07,2.2421906e-07,5.000009e-08,3.94892e-06,5.755573e-06,1.7582177e-05,4.142266e-06,3.9139304e-06,1.7253868e-05,0.0,0.0,24
293847124,293841795,-0.07164578,-0.18814498,0.15891542,0.96654767,4.671729,-16.64008,-2.9106052,12.587901,-21.378405,-45.3063,1.0322324e-05,2.5534286e-05,-3.5235703e-06,0.00252373,0.0010568713,-0.0012454743,0.23652518,-0.01483817,0.38806263,0.03927919,0.02498352,-0.05632434,0.0,0.0,5.7107936e-05,1.6012662e-05,2.1423031e-05,1.0052049e-06,0.35009658,0.3210615,0.027384743,6.8145127,7.5042844,0.28247675,3.120887e-11,3.348315e-11,3.9114587e-11,1.572599e-07,2.1781322e-07,5e-08,3.7279067e-06,5.630056e-06,1.7149832e-05,3.837253e-06,3.7759041e-06,1.6809754e-05,0.0,0.0,24
294844136,294842321,-0.19833934,-0.16006579,0.33864322,0.90573794,5.833328,-18.624304,-0.99572146,13.686199,-29.342714,-49.572826,1.20560435e-05,2.9334184e-05,-7.215961e-06,0.0020884133,0.0011762889,-0.0010164327,0.23746717,-0.014468308,0.3887752,0.03995377,0.025049847,-0.057968345,0.0,0.0,4.885788e-05,2.24827e-05,1.7511675e-05,3.4744996e-06,0.35854974,0.30206734,0.028704315,6.930957,7.3002663,0.29240334,3.1507158e-11,3.3482845e-11,3.847548e-11,1.505498e-07,2.1371653e-07,5.0000093e-08,3.5128137e-06,5.5143446e-06,1.6339343e-05,3.5510554e-06,3.6469082e-06,1.6019836e-05,0.0,0.0,24
295847793,295842858,-0.459952,-0.22459738,0.44853428,0.7326782,10.147385,-23.02282,3.0179439,16.330612,-37.90369,-49.964504,1.3692159e-05,3.520071e-05,-8.976961e-06,0.0017910085,0.0014651624,-0.0009353338,0.23838356,-0.013962477,0.38625762,0.03880051,0.02544584,-0.05653078,0.0,0.0,3.0867017e-05,2.7584038e-05,1.4977304e-05,1.2922074e-05,0.38871613,0.29424223,0.0347721,7.0478263,7.0626636,0.2962967,3.1881667e-11,3.3023632e-11,3.7667352e-11,1.4471027e-07,2.1055989e-07,5e-08,3.2802257e-06,5.3819203e-06,1.376696e-05,3.203904e-06,3.4403326e-06,1.3527592e-05,0.0,0.0,24
296848339,296843381,-0.7289495,-0.29544738,0.30574623,0.53652847,20.666506,-23.404982,3.2706864,25.894346,-47.854725,-47.73501,1.3820603e-05,4.0435323e-05,-1.1233544e-05,0.0015057876,0.0019214462,-0.001049533,0.2396469,-0.013444025,0.38427025,0.03736846,0.025326299,-0.056098964,0.0,0.0,1.5745194e-05,1.9848794e-05,1.4662317e-05,2.8194812e-05,0.3853476,0.3776829,0.04892428,7.1687875,6.932043,0.31445202,3.230303e-11,3.2590083e-11,3.655661e-11,1.3930331e-07,2.0740208e-07,5e-08,3.083165e-06,5.230463e-06,1.2215702e-05,2.885282e-06,3.2259397e-06,1.2021157e-05,0.0,0.0,24
297848953,297843902,-0.8842202,-0.30175918,0.20654887,0.29057473,28.223679,-16.83232,2.435046,41.391563,-52.78552,-45.64311,1.2374459e-05,4.4661334e-05,-1.4390415e-05,0.0011389748,0.0024167134,-0.0013250483,0.24133065,-0.012893625,0.38273764,0.03599975,0.02464127,-0.056539256,0.0,0.0,5.0334875e-06,1.4734048e-05,1.2191757e-05,3.8452108e-05,0.31058496,0.46313265,0.061012793,7.117206,6.971782,0.3332701,3.2779803e-11,3.235033e-11,3.5417093e-11,1.3414267e-07,2.02333e-07,5e-08,2.9269988e-06,5.0621516e-06,1.1353293e-05,2.6358507e-06,3.0816643e-06,1.1106598e-05,0.0,0.0,24
298849320,298844440,-0.9187313,-0.35841617,0.14952697,0.07150234,30.93384,-7.479703,1.9660977,57.839127,-50.174755,-44.035583,9.999477e-06,4.7754806e-05,-1.8437679e-05,0.00067451166,0.0027727403,-0.0017255965,0.24333802,-0.012314809,0.3811929,0.034816764,0.023705764,-0.057083044,0.0,0.0,1.5423676e-06,1.1133981e-05,1.158964e-05,3.8907983e-05,0.23813857,0.49335912,0.0683836,6.8178744,7.1684284,0.357324,3.3200914e-11,3.2451337e-11,3.442608e-11,1.2920273e-07,1.9133853e-07,5e-08,2.7711585e-06,4.8898305e-06,1.0768629e-05,2.4373205e-06,2.9962516e-06,1.0412238e-05,0.0,0.0,24
