timestamp,timestamp_sample,xyz[0],xyz[1],xyz[2]
186846689,186845680,0.23064014,-0.5424533,-9.777741
186851717,186850681,0.2259247,-0.5304091,-9.784802
186896720,186895699,0.11428559,-0.5744329,-9.812337
186946739,186945723,0.022469064,-0.51882195,-9.812263
186996773,186995747,0.11650008,-0.5529309,-9.7530365
187046775,187045771,0.26626727,-0.5595244,-9.756934
187096807,187095816,0.28789738,-0.5414219,-9.835478
187146833,187145829,0.110809945,-0.63490176,-9.835317
187196872,187195850,0.09581233,-0.4737911,-9.823274
187246871,187245866,0.23005782,-0.76308006,-9.90142
187296915,187295890,0.20190997,-0.5401623,-9.7809105
187346924,187345914,0.12690167,-0.34366035,-9.8905325
187396964,187395957,0.09456412,-0.82207227,-9.769489
187447030,187445999,0.2133604,-0.43465012,-9.778005
187497009,187495984,0.21722779,-0.65552264,-9.801299
187547007,187546007,0.1092144,-0.4387737,-9.810837
187597038,187596031,0.10310358,-0.48800784,-9.764028
187647074,187646055,0.13439053,-0.38490814,-9.780641
187697105,187696083,0.14796704,-0.6242598,-9.7376175
187747106,187746103,0.2130912,-0.4166416,-9.768054
187797135,187796158,0.10083449,-0.4558631,-9.828583
187847206,187846151,0.043439075,-0.5405848,-9.814681
187897290,187896174,0.23597965,-0.4485817,-9.706462
187947240,187946198,0.40770972,-0.4257051,-9.760844
187997268,187996222,0.12428077,-0.39231443,-9.852837
188047253,188046246,0.12817514,-0.42980573,-9.75249
188097271,188096269,0.07779547,-0.45521963,-9.836153
188147299,188146293,0.00018941791,-0.4475847,-9.8673725
188197316,188196317,0.336752,-0.5494388,-9.84336
188247341,188246341,0.2976208,-0.36368647,-9.818633
188297423,188296365,0.19399361,-0.47423792,-9.7552185
188347425,188346395,0.051954743,-0.42427823,-9.844304
188397418,188396412,0.12339376,-0.33108616,-9.871254
188447442,188446436,0.021981273,-0.42800918,-9.824422
188497512,188496460,0.25285748,-0.59241146,-9.775463
188547494,188546484,0.10880593,-0.26289535,-9.865175
188597522,188596508,0.24065211,-0.5404516,-9.853348
188642546,188641537,0.21202147,-0.5085437,-9.690337
188697570,188696555,0.023223992,-0.1122243,-9.946359
188747582,188746573,0.08296832,-0.5855019,-9.802795
188797633,188796633,-0.0078837555,-0.33046564,-9.789382
188847636,188846627,-0.061688874,-0.4655057,-9.81114
188897681,188896654,0.57054156,-0.14011201,-9.676281
188947678,188946674,0.30352628,-0.6937231,-9.649134
188992700,188991696,0.35838866,-0.10632893,-9.815253
189047701,189046725,0.30946216,-0.79072714,-9.78667
189097792,189096745,-0.06646092,-0.23015518,-9.7950945
189147784,189146769,-0.092427075,-0.4298158,-9.871152
189197811,189196793,0.059830297,-0.59553206,-9.7279825
189247855,189246817,0.34969097,-0.45533136,-9.775632
189297977,189296841,0.015571133,-0.5467483,-9.740042
189342909,189341863,0.18138148,-0.3684296,-9.79023
189397941,189396888,0.2708006,-0.8615075,-9.853175
189447917,189446912,0.46449432,-1.078973,-9.66252
189492904,189491943,-0.22163315,0.5867586,-10.0308275
189547954,189546960,0.30206484,-0.73989266,-9.677536
189597987,189596984,0.356601,-0.20390779,-9.774522
189648007,189647010,0.089192815,-0.3087352,-9.801026
189693022,189692029,-0.035046406,-0.21905188,-9.834976
189748025,189747061,0.027084265,-0.083383456,-9.790638
189798079,189797079,0.24088086,-0.4743502,-9.789476
189843117,189842101,0.16670875,-0.13118151,-9.862741
189898133,189897129,0.4642158,-0.27920747,-9.746784
189948175,189947150,0.022898555,-0.41578364,-9.937253
189998222,189997174,0.3036161,-0.16859634,-9.834259
190043203,190042196,0.23238334,-0.017076457,-9.853022
190098222,190097225,0.1265196,-0.943014,-9.639531
190148266,190147264,0.2625581,0.014754506,-9.778945
190193240,190192261,0.6619606,-0.6813247,-9.795851
190248300,190247293,0.37337106,-0.45910358,-9.738743
190298330,190297317,0.49180156,-0.26372427,-10.058084
190348366,190347341,-0.39659098,-0.23353715,-9.990436
190393390,190392363,-0.42941833,-0.26538762,-10.140152
190448402,190447416,-0.46712556,-0.49556527,-9.593391
190498452,190497413,-0.08434724,-0.23254696,-9.700497
190543452,190542434,0.12139763,-0.5905255,-9.750263
190598483,190597460,0.47016668,-0.50811017,-9.63857
190648526,190647484,0.7254085,-0.21589799,-9.568256
190693555,190692506,0.09042238,-0.68605494,-9.85337
190743600,190742534,-0.14572196,-0.20782652,-9.805087
190798645,190797555,-0.003817258,-0.623393,-9.513883
190848604,190847579,0.25114167,-0.3830482,-9.462217
190893585,190892611,0.062242497,-0.6164566,-9.812479
190948627,190947634,0.13046198,-0.20225124,-9.784129
190998706,190997651,0.3872411,-0.54965174,-9.798398
191043671,191042672,0.18522224,-0.4776291,-9.946081
191093756,191092696,-0.09057748,-0.5563982,-9.851831
191148728,191147729,0.3297932,-0.5055742,-9.841182
191198785,191197746,0.10586621,-0.1771597,-9.807202
191243775,191242774,0.119471125,-0.5853194,-9.817977
191298795,191297794,0.21752115,-0.3676618,-9.83388
191348817,191347817,0.16229193,-0.48887882,-9.78649
191393861,191392868,0.10836192,-0.26099637,-9.851955
191443923,191442869,0.2088233,-0.4456867,-9.804554
191498898,191497896,0.21217209,-0.46282813,-9.842989
191543920,191542919,0.17822894,-0.46709812,-9.819212
191593941,191592961,0.013961682,-0.6182753,-9.826927
191643971,191642960,0.09748707,-0.34840614,-9.779279
191698959,191697985,0.3051908,-0.42435804,-9.815543
191744015,191743007,0.13748538,-0.55666167,-9.829645
191794030,191793029,0.005177539,-0.44142,-9.825823
191849062,191848055,0.2999713,-0.3631481,-9.802482
191894109,191893077,0.31468338,-0.51727223,-9.596298
191944131,191943101,-0.048014883,-0.12227512,-9.747783
191994155,191993126,0.078858726,-0.3625469,-9.769495
192049211,192048151,0.19505148,-0.52770925,-9.774394
192094244,192093172,0.10964271,-0.56618094,-9.737033
192144216,192143196,0.49453396,-0.14562503,-9.69622
192199257,192198222,0.016068304,-0.36964834,-9.913852
192244237,192243244,-0.023460092,-0.23173124,-9.950044
192294299,192293275,0.07930597,-0.34386197,-9.935789
192344291,192343291,0.16791828,-0.19537817,-9.85219
192399299,192398312,0.35040978,0.10678683,-9.802507
192444332,192443339,0.198272,-0.61387736,-9.816302
192494366,192493363,0.30629626,-0.27667862,-9.806423
192549410,192548392,-0.20873496,-0.56262314,-9.795403
192594423,192593410,0.14893459,-0.4287128,-9.995216
192644440,192643434,0.30136436,-0.10302418,-9.704799
192699502,192698461,1.3059696,-1.7652569,-10.449937
192744522,192743482,-0.170195,-0.4439749,-10.395548
192794505,192793500,-0.7798242,-0.5081056,-9.882791
192844573,192843537,-0.0049641808,0.31259325,-9.7527685
192899631,192898578,0.06462578,-0.5962447,-9.769581
192944607,192943577,-0.2556571,-0.24810253,-9.624961
192994620,192993601,-0.21921456,-0.24633694,-9.794679
193049639,193048627,0.20625415,-0.44350052,-9.7755
193094671,193093649,0.43631515,-0.31258884,-9.742074
193144696,193143673,0.3419753,-0.45795736,-9.7516985
193194722,193193697,0.50646377,-0.25837713,-9.8071575
193249746,193248722,0.20550093,-0.65317833,-9.903497
193294746,193293744,0.18963818,-0.20180973,-9.724237
193344805,193343768,-0.15293139,-0.80903476,-9.791759
193399840,193398794,-0.14972651,-0.40807265,-9.938163
193444859,193443816,0.2418405,-0.262697,-9.634519
193494900,193493839,0.195057,-0.53594583,-9.771799
193544829,193543862,0.17018674,-0.4852506,-9.839815
193599920,193598889,0.10864083,-0.38630658,-9.883263
193644897,193643911,-0.01539803,-1.1937845,-10.239502
193694962,193693935,0.63519484,-0.20140114,-10.086881
193749989,193748961,-0.14652775,-0.8818051,-9.787021
193794988,193793983,0.4528742,-0.1238265,-9.764969
193845000,193844006,-0.41145346,-0.64967,-9.50458
193895050,193894030,-0.2564633,-0.10291718,-9.585526
193945059,193944057,0.19635665,-0.6430282,-10.204739
193995116,193994078,0.49519387,-0.59779334,-9.989561
194045107,194044115,0.22860551,-0.47008368,-9.655667
194100188,194099128,0.040818367,-0.56088805,-9.74616
194145143,194144149,0.09286101,-0.42469886,-9.772089
194195171,194194173,-0.018012509,-0.5231102,-9.845501
194245286,194244243,0.12928818,-0.50327927,-9.936204
194295243,194294228,0.48105374,-0.7264652,-9.7826395
194345266,194344245,0.27504635,-0.38293573,-9.841053
194395290,194394269,-0.32516918,-0.772117,-9.663078
194450323,194449295,0.4219838,-0.3534738,-9.819145
194495330,194494316,-0.13360807,-0.53899026,-9.737266
194545360,194544340,0.10944563,-0.44438827,-9.862169
194595391,194594364,0.21650167,-0.43100184,-9.809664
194645446,194644392,0.25719738,-1.1206812,-9.724448
194695441,194694422,0.6981608,-0.77006775,-9.668841
194745485,194744436,0.10192069,-0.31319606,-9.962228
194795566,194794460,0.08055384,-0.70147794,-9.929354
194845547,194844483,0.09866396,-0.53495556,-9.661588
194895526,194894511,-0.07594809,-0.62502426,-9.970726
194945547,194944557,0.10341635,-0.5084915,-9.730444
194995559,194994555,0.5546112,-0.6571554,-9.848854
195045609,195044578,0.7259446,-0.4603798,-9.451974
195095657,195094602,-0.31519103,-1.1120188,-10.042427
195145625,195144626,0.23625873,-0.79632366,-9.983628
195195665,195194650,-0.061581764,-0.33957428,-10.068218
195245705,195244674,0.33709103,-0.55050063,-9.839809
195295719,195294698,0.17288211,-0.7391962,-9.789521
195345717,195344722,0.120690495,-0.4720212,-9.888415
195395752,195394753,0.6423406,-0.39830276,-9.8190975
195445769,195444770,-0.020869598,-0.53003925,-9.736102
195495891,195494808,0.31692094,-0.36462536,-9.913315
195545822,195544817,-0.1814016,-0.5485662,-9.906985
195595845,195594844,0.23131952,-0.3702654,-9.829004
195645893,195644933,0.15618181,-0.5112216,-9.759177
195695952,195694896,0.024186745,-0.4529322,-9.854164
195745912,195744912,0.32837835,-0.6351645,-9.675521
195795943,195794937,0.005243216,-0.49313623,-10.035899
195845959,195844960,-0.31586504,-0.4341164,-9.7775
195896028,195894984,0.33664638,-0.76319706,-9.782258
195946020,195945008,0.19804975,-0.20217419,-9.819985
195996036,195995032,-0.11906593,-0.5333091,-9.858622
196046065,196045056,0.56440115,-0.596682,-9.725255
196096146,196095080,0.40970567,-0.1618758,-9.847203
196146143,196145104,0.42602283,-0.55590844,-9.69195
196196101,196195129,0.21194747,-0.7825553,-9.789917
196246150,196245151,-0.24090405,-0.29955542,-9.891447
196296261,196295179,0.50140285,-0.42285457,-9.760816
196346203,196345199,-0.42716995,-0.49876168,-9.898755
196396232,196395223,0.31802905,-0.37982434,-9.674372
196446254,196445247,0.11937902,-0.57274395,-9.804867
196496284,196495271,0.13509041,-0.57288677,-9.697388
196546295,196545295,-0.11928376,-0.37259197,-9.669065
196596318,196595319,0.051426973,-0.31568116,-9.699147
196646350,196645342,0.743326,-0.65571254,-9.905888
196696401,196695366,0.24242191,-0.9725194,-10.245886
196746419,196745394,0.72924656,-0.30723527,-10.085441
196796427,196795414,-0.2512544,-0.84660286,-9.8357935
196846445,196845438,0.23433663,-0.4885918,-9.774693
196896568,196895471,0.32415238,-0.28876275,-9.4735775
196946487,196945481,0.005522824,-0.162539,-9.884733
196996550,196995528,0.04624553,-0.68410355,-9.702821
197046558,197045541,0.14169481,-0.99510366,-9.810541
197096641,197095558,0.11451682,-0.5126473,-9.584783
197146604,197145581,-0.28972635,-0.2645165,-9.251652
197196649,197195605,0.08902548,-0.63325864,-9.585642
197246643,197245629,-0.2284049,-0.19124757,-9.492975
197296672,197295654,0.020625189,-0.5984969,-9.8820095
197346676,197345677,0.4787868,-0.40031016,-9.972161
197396740,197395701,-0.0016740301,-0.9570659,-9.885335
197446776,197445725,0.21419753,-0.2406394,-9.629828
197496797,197495749,0.19253123,-0.50481796,-9.684589
197546818,197545773,0.10615302,-0.5587857,-9.6278305
197596855,197595812,0.02436229,-0.49723965,-9.636238
197646834,197645820,0.16804732,-0.28268227,-9.881478
197696854,197695844,0.14513817,-0.6880174,-9.806603
197746861,197745868,0.06635902,-0.4204144,-9.640764
197796886,197795892,0.17075622,-0.84538347,-9.722675
197846922,197845916,0.30056494,-0.50585055,-9.743712
197896967,197895940,-0.002997196,-0.51984113,-9.675775
197946964,197945964,0.09875862,-0.716344,-9.786864
197996983,197995988,0.22503556,-0.62617224,-9.773225
198047009,198046012,0.23715252,-0.5862637,-9.820501
198097047,198096036,0.16817965,-0.5150676,-9.826702
198147097,198146059,0.23875274,-0.6374012,-9.769626
198197077,198196084,0.30387193,-0.7462126,-9.682706
198247105,198246107,0.25299263,-0.39917204,-9.814769
198297266,198296144,0.19823287,-0.8031069,-9.850469
198347171,198346170,0.24303184,-0.40130997,-9.711848
198397180,198396187,-0.7412146,-0.5656933,-9.963195
198447215,198446203,0.49739704,-0.7392809,-9.785443
198497338,198496235,0.12876318,-0.6864821,-9.702371
198547255,198546251,0.119319536,-0.6454138,-9.806851
198597274,198596275,0.29829925,-0.63716114,-9.713024
198647303,198646299,0.4302989,-0.63371885,-9.78223
198697406,198696329,0.23543796,-0.37421533,-9.703684
198747360,198746346,-0.09853883,-0.5049167,-9.840405
198797402,198796380,0.19107528,-0.623076,-9.82859
198847493,198846395,0.42130914,-0.3717566,-9.850914
198897510,198896418,0.26383734,-0.6059181,-9.735838
198947492,198946442,0.070510104,-0.57234395,-9.734839
198997542,198996477,0.104277916,-0.8170669,-9.95599
199047513,199046490,0.26466763,-0.44093814,-9.83546
199097636,199096520,0.1634946,-0.50811094,-9.848838
199142552,199141539,0.15875383,-0.6072297,-9.78808
199197568,199196562,0.22025809,-0.77874285,-10.070326
199247599,199246586,0.38094264,-0.65188956,-9.8286495
199297645,199296610,0.024326652,-0.71696174,-9.869431
199347636,199346636,0.20433529,-0.7349843,-9.872216
199397683,199396658,0.30397642,-0.5910116,-9.707798
199447690,199446686,0.19738597,-0.60603184,-9.438925
199492697,199491703,-0.037249167,-0.6896038,-9.698415
199547694,199546730,0.26208344,-0.42818898,-9.648914
199597758,199596754,0.10132418,-0.6407803,-9.865758
199647796,199646778,-0.051866196,-0.24847634,-9.6125145
199697838,199696807,0.83108544,-1.1784449,-10.287666
199747850,199746850,-0.13562919,-0.36111793,-9.752093
199797877,199796863,-0.026133846,-0.70286286,-9.932241
199842888,199841871,0.02539356,-0.4772629,-10.1449795
199897906,199896897,0.1945831,-0.73573595,-9.6803255
199947921,199946921,0.6177146,-0.6838086,-10.192312
199992909,199991943,0.38566953,-0.7827217,-10.027787
200047968,200046969,-0.056207143,-0.5712481,-9.896997
200098052,200096995,-0.17757285,-0.44241366,-9.705878
200148016,200147017,0.3036817,-0.6344213,-9.81591
200193076,200192039,0.07412415,-0.79742295,-9.731944
200248128,200247061,0.18981123,-0.5750984,-9.833569
200298158,200297089,0.13180856,-0.57921696,-9.699194
200343163,200342110,0.12152203,-0.5656661,-9.756388
200398165,200397141,0.11487055,-0.46084893,-9.700903
200443163,200442159,0.041557375,-0.49690238,-9.754325
200498223,200497185,0.13149124,-0.5583296,-9.802972
200543235,200542236,0.16215447,-0.5580776,-9.735951
200593236,200592230,0.27823657,-0.61046153,-9.806709
200648269,200647257,0.22759731,-0.76507616,-9.852038
200693258,200692279,0.28066805,-0.5328705,-9.834968
200748303,200747305,0.16687903,-0.37196565,-9.539975
200798370,200797329,-0.44379526,-0.84220564,-9.651577
200848355,200847353,0.25074822,-0.48893964,-9.915223
200893417,200892390,-0.044045802,-0.7967424,-9.784118
200943403,200942399,0.10421566,-0.54180795,-9.869282
200998438,200997432,0.51689124,-0.41161674,-9.777348
201043508,201042471,0.6180705,-1.2474437,-9.968818
201093499,201092478,0.27692103,-0.17773063,-10.156732
201148545,201147504,0.079702616,-0.35573056,-9.615474
201193527,201192518,0.033475015,-0.9129293,-9.761518
201243559,201242542,-0.011123164,-0.43678614,-9.746313
201293591,201292566,0.81333953,-0.79187214,-10.261196
201348636,201347601,0.11441567,-0.79665,-9.405857
201393598,201392611,0.60191935,-0.40319398,-10.1132145
201443649,201442638,-0.05066526,-0.90192354,-9.71381
201498713,201497669,0.06047181,-0.34644213,-10.017058
201543698,201542686,0.02054461,-1.1312046,-9.643106
201593752,201592710,-0.11366449,-0.3565011,-9.973616
201643778,201642735,-0.045113318,-0.7856642,-10.096811
201698823,201697761,0.4688997,-0.4883231,-9.810055
201743789,201742786,0.24609537,-0.5008124,-9.729262
201793810,201792806,0.6113843,-0.7568112,-9.610519
201848832,201847833,0.6012706,-0.5387946,-9.721381
201893875,201892854,0.3040384,-0.87599826,-9.604559
201943877,201942879,-0.23293956,-0.4051893,-9.794363
201998943,201997905,-0.10011965,-0.9652432,-9.9065695
202043926,202042926,-0.15895905,-0.057556085,-9.727825
202093962,202092995,0.29045475,-0.7232055,-9.682446
202143974,202142974,0.27860898,-0.41295722,-9.642349
202199065,202197995,-0.041948587,-0.536326,-10.003519
202244016,202243023,0.34780893,-0.77689356,-9.831249
202294057,202293047,0.2819586,-0.72135633,-9.810465
202349081,202348081,0.13931903,-0.36106524,-9.826164
202394106,202393105,0.08642625,-0.39544374,-9.867502
202444123,202443113,-0.032337535,-0.3919662,-9.632564
202494164,202493143,0.1995013,0.19068028,-10.044908
202549192,202548169,-0.00034164888,-1.1547701,-9.693898
202594205,202593194,0.22944398,-0.039156094,-9.898316
202644230,202643215,0.35496134,-1.0336311,-9.496237
202699247,202698241,0.3267774,-0.122462146,-9.882897
202744274,202743263,0.44465962,-0.8180028,-9.698271
202794291,202793311,0.34430352,0.46002144,-9.906168
202844315,202843311,0.030097617,-0.9195441,-9.679861
202899401,202898341,0.016881881,-0.5301619,-9.924155
202944378,202943359,-0.12345994,-0.5043827,-9.696239
202994443,202993391,0.067332685,-0.57906246,-9.79575
203049479,203048410,0.33936787,-0.36616415,-9.539209
203094491,203093432,0.11911465,-0.8915061,-9.537722
203144478,203143455,0.2454866,-0.28527907,-9.7773485
203199515,203198482,0.01596661,-0.242271,-9.783723
203244522,203243510,0.39263284,-0.58638716,-10.106591
203294546,203293527,0.2398436,-1.0592827,-9.419117
203344582,203343553,0.15584223,-0.3059139,-9.725874
203399622,203398578,0.07358367,-0.4312623,-9.815958
203444607,203443599,0.020663401,-0.8404987,-9.9077835
203494634,203493631,0.08347675,-0.28968,-9.820685
203549650,203548654,0.12541603,-0.6315171,-9.787321
203594664,203593672,0.1799358,-0.3905988,-9.804286
203644700,203643696,0.23781766,-0.6258339,-9.819288
203694729,203693723,0.2452768,-0.5917067,-9.7946005
203749792,203748746,0.15159795,-0.42154688,-9.822022
203794766,203793768,0.096032046,-0.56942576,-9.792222
203844792,203843798,0.1269379,-0.5078386,-9.860432
203899871,203898832,0.20404854,-0.550817,-9.825412
203944842,203943840,0.1769937,-0.5329559,-9.785904
203994871,203993864,0.16652197,-0.47672108,-9.805321
204044854,204043889,0.104628004,-0.5587062,-9.814191
204094935,204093912,0.12624449,-0.5623983,-9.8017
204144942,204143936,0.19754581,-0.5228132,-9.821475
204194966,204193960,0.17266761,-0.54641855,-9.806121
204249993,204248987,0.1362591,-0.5092125,-9.827477
204295032,204294009,0.1289169,-0.5694372,-9.7953615
204345063,204344033,0.15797882,-0.55603254,-9.827474
204395110,204394057,0.17142265,-0.5300875,-9.794015
204445130,204444081,0.15960073,-0.52296835,-9.792756
204495130,204494113,0.1428296,-0.507715,-9.794442
204545135,204544130,0.16137533,-0.53833157,-9.791319
204600173,204599156,0.15086143,-0.5331194,-9.830367
204645170,204644177,0.16733992,-0.52647537,-9.793043
204695202,204694201,0.15100297,-0.55134195,-9.792077
204745289,204744236,0.16964635,-0.5390677,-9.774678
204795249,204794250,0.15640165,-0.51351976,-9.80002
204845287,204844274,0.15264598,-0.54857004,-9.82011
204895304,204894301,0.16001104,-0.54431283,-9.803473
204950330,204949324,0.172665,-0.5287915,-9.786404
204995345,204994346,0.15713611,-0.51073384,-9.826592
205045393,205044370,0.14611264,-0.54612356,-9.784562
205095425,205094395,0.15980986,-0.5230861,-9.831025
205145428,205144418,0.17592078,-0.5284121,-9.781518
205195488,205194473,0.1579228,-0.52513117,-9.778192
205245506,205244484,0.15223858,-0.52265143,-9.812474
205295530,205294499,0.14160869,-0.5335415,-9.831325
205345533,205344515,0.16114455,-0.5460426,-9.772936
205395559,205394539,0.16481632,-0.5103919,-9.789935
205445536,205444557,0.15697394,-0.53427434,-9.845623
205495608,205494587,0.12281171,-0.561319,-9.791171
205545614,205544611,0.16301791,-0.49186566,-9.780849
205595682,205594635,0.15479724,-0.54980844,-9.820368
205645667,205644659,0.16548063,-0.5272638,-9.80279
205695729,205694684,0.15849628,-0.5505301,-9.805163
205745739,205744708,0.15237708,-0.51877975,-9.817514
205795762,205794732,0.1566148,-0.5168735,-9.796028
205845807,205844756,0.16939244,-0.5563432,-9.813484
205895786,205894780,0.1586988,-0.521655,-9.841831
205945804,205944808,0.14540179,-0.53658974,-9.813115
205995828,205994829,0.13435353,-0.5364072,-9.770101
206045906,206044853,0.15909114,-0.5458244,-9.812242
206095878,206094877,0.15817511,-0.55357355,-9.790349
206145909,206144904,0.14786254,-0.54515433,-9.795751
206195924,206194925,0.14237475,-0.5441565,-9.785918
206245983,206244949,0.15853669,-0.5366577,-9.769436
206295979,206294973,0.1761904,-0.54345036,-9.829541
206345995,206344998,0.15250017,-0.5353595,-9.789361
206396021,206395022,0.1492734,-0.54847986,-9.774176
206446074,206445046,0.15892537,-0.52814186,-9.7977295
206496071,206495070,0.14086159,-0.51198703,-9.7542515
206546104,206545094,0.13843642,-0.54554033,-9.790591
206596150,206595118,0.17871554,-0.52103007,-9.808887
206646161,206645172,0.1542075,-0.55102444,-9.823882
206696179,206695167,0.080918044,-0.6532938,-10.196927
206746190,206745191,0.16926208,-0.23246776,-10.025775
206796218,206795215,0.19619335,-0.5092538,-9.760297
206846255,206845291,0.024726652,-0.48291698,-9.742534
206896285,206895263,0.214859,-0.49396682,-9.955353
206946286,206945288,0.25948265,-0.55368716,-9.687008
206996318,206995311,0.22368464,-0.37203312,-9.802274
207046340,207045336,0.13669701,-0.4949489,-9.827251
207096419,207095360,-0.0014377309,-0.22814089,-9.753103
207146441,207145397,0.2968002,-0.6313313,-9.758115
207196426,207195408,0.2500825,-0.78574747,-9.727135
207246514,207245432,-0.0022831147,-0.2440735,-9.734552
207296482,207295457,0.09229896,-0.5702627,-9.906897
207346485,207345481,0.1747369,-0.37991738,-9.80419
207396537,207395505,0.08979248,-0.6313137,-9.842899
207446538,207445529,0.20927733,-0.5863625,-9.786224
207496571,207495553,0.22537802,-0.53150815,-9.77086
207546592,207545611,0.41838253,-0.5960158,-9.785249
207596609,207595602,0.1423275,-0.54357314,-9.8627825
207646634,207645626,-0.11987796,-0.4664996,-9.818473
207696677,207695654,0.18544337,-0.4697875,-9.796745
207746689,207745674,0.10842345,-0.51908344,-9.774623
207796698,207795699,0.24227276,-0.55445224,-9.796733
207846731,207845723,0.070624515,-0.60195816,-9.742961
207896744,207895747,0.19563732,-0.31352893,-9.831975
207946777,207945771,0.2006473,-0.67143285,-9.853559
207996815,207995820,0.5176947,-0.13990286,-9.754967
208046832,208045827,0.050395146,-0.40605667,-9.76704
208096886,208095844,-0.028579876,-0.8727271,-9.864552
208146897,208145885,0.081884526,-0.5208906,-9.7987
208196891,208195892,0.43960133,-0.5283913,-9.821798
208246925,208245924,-0.07111133,-0.29720643,-9.950465
208296951,208295941,-0.096844964,-0.5758413,-9.769344
208346963,208345965,0.17801854,-0.46725425,-9.782861
208396993,208395989,0.29564995,-0.51059765,-9.723203
208447048,208446013,0.44551644,-0.44221354,-9.932334
208497084,208496037,-0.08086735,-0.3620449,-9.749313
208547104,208546062,-0.29167894,-0.569669,-9.889489
208597150,208596086,0.2925068,-0.51458865,-9.807316
208647119,208646115,0.34457684,-0.6277143,-9.874132
208697158,208696134,0.2613896,-0.557068,-9.664872
208747158,208746158,0.09905234,-0.55171543,-9.795636
208797151,208796183,0.047733687,-0.5952633,-9.861324
208847206,208846207,0.25758934,-0.29881093,-9.843963
208897232,208896231,0.17965223,-0.67339635,-9.778187
208947272,208946261,0.08553459,-0.53113306,-9.820308
208997313,208996286,0.054906417,-0.39203694,-9.794355
209047297,209046304,0.09208575,-1.081459,-9.741672
209097322,209096328,0.27056766,-0.2858004,-9.861312
209147362,209146352,-0.119786225,-0.47308707,-9.921629
209197406,209196388,0.15021628,-0.87975264,-9.681969
209247418,209246401,0.34122705,-0.28126237,-9.852168
209292443,209291430,0.32004255,-0.8510233,-9.634464
209347496,209346478,0.27480665,-0.5488973,-9.783903
209397513,209396500,-0.024806982,-0.4030513,-9.981936
209447549,209446505,-0.06971486,-0.6046697,-10.038032
209497571,209496525,0.0309021,-0.49823385,-9.737542
209547567,209546556,0.47195825,-0.5834509,-9.83801
209597591,209596570,0.45929974,-0.6421563,-9.715109
209642643,209641592,0.18130739,-0.5286752,-9.891493
209697646,209696619,-0.10344206,-0.19857435,-9.764897
209747669,209746643,0.11421927,-0.8576565,-9.867083
209797694,209796667,0.16757861,-0.3534943,-9.78498
209847717,209846692,-0.07328034,-0.6072999,-9.755043
209897766,209896716,0.2081248,-0.46318763,-9.657172
209947770,209946740,-0.05102815,-0.49402577,-9.967661
209992815,209991762,0.25092143,-0.57968307,-9.752155
210047793,210046789,0.30024767,-0.49304402,-9.76439
210097831,210096813,0.15397255,-0.590322,-9.834735
210147832,210146837,0.062461633,-0.5498837,-9.908188
210197924,210196895,-0.029881695,-0.54253596,-9.6450815
210247909,210246886,0.33858594,-0.67526364,-9.917239
210297920,210296914,0.10034319,-0.8108285,-9.775726
210342950,210341939,0.053919405,-0.3356306,-9.921595
210397964,210396959,0.095573924,-0.37140617,-9.480785
210447982,210446983,0.179823,-0.63956493,-9.617642
210493012,210492005,0.15337715,-0.8279237,-9.816408
210548025,210547032,-0.037405238,-0.74290246,-9.84312
210598063,210597056,0.41479012,-0.81426466,-9.691416
210648115,210647080,0.41569734,-1.6595683,-9.589823
210693103,210692103,0.32916084,-0.2254461,-9.880491
210748137,210747123,-0.003067675,-0.8903791,-9.758946
210798182,210797177,0.5527721,-0.20773464,-9.61866
210843197,210842190,-0.15437695,-0.939631,-9.732629
210898194,210897211,0.13353434,0.08616494,-9.76397
210948273,210947226,0.0017006382,-1.2246739,-9.7246895
210998275,210997250,-0.16885129,-0.2503049,-9.876755
211043318,211042272,0.33238122,-0.9779754,-9.727898
211098307,211097299,0.27709255,-0.72959113,-9.827129
211148335,211147323,0.19911027,-0.40688848,-9.751721
211193401,211192345,-0.026241655,-0.4206513,-9.807858
211248441,211247371,0.2764838,-0.52343625,-9.786155
211298465,211297401,0.1957741,-0.6270445,-9.8374605
211343402,211342417,0.17292911,-0.45132372,-9.818388
211393506,211392447,0.2328817,-0.5764474,-9.694352
211448541,211447469,-0.048639763,-0.6173291,-9.883659
211498523,211497493,0.3072757,-0.30507103,-9.7807455
211543524,211542515,0.0328699,-0.7456144,-9.856682
211598539,211597558,0.13412273,-0.55230135,-9.747703
211648625,211647566,0.28855354,-0.4694031,-9.735762
211693602,211692588,-0.032849003,-0.5938128,-9.8981085
211743632,211742612,0.23119211,-0.32108504,-9.814755
211798651,211797640,0.18854605,-0.6978631,-9.736802
211848669,211847664,0.25188732,-0.4401264,-9.738978
211893701,211892685,0.20682389,-0.6029925,-9.864301
211948711,211947712,0.038448356,-0.52184594,-9.858968
211998756,211997740,0.31136295,-0.42695135,-9.683855
212043728,212042767,-0.027844861,-0.7026119,-9.964635
212093802,212092783,0.054751404,-0.34312576,-9.758446
212148832,212147818,0.2977927,-0.6966296,-9.789985
212198858,212197865,0.41060308,-0.52576214,-9.733453
212243861,212242855,0.23462754,0.09788595,-9.780799
212298896,212297911,-1.9510182,0.7393632,-9.862678
212348914,212347912,0.5952051,-1.1586292,-9.755607
212393966,212392929,1.5820961,-0.51986563,-10.399447
212443959,212442953,1.85318,-0.674781,-9.617602
212499056,212497980,1.3448375,-0.29540688,-9.753025
212544016,212543008,0.65957415,-0.75335723,-9.905005
212594073,212593026,-0.36170262,-0.102433026,-8.876871
212644080,212643050,-0.61090475,-0.580644,-10.176859
212699160,212698077,-0.55156577,-0.48645416,-9.500745
212744186,212743112,-0.19616868,-0.4342913,-9.841415
212794182,212793124,0.64549595,-0.3855842,-9.677966
212849173,212848150,0.64301646,-0.5950625,-9.802894
212894180,212893179,0.57811445,-0.7018524,-9.793295
212944219,212943197,0.020166712,-0.4356165,-9.792934
212994226,212993221,-0.06640988,-0.5743676,-9.877704
213049289,213048247,-0.08801548,-0.5563756,-9.840947
213094269,213093270,0.23251173,-0.5926265,-9.72592
213144302,213143294,0.4092337,-0.65180564,-9.821383
213199409,213198321,0.15741561,-0.5201289,-9.751304
213244358,213243350,-0.04350361,-0.603666,-9.9761715
213294391,213293367,0.14173211,-0.7844506,-9.81377
213344404,213343394,0.24766493,-0.5222294,-9.708748
213394434,213393420,0.2801417,-0.6644702,-9.755812
213444526,213443440,0.17428301,-0.6148802,-9.756484
213494491,213493474,0.123279616,-0.5277373,-9.849834
213549565,213548500,0.086667195,-0.6308463,-9.799304
213594563,213593551,0.17415807,-0.5706211,-9.806084
213644578,213643538,0.12355306,-0.664446,-9.709514
213699597,213698572,0.27044624,-0.708798,-9.8897085
213744595,213743586,0.22068469,-0.51706773,-9.657869
213794631,213793614,0.210555,-0.65573925,-9.839678
213844639,213843635,0.08528674,-0.53880286,-9.882005
213899680,213898662,0.089728534,-0.6674291,-9.824539
213944696,213943684,0.079002835,-0.5474173,-9.755313
213994734,213993708,0.048571415,-0.61370766,-9.836133
214049781,214048735,0.23436968,-0.5571765,-9.7652855
214094794,214093757,0.36813167,-0.7242325,-9.788576
214144873,214143811,0.2911763,-0.53313917,-9.7996855
214194805,214193806,0.0073314593,-0.5098409,-9.896544
214249866,214248833,0.05230566,-0.6773913,-9.791341
214294861,214293858,0.052772176,-0.35319817,-9.823502
214344887,214343879,0.18290636,-0.59613466,-9.851501
214399920,214398906,0.264404,-0.42905685,-9.713675
214444934,214443928,0.21800882,-0.6044287,-9.689249
214494988,214493952,0.34799758,-0.43131316,-9.854922
214544986,214543977,0.25105923,-0.60863817,-9.8987665
214594987,214594001,0.13007039,-0.40890068,-9.783533
214645027,214644029,0.21629322,-0.5995125,-9.576983
214695071,214694050,0.08671187,-0.5144391,-9.964013
214750070,214749077,0.039104227,-0.46535495,-9.679095
214795102,214794109,-0.16280705,-0.5624769,-9.796115
214845126,214844133,-0.07426648,-0.6259295,-9.734624
214895154,214894148,0.099477,-0.4488797,-9.96028
214945172,214944183,0.33644366,-0.5171412,-9.841245
214995231,214994227,0.14271542,-0.5590776,-10.00772
215045227,215044221,0.27054852,-0.61939955,-9.803499
215100280,215099247,0.32311884,-0.6441665,-10.030805
215145288,215144269,0.40627143,-0.52735424,-9.558165
215195337,215194294,0.027547171,-0.802582,-10.134998
215245328,215244318,0.19846599,-0.33654281,-9.540872
215295430,215294342,0.21314588,-0.7110102,-9.803877
215345393,215344380,0.15584932,-0.47894156,-9.673835
215395434,215394394,-0.11866834,-0.61621857,-9.854227
215445460,215444416,0.0074329716,-0.6264807,-9.807964
215495506,215494442,0.24531823,-0.41751122,-9.778011
215545562,215544472,0.28180465,-0.5296071,-9.828808
215595556,215594489,0.09817627,-0.5629364,-9.843604
215645520,215644514,-0.1496168,-0.63117296,-9.77939
215695556,215694538,0.03294107,-0.14646323,-9.748961
215745581,215744562,0.20782766,-0.76840794,-9.748324
215795604,215794587,0.47329623,-0.3911315,-9.705078
215845635,215844611,0.3053568,-1.0100346,-9.821591
215895642,215894640,0.23450312,-0.43533352,-9.773171
215945662,215944660,-0.0041634417,-0.36758205,-9.848114
215995671,215994684,0.043236807,-0.7700115,-9.875513
216045716,216044716,0.14062487,-0.25147098,-9.911867
216095702,216094733,0.08446816,-0.7272299,-9.80522
216145757,216144758,0.48782754,-0.93523484,-9.797194
216195787,216194783,0.56158984,0.12672226,-9.609141
216245846,216244811,-0.29752618,-0.8448476,-9.699099
216295828,216294831,0.30922824,-0.43078393,-9.689478
216345892,216344862,-0.21109541,-0.10962118,-9.8856325
216395912,216394912,0.2698113,-0.4410591,-9.701675
216445903,216444904,0.35924473,-0.5525355,-9.725336
216495950,216494940,0.6162755,-0.7090147,-9.713493
216545956,216544954,-0.6327006,0.27122417,-9.791144
216595980,216594978,-0.20497465,-0.512424,-9.722408
216646006,216645002,0.07625098,-0.33172444,-9.767866
216696070,216695026,0.6836148,-0.23089245,-9.830975
216746050,216745051,0.20334797,-0.8520464,-9.795105
216796057,216795087,0.33805123,0.059746843,-9.881107
216846130,216845100,0.32285026,-0.56078047,-9.680872
216896167,216895124,-0.12837732,-0.40049398,-9.669589
216946197,216945149,0.09719093,-0.29597795,-9.81702
216996230,216995173,0.23623914,-0.49689555,-9.768465
217046309,217045198,0.45791227,-0.5110202,-9.909936
217096237,217095222,0.57181466,-0.7847753,-9.601793
217146246,217145246,0.0748807,-0.55723596,-9.774901
217196276,217195271,0.03671149,-0.84043574,-9.660513
217246337,217245295,-0.60951906,-0.15591085,-9.887343
217296318,217295320,0.5183432,-0.47328857,-9.831522
217346353,217345344,0.3183147,-0.4234495,-9.746119
217396395,217395369,0.36552677,-1.152814,-9.740589
217446406,217445396,0.5758329,-0.24096128,-9.704553
217496405,217495417,-0.09893944,-0.32213417,-9.909067
217546456,217545442,-0.03938662,-0.18639995,-9.955448
217596479,217595467,0.25704506,-0.58180416,-9.738734
217646534,217645491,0.3018236,-0.5277591,-9.741468
217696533,217695516,0.32299834,-0.46266466,-9.826055
217746577,217745562,-0.21043077,-0.54444927,-9.9673395
217796607,217795603,-0.078801356,-0.34734705,-10.006338
217846605,217845589,0.2780205,-0.71069604,-9.797427
217896692,217895613,0.17895135,-0.37826854,-9.758271
217946653,217945641,-0.022873122,-0.6276413,-9.828461
217996661,217995662,0.13586494,-0.42497104,-9.771074
218046697,218045687,0.29893714,-0.37562084,-9.827091
218096747,218095711,0.17394365,-0.6601454,-9.717705
218146734,218145736,0.067259684,-0.504031,-9.927952
218196734,218195761,0.110452734,-0.48011953,-9.879926
218246826,218245784,0.17425373,-0.42815593,-9.751201
218296868,218295816,0.10291953,-0.6253263,-9.287142
218346882,218345840,0.509486,-0.29595166,-9.738218
218396862,218395858,-0.23611075,-0.13491805,-10.048163
218446892,218445882,0.13801111,-0.28940842,-9.793587
218496911,218495907,0.101729415,-0.7408746,-9.8470545
218546930,218545931,0.49416676,-0.5736073,-9.701346
218596975,218595956,0.2908174,-0.2468851,-10.123497
218646982,218645980,-0.12698212,-0.5268256,-9.636744
218697034,218696005,-0.0019051441,-0.5027874,-9.952864
218747028,218746029,0.034776986,-0.55713886,-9.819713
218797065,218796057,0.06428953,-0.27739027,-9.794353
218847077,218846078,0.4000775,-0.6727289,-9.852635
218897102,218896111,0.65782094,-0.29735196,-9.57487
218947128,218946127,0.09085403,-0.5384423,-9.746117
218997151,218996158,0.30081788,-0.510648,-9.857456
219047196,219046176,0.14515725,-0.8043026,-9.715503
219097231,219096213,0.1492437,-0.43117866,-9.901133
219147284,219146245,0.16212234,-0.14084512,-9.8150215
219197286,219196282,0.19611867,-0.5373082,-9.790865
219247284,219246274,0.13043082,-0.5002435,-9.83934
219297304,219296298,-0.21153654,-0.51429546,-9.640338
219347336,219346323,-0.12610485,-0.35238057,-9.833142
219397364,219396347,0.4971395,-0.58057815,-9.917199
219447408,219446378,0.35784182,-0.18498072,-9.575823
219497462,219496401,-0.15276803,-0.45307714,-9.954088
219547481,219546421,-0.12516968,-0.66452086,-9.622956
219597514,219596470,0.77103907,-0.66930753,-9.576885
219647520,219646470,0.5282839,-0.47645047,-9.6646385
219697551,219696494,-0.08266036,-0.20670736,-9.999742
219747560,219746519,1.010265,-0.19055878,-9.632197
219792630,219791541,0.77993464,-0.64322764,-10.330149
219847588,219846568,-0.33651927,-0.5825963,-9.5149555
219897714,219896601,-1.0587955,0.18019214,-9.936952
219947633,219946617,-1.0059005,-0.59984285,-9.915473
219997656,219996642,-0.12398203,0.015166496,-9.897692
220047666,220046666,0.6512717,-0.47986427,-9.664626
220097699,220096690,0.78049064,-0.8606355,-9.812612
220142705,220141713,0.8748941,-0.5082798,-9.600517
220197737,220196739,0.18497515,-0.5278129,-9.851818
220247771,220246764,-0.29391477,-0.32151812,-9.946768
220297801,220296815,-0.29521453,-0.32708597,-9.833198
220347833,220346813,0.10196202,-0.47067228,-9.743531
220397852,220396849,0.4628382,-0.43702412,-9.753499
220447868,220446862,0.30924815,-0.51893187,-9.7708025
220492911,220491884,0.044660863,-0.35352027,-9.837139
220547937,220546917,0.10428409,-0.51801866,-9.56537
220597965,220596963,0.11625981,-0.55894613,-9.697584
220642965,220641957,0.12948021,-0.43190575,-9.82039
220698030,220696985,0.10581687,-0.41496548,-9.8540535
220748018,220747016,0.20241137,-0.2638089,-9.691789
220798036,220797033,0.23361944,-0.67918426,-9.871529
220843061,220842055,-0.019880075,-0.25182614,-9.796571
220898087,220897083,0.34178728,-0.609568,-9.766195
220948119,220947107,-0.15698178,-0.35493642,-9.84027
220993164,220992129,-0.07318481,-0.2898394,-9.74533
221048202,221047156,0.080290705,-0.45906156,-9.729936
221098233,221097190,0.6940338,-0.288733,-9.754742
221148251,221147205,0.63404393,-0.6650223,-9.700197
221193227,221192227,0.39880902,-0.5796865,-9.864757
221248340,221247254,-0.4732419,-0.18537869,-9.675551
221298285,221297279,-0.39274117,-0.02946056,-10.006372
221343314,221342301,-0.44156507,-0.2673723,-9.949617
221398340,221397328,-0.0005744918,-0.26800895,-9.766294
221443333,221442361,0.46247554,-0.6604657,-9.89039
221493422,221492385,0.7101485,-0.39825535,-9.711005
221543405,221542402,0.41002783,-0.6188696,-9.770956
221593460,221592426,0.12561868,-0.47537833,-9.785196
221648458,221647451,-0.060792595,-0.5046509,-9.844196
221693514,221692473,-0.0049197716,-0.2924752,-9.85724
221743505,221742501,0.3003776,-0.5294516,-9.809985
221798539,221797525,0.25644615,-0.4533879,-9.776123
221843560,221842547,0.16131955,-0.4709464,-9.791024
221893644,221892575,0.022022154,-0.4673682,-9.823734
221943638,221942593,0.1127684,-0.4073029,-9.806439
221998673,221997651,0.2699947,-0.4624966,-9.795099
222043657,222042645,0.22110502,-0.44538778,-9.801079
222093706,222092669,0.108087055,-0.49010825,-9.799156
222148716,222147700,0.060408186,-0.49981138,-9.848639
222193745,222192718,0.14065015,-0.40271905,-9.847477
222243765,222242743,0.09172243,-0.50250894,-9.790397
222293802,222292768,0.18717434,-0.45472786,-9.792782
222348818,222347795,0.21330152,-0.5424855,-9.77345
222393853,222392817,0.10826435,-0.32857203,-9.840592
222443852,222442841,0.19355842,-0.30720302,-9.643553
222498908,222497869,0.14032502,-0.70602274,-9.9539585
222543928,222542891,0.09039177,-0.117716245,-9.8223295
222593954,222592915,0.12322568,-0.6881852,-9.917199
222648964,222647948,0.33607054,-0.22052088,-9.748158
222694012,222692964,0.28915405,-0.47428867,-9.842786
222743995,222742989,-0.64532435,-0.5773639,-9.97408
222794065,222793013,0.229371,-0.6862709,-9.775852
222849047,222848040,0.664348,-0.23917234,-9.849119
222894090,222893063,-0.041817017,-0.49590683,-9.872107
222944093,222943091,-0.40386927,-0.40111294,-9.954397
222999121,222998114,-0.2261328,-0.41621673,-9.877865
223044186,223043136,0.0966624,-0.44592142,-9.802641
223094198,223093161,0.51096535,-0.56594074,-9.753294
223144198,223143186,0.5919053,-0.5251446,-9.7246475
223199234,223198222,0.15725812,-0.5971302,-9.774854
223244234,223243235,-0.12814258,-0.37566575,-9.808176
223294286,223293260,-0.06160979,-0.42245752,-9.945817
223349314,223348315,0.19926168,-0.6949513,-9.81336
223394348,223393323,0.37146512,-0.48784873,-9.834128
223444344,223443340,0.30505115,-0.47370008,-9.741133
223494403,223493358,0.12945707,-0.48726544,-9.815195
223549413,223548397,0.011014448,-0.49856102,-9.827061
223594453,223593408,0.04318978,-0.5186027,-9.804258
223644446,223643432,0.23202829,-0.70764977,-9.911322
223699497,223698462,0.27851036,-1.1915516,-9.913381
223744497,223743481,0.010181525,-0.39758384,-9.656931
223794559,223793506,0.13089813,-0.40722892,-9.84361
223849563,223848533,0.3131965,-0.46231884,-9.782854
223894639,223893555,0.20067099,-0.55983585,-9.784867
223944630,223943580,0.06627283,-0.5223043,-9.86614
223994689,223993615,0.06434709,-0.4227032,-9.714131
224049714,224048642,0.11117469,-0.5152234,-9.878184
224094715,224093654,0.1387945,-0.2826661,-9.897468
224144683,224143682,0.38779804,-0.73286265,-9.461528
224199754,224198709,-0.056019735,-0.47303963,-9.994181
224244742,224243739,0.34432614,-1.03689,-9.399881
224294789,224293752,0.38034356,-0.58156455,-9.698634
224344797,224343777,-0.12948138,0.13578762,-9.830608
224399823,224398804,0.22625373,-0.93927896,-9.717099
224444830,224443829,0.048058257,-0.9170812,-9.851746
224494888,224493851,0.14717785,-0.31549847,-9.809956
224549890,224548878,0.076690994,-0.2512579,-9.844512
224594924,224593900,0.11519019,-0.7415557,-9.669967
224644924,224643925,0.287909,-0.28863847,-9.803816
224695014,224693949,0.2977072,-0.47118607,-9.786969
224744970,224743977,0.11445605,-0.656394,-9.597276
224795068,224794019,0.20256937,-0.855314,-9.456345
224845023,224844031,-0.08528776,-0.75560254,-9.766982
224900105,224899054,0.054952413,-0.06947409,-10.197401
224945079,224944080,-0.116639376,-0.58460516,-9.67997
224995128,224994097,0.15185699,-0.2089198,-9.833838
225045120,225044122,0.4486911,-0.9088475,-9.645736
225095183,225094147,0.3967082,-0.53195924,-10.282842
225145208,225144171,0.51272166,-0.08696515,-10.021962
225195239,225194196,0.7320037,-0.053639878,-9.850569
225250303,225249223,0.10865781,-1.0521084,-9.22586
225295315,225294249,0.257861,-0.8798335,-9.324233
225345310,225344270,-0.011050832,-0.6587617,-9.276917
225395387,225394294,0.16339493,-1.3820478,-12.243434
225445319,225444319,-0.09323524,-0.11362161,-11.329525
225495466,225494344,0.1550572,-0.3159926,-9.663138
225545421,225544369,0.34339193,-1.0210143,-10.078621
225600454,225599401,0.61734605,-0.7206851,-9.288642
225645442,225644418,0.07131958,-1.1856132,-9.371515
225695455,225694447,0.06877555,-0.8500588,-9.771221
225745475,225744469,0.0379643,-1.1393932,-9.898196
225795549,225794492,0.20681587,-0.38642815,-10.043695
225845527,225844517,0.10404879,-0.5613162,-9.85904
225895591,225894542,0.14905299,-0.4256211,-9.791675
225945601,225944570,0.21240348,-0.36279115,-9.7779
225995631,225994591,0.22900994,-0.5230232,-9.8831
226045625,226044616,0.16298346,-0.39729056,-9.844841
226095699,226094640,0.1012062,-0.4354742,-9.832489
226145676,226144665,0.14079162,-0.40452567,-9.770874
226195789,226194719,0.20845552,-0.4308168,-9.81733
226245733,226244722,0.25976554,-0.51712114,-9.838718
226295744,226294739,0.20848647,-0.45969063,-9.815048
226345774,226344771,0.11988668,-0.44783828,-9.765995
226395849,226394790,0.14355783,-0.4790932,-9.817266
226445812,226444813,0.16753092,-0.4914729,-9.83419
226495874,226494838,0.21510431,-0.5277956,-9.8216715
226545868,226544862,0.1935438,-0.49411342,-9.800047
226595921,226594887,0.15617983,-0.49684578,-9.810267
226645941,226644912,0.1576295,-0.5331945,-9.817521
226696007,226694945,0.18861888,-0.50673425,-9.827642
226745998,226744962,0.22242995,-0.47219798,-9.701769
226796062,226794986,0.19164246,-0.590774,-9.853944
226846084,226845011,0.10967692,-0.4529584,-9.912531
226896071,226895036,0.24607936,-0.45216787,-9.513778
226946060,226945060,0.39234897,-0.53761244,-9.970012
226996082,226995085,-0.022717897,-0.5803261,-9.675893
227046114,227045110,0.035062265,-0.5309356,-9.954713
227096135,227095134,0.10407799,-0.5419205,-9.6753435
227146152,227145159,0.21271145,-0.5646591,-9.731753
227196230,227195184,0.33317602,-0.459484,-9.752197
227246231,227245207,0.2620128,-0.55105317,-9.873983
227296257,227295234,0.086733446,-0.647398,-9.795701
227346302,227345258,0.04670601,-0.18808116,-9.843048
227396302,227395283,0.25470963,-0.4005479,-9.822244
227446310,227445308,0.18373978,-0.77730113,-9.766459
227496359,227495333,0.19468442,-0.43843645,-9.881742
227546369,227545357,0.2089717,-0.3832473,-9.800049
227596449,227595396,0.100721985,-0.5887664,-9.8036375
227646439,227645407,0.23594029,-0.10447236,-9.797031
227696508,227695432,0.19359311,-0.44724217,-9.880465
227746480,227745457,0.16273999,-0.89748204,-9.779317
227796526,227795481,0.14200447,-0.38258904,-9.833843
227846523,227845506,0.24796028,-0.7685204,-9.815419
227896593,227895540,0.15713911,-0.47225827,-9.953587
227946562,227945555,0.03276511,-0.68886745,-9.997248
227996630,227995580,-0.11354788,-0.64318925,-9.739528
228046636,228045605,0.2345059,-0.39184356,-9.837003
228096703,228095630,0.50593024,-0.60811895,-9.665597
228146706,228145659,0.28260532,-0.390645,-9.812641
228196746,228195679,0.0074904724,-0.3864731,-9.888702
228246757,228245704,0.16129895,-0.94641685,-9.703936
228296770,228295737,0.20240895,-0.49958006,-9.653343
228346752,228345753,0.16735296,-0.6081087,-9.854376
228396789,228395782,0.16226958,-0.66536814,-9.869601
228446809,228445803,0.12759495,-0.6260985,-9.773499
228496894,228495828,0.22709551,-0.65059465,-9.749724
228546856,228545852,0.1941609,-0.54343635,-9.881652
228596910,228595877,0.007181,-0.48565143,-9.730292
228646896,228645897,0.41176152,-0.6255072,-9.843637
228697043,228695927,0.20156273,-0.4562596,-9.702158
228746957,228745952,0.2719705,-0.680131,-9.76771
228796998,228795977,0.1601202,-0.6938854,-10.001723
228847015,228846001,0.26923305,-0.5301614,-9.750085
228897048,228896026,-0.03854208,-0.38162422,-9.789648
228947048,228946051,0.043772094,-0.64396954,-9.932167
228997129,228996093,0.21656086,-0.39355356,-9.97379
229047119,229046122,0.32962492,-0.5754477,-9.668706
229097155,229096132,0.45571488,-0.74403167,-9.788368
229147173,229146159,0.11666431,-0.55277383,-9.746148
229197211,229196175,0.3872155,-0.19298525,-9.784266
229247225,229246199,0.18106516,-0.76919526,-9.681141
229297263,229296225,0.22411929,-0.5385129,-9.820788
229347261,229346249,0.17549999,-0.8186633,-9.68506
229397310,229396274,0.24991198,-0.79415584,-9.737693
229447310,229446299,0.13817227,-0.5138865,-9.672326
229497398,229496323,0.25687635,-0.6075079,-9.785182
229547408,229546348,0.15064035,-0.32763898,-9.811794
229597460,229596379,0.12054136,-1.0953436,-9.933807
229647408,229646398,0.13422184,-0.5649717,-9.687732
229697404,229696420,0.047694843,-0.38226202,-9.870602
229747455,229746448,0.14167939,-0.6682685,-9.643061
229797504,229796479,-0.16781211,-0.54852337,-9.854659
229847519,229846497,0.10552362,-0.74562645,-9.923521
229897575,229896522,0.12548025,-0.3771392,-9.742081
229942571,229941544,0.37690943,-0.6977847,-9.486738
229997647,229996571,0.38764876,-0.62925917,-9.94881
230047602,230046597,-0.19315474,-0.56095785,-9.74913
230097714,230096622,0.17238282,-0.45705202,-9.990385
230147674,230146646,0.12355898,-0.618007,-9.795696
230197665,230196671,0.32138312,-0.51125103,-9.822948
230247703,230246696,0.43846163,-0.5245934,-9.772296
230292735,230291738,0.17942612,-0.5268293,-9.902955
230347739,230346746,-0.034682,-0.62481564,-9.774005
230397785,230396790,0.119298436,-0.5372897,-9.9373255
230447832,230446817,0.34065714,-0.4641294,-9.768322
230497892,230496859,0.20421034,-0.59981155,-9.842098
230547874,230546845,0.04331887,-0.7104341,-9.873254
230597900,230596869,0.24366401,-0.42235065,-9.811578
230642940,230641892,0.28501034,-0.5963155,-9.79184
230697953,230696919,0.32382503,-0.569435,-9.418885
230747955,230746948,0.5075418,-0.6112007,-9.9435215
230792966,230791966,-0.4535261,-0.88746077,-9.935105
230848005,230846994,-0.32028052,-0.5272243,-9.947159
230898056,230897018,0.6345609,-0.028504042,-10.027845
230948105,230947044,0.83560824,-0.4992552,-9.763734
230993105,230992073,-0.15363465,-0.7919356,-10.3057785
231048143,231047093,-0.09372154,-1.0234284,-9.914613
231098094,231097115,0.081507005,-0.6394294,-9.583577
231143142,231142140,0.33557305,-0.4393249,-9.946156
231198201,231197168,0.3544798,-0.7244456,-9.786299
231248206,231247192,0.5807887,-0.7691848,-10.461405
231298268,231297217,-0.07725151,-1.1561805,-9.922245
231343233,231342240,0.2255734,0.006884633,-9.63128
231398308,231397267,0.5628419,-0.83824503,-9.840376
231448317,231447298,0.09703408,-1.1235716,-9.825826
231493315,231492315,0.16097672,-0.7668053,-9.828728
231548376,231547342,0.21900193,-0.4291953,-10.057884
231598415,231597367,-0.16368505,-1.0731791,-9.915147
231648405,231647394,0.042662155,-0.3496403,-9.797445
231693429,231692414,0.09720053,-0.47756144,-9.798823
231748467,231747442,0.3684524,-0.5460028,-9.906947
231798609,231797514,0.29897186,-0.59232557,-9.795668
231843509,231842500,0.28321043,-0.46647227,-9.691327
231898564,231897548,0.27575034,-0.68536335,-9.814642
231948561,231947551,0.11219682,-0.41287878,-9.846966
231993589,231992563,0.11585227,-0.5993704,-9.808822
232043616,232042588,0.14211045,-0.54656565,-9.755368
232098658,232097618,0.1466977,-0.555471,-9.8255005
232148654,232147641,0.14473769,-0.5498984,-9.741685
232193668,232192663,0.2560601,-0.34503728,-9.774432
232248701,232247690,0.41839296,-0.5362027,-9.903471
232298764,232297718,0.2727372,-0.92871433,-10.028329
232343757,232342744,-0.06109075,-0.56949717,-9.7386875
232393785,232392771,-0.15439013,-1.1315042,-9.507358
232448827,232447789,0.20624867,-0.8875233,-9.647163
232498918,232497814,0.2698032,-0.8300335,-9.654276
232543843,232542837,0.2150625,-0.53790766,-9.677616
232593872,232592862,0.008437573,-0.7055296,-9.888997
232648911,232647893,-0.040261682,-0.19270808,-9.707437
232693917,232692911,0.21809249,-0.16243044,-9.962683
232743978,232742936,0.23256096,-0.71561,-9.733232
232798973,232797964,0.06319218,-0.30584058,-9.733032
232843987,232842986,-0.20564875,-0.92704266,-9.481565
232894011,232893011,0.03396169,-0.5397039,-9.7917595
232944005,232943036,0.16757187,-0.6802952,-9.899092
232999106,232998063,0.17885475,-0.561936,-9.752936
233044082,233043086,0.33889687,-0.5041911,-9.701678
233094112,233093111,0.30604362,-0.4050293,-9.846621
233149124,233148138,0.22368236,-0.92236924,-10.059638
233194167,233193161,0.18932752,-0.49881145,-9.768305
233244189,233243185,0.17949632,-0.5683149,-9.704182
233294288,233293218,0.036015835,-0.6175479,-9.80964
233349249,233348245,0.10114843,-0.33591953,-9.754148
233394269,233393260,-0.14535204,-0.75057805,-9.51267
233444279,233443286,0.040754385,-0.39529708,-9.978176
233499347,233498313,0.14463042,-0.76365006,-9.735805
233544351,233543340,0.23764665,-0.55934364,-9.728202
233594422,233593360,0.24633996,-0.6991406,-9.718265
233644424,233643397,0.3214511,-0.16188006,-9.881789
233699475,233698412,0.23949793,-0.29959574,-9.828538
233744453,233743435,0.05097657,-0.58839864,-9.591362
233794560,233793470,0.12943028,-0.7506199,-9.759295
233849536,233848487,-0.0829904,-0.5575648,-9.692483
233894580,233893509,0.14523488,-0.35582983,-9.853782
233944591,233943535,0.28548986,-0.14838228,-9.799707
233999652,233998562,0.06982663,-0.48657006,-9.745878
234044601,234043584,0.15175185,-0.38462663,-9.895109
234094630,234093609,0.21483052,-0.50389373,-9.790473
234144676,234143635,0.23892172,-0.28089467,-9.80126
234199678,234198665,0.1117627,-0.57522506,-9.709528
234244690,234243685,0.07484507,-0.602428,-9.754748
234294713,234293709,0.0008915734,-0.60515004,-9.681958
234349760,234348736,-0.012838844,-0.8161628,-9.865996
234394758,234393759,0.3359077,-0.4277862,-9.808198
234444794,234443791,0.25515813,-0.5056872,-9.739805
234494821,234493809,0.28296435,-0.024761664,-10.009027
234549836,234548836,0.36237466,-0.7880446,-9.696816
234594852,234593859,0.2800523,-0.41901448,-9.7372465
234644891,234643884,0.08067478,-0.48415902,-9.771136
234699920,234698913,0.0009115953,-0.43935862,-9.876735
234744960,234743953,0.07553139,-0.3453264,-9.77682
234794966,234793966,0.15917784,-0.68117034,-9.767456
234844996,234843984,0.13167715,-0.62815756,-9.751522
234895028,234894009,0.14107855,-0.5185015,-9.803535
234945038,234944034,-0.04711613,-0.8321967,-9.577907
234995103,234994058,-0.0847729,-0.4708241,-9.656584
235050125,235049086,0.21539284,-0.35155872,-9.866693
235095128,235094108,0.41873538,-0.3576905,-9.818439
235145149,235144133,0.378814,-0.3954806,-9.772462
235195173,235194158,0.49486232,-0.38044515,-9.803398
235245218,235244183,0.28260195,-0.2598979,-9.93002
235295258,235294208,-0.060282536,-0.7161186,-9.726847
235345294,235344234,-0.22865126,-0.29438636,-9.630373
235400325,235399260,-0.04849674,-0.4817222,-9.973591
235445288,235444283,0.040439527,-0.6019728,-9.705672
235495311,235494308,0.3079522,-0.37300056,-9.854997
235545396,235544333,0.3351863,-0.59969723,-9.775454
235595368,235594365,0.3184909,-0.49298808,-9.803291
235645408,235644394,0.16317694,-0.5710329,-9.791744
235695449,235694410,0.06924302,-0.5112871,-9.81709
235745412,235744433,0.08153765,-0.3701006,-9.819222
235795466,235794458,0.13312201,-0.5652384,-9.768372
235845494,235844483,0.21348323,-0.5172269,-9.763936
235895558,235894511,0.25036415,-0.5050848,-9.762776
235945541,235944533,0.19532576,-0.51818717,-9.763648
235995564,235994560,0.09142571,-0.4768473,-9.792238
236045607,236044597,0.112760134,-0.5546336,-9.789969
236095614,236094608,0.17473222,-0.5213445,-9.779333
236145657,236144638,0.22468185,-0.46854624,-9.767549
236195677,236194666,0.20762253,-0.55254024,-9.770264
236245728,236244683,0.13833776,-0.5048514,-9.792032
236295714,236294708,0.14918128,-0.50629133,-9.770258
236345731,236344733,0.20637167,-0.5159007,-9.76357
236395809,236394758,0.21097124,-0.51182204,-9.757156
236445828,236444798,0.16563003,-0.5392476,-9.790364
236495835,236494808,0.13459498,-0.5190457,-9.780919
236545850,236544840,0.17131227,-0.5028865,-9.779387
236595877,236594861,0.17525478,-0.5048729,-9.789479
236645920,236644887,0.18387847,-0.5214903,-9.793533
236695957,236694911,0.18113753,-0.5264695,-9.772852
236745970,236744933,0.16152298,-0.5298409,-9.753916
236796050,236794958,0.17370732,-0.49595812,-9.79462
236845990,236844983,0.16762017,-0.51953745,-9.775729
236896014,236895008,0.16150948,-0.5157966,-9.778705
236946032,236945033,0.18751892,-0.508139,-9.798339
236996057,236995058,0.19129865,-0.49396244,-9.774837
237046095,237045083,0.16802493,-0.53199023,-9.786635
237096136,237095108,0.16342679,-0.5253383,-9.73464
237146104,237145140,0.17975153,-0.53011024,-9.779215
237196158,237195161,0.18684939,-0.5148051,-9.781659
237246190,237245190,0.18528429,-0.5050561,-9.763887
237296241,237295208,0.14071365,-0.5318766,-9.822611
237346243,237345233,0.17465135,-0.50029975,-9.79847
237396252,237395259,0.19464236,-0.5242453,-9.765325
237446289,237445286,0.17471437,-0.52679706,-9.795283
237496391,237495309,0.1649016,-0.51524216,-9.765772
237546358,237545337,0.17132856,-0.5181443,-9.779644
237596394,237595387,0.18063198,-0.5138563,-9.758709
237646400,237645396,0.18573123,-0.5236103,-9.801663
237696445,237695408,0.17248844,-0.50814813,-9.79079
237746452,237745434,0.1689804,-0.5235055,-9.777307
237796477,237795459,0.17177027,-0.5004445,-9.800121
237846517,237845485,0.17984164,-0.50319135,-9.791217
237896532,237895509,0.18626204,-0.51456845,-9.778887
237946561,237945534,0.178131,-0.51573366,-9.783427
237996589,237995559,0.18799438,-0.5068382,-9.802751
238046593,238045584,0.16929011,-0.50215405,-9.775259
238096664,238095613,0.17519458,-0.52390456,-9.765026
238146677,238145639,0.16875583,-0.5168308,-9.757367
238196735,238195659,0.18258877,-0.50314116,-9.771228
238246689,238245684,0.19437885,-0.533069,-9.7904
238296717,238295709,0.16180111,-0.50736904,-9.785988
238346734,238345734,0.16781427,-0.5108042,-9.787309
238396762,238395759,0.18362151,-0.5110566,-9.799845
238446784,238445784,0.15858525,-0.52551436,-9.772646
238496819,238495815,0.17941396,-0.5094865,-9.759595
238546807,238545835,0.18088761,-0.5007502,-9.769792
238596866,238595864,0.18067549,-0.49745318,-9.784273
238646878,238645885,0.17282395,-0.51963854,-9.778656
238696915,238695910,0.17907733,-0.5024887,-9.786635
238746933,238745935,0.17873687,-0.5074599,-9.787115
238796963,238795960,0.18278931,-0.5079188,-9.776047
238846988,238845985,0.15173139,-0.51848304,-9.774559
238897013,238896016,0.17853278,-0.5273978,-9.804014
238947050,238946035,0.15832782,-0.48128906,-9.768087
238997060,238996070,0.17451073,-0.4922291,-9.765485
239047166,239046115,0.17357823,-0.50925326,-9.778461
239097127,239096118,0.17258717,-0.505554,-9.761843
239147142,239146137,0.16836287,-0.49851236,-9.77341
239197173,239196172,0.16792977,-0.5118562,-9.787872
239247160,239246186,0.18103813,-0.52791643,-9.77138
239297247,239296211,0.17523612,-0.53112316,-9.784204
239347240,239346236,0.17929642,-0.5095995,-9.787899
239397302,239396272,0.18550822,-0.52801144,-9.791984
239447297,239446286,0.15869002,-0.49929518,-9.778714
239497362,239496311,0.15736453,-0.5117855,-9.787396
239547368,239546336,0.18180484,-0.51722103,-9.7636
239597423,239596364,0.18711422,-0.51155555,-9.766503
239647415,239646394,0.16172282,-0.5011124,-9.750659
239697496,239696412,0.16440411,-0.5243579,-9.785967
239747450,239746437,0.19697239,-0.5028629,-9.783481
239797477,239796462,0.18291411,-0.52319133,-9.769396
239847494,239846487,0.17413397,-0.52298695,-9.788844
239897535,239896512,0.17063898,-0.4991454,-9.784062
239947572,239946537,0.16775663,-0.50063795,-9.782379
239997580,239996562,0.17847392,-0.53254163,-9.774738
240047598,240046587,0.1835605,-0.49702826,-9.77636
240092645,240091613,0.17467739,-0.5061289,-9.755768
240147633,240146639,0.1951514,-0.50438845,-9.76989
240197665,240196666,0.18618502,-0.51455283,-9.768368
240247695,240246688,0.17634346,-0.5349387,-9.759433
240297766,240296713,0.1887219,-0.518879,-9.782642
240347760,240346738,0.17929164,-0.52442104,-9.814301
240397762,240396769,0.17114477,-0.53088903,-9.761907
240442816,240441792,0.19311357,-0.5350308,-9.754968
240497854,240496847,0.19235685,-0.5007567,-9.761006
240547881,240546839,0.16583993,-0.51040554,-9.788128
240597871,240596863,0.16917403,-0.49965614,-9.790622
240647942,240646903,0.16282395,-0.53175724,-9.785416
240692910,240691911,0.1757675,-0.49820068,-9.780899
240747978,240746939,0.17293507,-0.5062799,-9.775546
240792965,240791961,0.17149106,-0.50317585,-9.78467
240843020,240841986,0.16032828,-0.5050046,-9.767231
240898028,240897016,0.17913768,-0.51987034,-9.775489
240943088,240942037,0.1805953,-0.5318597,-9.776086
240998146,240997064,0.2001908,-0.52677375,-9.761934
241048133,241047090,0.17188472,-0.51650465,-9.793207
241098140,241097115,0.17260836,-0.52108115,-9.76511
241143137,241142137,0.17389756,-0.5273796,-9.768668
241198169,241197165,0.1873431,-0.5099376,-9.766388
241248191,241247192,0.17363043,-0.50778246,-9.803543
241293231,241292213,0.16590546,-0.50856054,-9.823479
241348208,241347241,0.17820793,-0.4919393,-9.780698
241393259,241392265,0.20097157,-0.52352655,-9.742671
241448291,241447291,0.16002558,-0.53581345,-9.8022
241493362,241492313,0.15887386,-0.5116249,-9.785394
241543338,241542338,0.17000346,-0.52315336,-9.759496
241598396,241597368,0.18743189,-0.50086015,-9.789305
241643431,241642395,0.18873751,-0.52175057,-9.748734
241693425,241692414,0.1913079,-0.5087777,-9.782315
241748451,241747443,0.17008285,-0.5436345,-9.785188
241793504,241792478,0.19128521,-0.5166211,-9.775973
241843521,241842491,0.17442928,-0.5208935,-9.786239
241893536,241892523,0.1694375,-0.50390965,-9.76415
241948606,241947551,0.17020763,-0.51666737,-9.789397
241993583,241992565,0.17665073,-0.5190629,-9.760246
242043602,242042590,0.17824715,-0.5194967,-9.788858
242098631,242097622,0.17090791,-0.5148715,-9.811769
242143644,242142640,0.17284651,-0.5241283,-9.796508
242193727,242192666,0.17086919,-0.5097489,-9.782156
242243708,242242691,0.19107622,-0.4939574,-9.793103
242298738,242297718,0.17805262,-0.49587893,-9.794827
242343817,242342741,0.1745519,-0.50048643,-9.775092
242393804,242392766,0.17008755,-0.52142894,-9.784541
242448839,242447794,0.17800874,-0.52458936,-9.77704
242493883,242492817,0.33383608,-0.20551257,-9.90654
242543892,242542842,0.124472454,-0.21027416,-9.787647
242593866,242592867,0.20440596,-0.5567671,-9.797079
242648902,242647895,0.10767629,-0.6238315,-9.717255
242693917,242692917,0.12366309,-0.323638,-9.827315
242743937,242742937,0.19715999,-0.58882815,-9.789527
242798975,242797970,0.27990407,-0.6022367,-9.716092
242843986,242842993,0.1981544,-0.48324555,-9.785505
242894063,242893018,0.15941143,-0.41654855,-9.806647
242949050,242948051,0.09118693,-0.66836464,-9.878895
242994075,242993068,0.35172647,-0.33210102,-9.688641
243044135,243043094,0.065739766,-0.67246073,-9.783984
243094116,243093119,0.23045062,-0.2945206,-9.844431
243149153,243148147,0.00794396,-0.7751972,-9.731616
243194192,243193169,0.2887847,-0.92119795,-9.659893
243244194,243243195,0.418863,-0.045490228,-9.645694
243299230,243298227,0.079649925,-0.3121765,-9.827167
243344253,243343289,-0.27175847,-0.85852855,-9.865521
243394308,243393288,0.105783954,0.014023211,-9.812205
243444301,243443300,0.17504363,-1.0329112,-9.745827
243499379,243498323,-0.10840191,-0.4373527,-9.913968
243544358,243543345,0.09252924,-0.5606657,-9.878325
243594418,243593371,0.65211564,-0.6415772,-9.689899
243649425,243648398,0.49587634,-0.47965625,-9.755804
243694468,243693421,0.5377413,-0.64350116,-9.681061
243744512,243743447,0.3446226,-0.39835906,-9.84231
