timestamp,timestamp_sample,gps_hvel[0],gps_hvel[1],gps_vvel,gps_hpos[0],gps_hpos[1],gps_vpos,ev_hvel[0],ev_hvel[1],ev_vvel,ev_hpos[0],ev_hpos[1],ev_vpos,rng_vpos,baro_vpos,aux_hvel[0],aux_hvel[1],aux_vvel,flow[0],flow[1],heading,mag_field[0],mag_field[1],mag_field[2],drag[0],drag[1],airspeed,beta,hagl
186840062,186838176,0.0,0.0,0.0,0.3006199,0.30061987,0.0,0.0,0.0,0.0,0.0,0.0,0.0,0.0,12.538576,0.0,0.0,nan,0.0,0.0,0.09014444,0.0,0.0,0.0,0.0,0.0,0.0,0.0,0.0
186850600,186848181,0.0,0.0,0.0,0.3006199,0.30061987,0.0,0.0,0.0,0.0,0.0,0.0,0.0,0.0,12.539367,0.0,0.0,nan,0.0,0.0,0.090144426,0.0,0.0,0.0,0.0,0.0,0.0,0.0,0.0
187340270,187338413,0.0,0.0,0.0,0.3008682,0.3008682,0.0,0.0,0.0,0.0,0.0,0.0,0.0,0.0,12.538932,0.0,0.0,nan,0.0,0.0,0.090144366,0.0,0.0,0.0,0.0,0.0,0.0,0.0,0.0
187840361,187838647,0.0,0.0,0.0,0.3011523,0.30115232,0.0,0.0,0.0,0.0,0.0,0.0,0.0,0.0,12.53847,0.0,0.0,nan,0.0,0.0,0.09014453,0.0,0.0,0.0,0.0,0.0,0.0,0.0,0.0
188351291,188348890,0.0,0.0,0.0,0.3012835,0.30128354,0.0,0.0,0.0,0.0,0.0,0.0,0.0,0.0,12.538792,0.0,0.0,nan,0.0,0.0,0.09014445,0.0,0.0,0.0,0.0,0.0,0.0,0.0,0.0
188851083,188849128,0.0,0.0,0.0,0.30140784,0.30140787,0.0,0.0,0.0,0.0,0.0,0.0,0.0,0.0,12.538358,0.0,0.0,nan,0.0,0.0,0.0901446,0.0,0.0,0.0,0.0,0.0,0.0,0.0,0.0
189341261,189339361,0.0,0.0,0.0,0.30145335,0.3014534,0.0,0.0,0.0,0.0,0.0,0.0,0.0,0.0,12.539181,0.0,0.0,nan,0.0,0.0,0.09014453,0.0,0.0,0.0,0.0,0.0,0.0,0.0,0.0
189841313,189839599,0.0,0.0,0.0,0.30148473,0.3014848,0.0,0.0,0.0,0.0,0.0,0.0,0.0,0.0,12.538703,0.0,0.0,nan,0.0,0.0,0.090144455,0.0,0.0,0.0,0.0,0.0,0.0,0.0,0.0
190342110,190339837,0.0,0.0,0.0,0.30149204,0.30149215,0.0,0.0,0.0,0.0,0.0,0.0,0.0,0.0,12.539087,0.0,0.0,nan,0.0,0.0,0.0901445,0.0,0.0,0.0,0.0,0.0,0.0,0.0,0.0
190842280,190840115,0.0,0.0,0.0,0.3014937,0.30149394,0.0,0.0,0.0,0.0,0.0,0.0,0.0,0.0,12.5386305,0.0,0.0,nan,0.0,0.0,0.090144426,0.0,0.0,0.0,0.0,0.0,0.0,0.0,0.0
191342388,191340314,0.0,0.0,0.0,0.30149403,0.3014944,0.0,0.0,0.0,0.0,0.0,0.0,0.0,0.0,12.538182,0.0,0.0,nan,0.0,0.0,0.09014459,0.0,0.0,0.0,0.0,0.0,0.0,0.0,0.0
191842613,191840552,0.0,0.0,0.0,0.30149707,0.30149755,0.0,0.0,0.0,0.0,0.0,0.0,0.0,0.0,12.538573,0.0,0.0,nan,0.0,0.0,0.09014462,0.0,0.0,0.0,0.0,0.0,0.0,0.0,0.0
192342503,192340790,0.0,0.0,0.0,0.3015017,0.30150217,0.0,0.0,0.0,0.0,0.0,0.0,0.0,0.0,12.539392,0.0,0.0,nan,0.0,0.0,0.090144545,0.0,0.0,0.0,0.0,0.0,0.0,0.0,0.0
192842688,192841028,0.0,0.0,0.0,0.30151328,0.30151373,0.0,0.0,0.0,0.0,0.0,0.0,0.0,0.0,12.538963,0.0,0.0,nan,0.0,0.0,0.090144694,0.0,0.0,0.0,0.0,0.0,0.0,0.0,0.0
193343169,193341270,0.0,0.0,0.0,0.30152264,0.30152312,0.0,0.0,0.0,0.0,0.0,0.0,0.0,0.0,12.538563,0.0,0.0,nan,0.0,0.0,0.090144716,0.0,0.0,0.0,0.0,0.0,0.0,0.0,0.0
193843455,193841505,0.0,0.0,0.0,0.3015373,0.30153778,0.0,0.0,0.0,0.0,0.0,0.0,0.0,0.0,12.538908,0.0,0.0,nan,0.0,0.0,0.09014464,0.0,0.0,0.0,0.0,0.0,0.0,0.0,0.0
194343631,194341752,0.0,0.0,0.0,0.30154657,0.30154693,0.0,0.0,0.0,0.0,0.0,0.0,0.0,0.0,12.538493,0.0,0.0,nan,0.0,0.0,0.09014468,0.0,0.0,0.0,0.0,0.0,0.0,0.0,0.0
194843912,194841982,0.0,0.0,0.0,0.30155975,0.30155995,0.0,0.0,0.0,0.0,0.0,0.0,0.0,0.0,12.5393305,0.0,0.0,nan,0.0,0.0,0.090144716,0.0,0.0,0.0,0.0,0.0,0.0,0.0,0.0
195343990,195342220,0.0,0.0,0.0,0.3015664,0.30156648,0.0,0.0,0.0,0.0,0.0,0.0,0.0,0.0,12.538418,0.0,0.0,nan,0.0,0.0,0.090144746,0.0,0.0,0.0,0.0,0.0,0.0,0.0,0.0
195844197,195842459,0.0,0.0,0.0,0.30157572,0.30157578,0.0,0.0,0.0,0.0,0.0,0.0,0.0,0.0,12.539268,0.0,0.0,nan,0.0,0.0,0.090144664,0.0,0.0,0.0,0.0,0.0,0.0,0.0,0.0
196344423,196342705,0.0,0.0,0.0,0.3015807,0.3015808,0.0,0.0,0.0,0.0,0.0,0.0,0.0,0.0,12.538835,0.0,0.0,nan,0.0,0.0,0.09014458,0.0,0.0,0.0,0.0,0.0,0.0,0.0,0.0
196845273,196842961,0.0,0.0,0.0,0.30158526,0.30158538,0.0,0.0,0.0,0.0,0.0,0.0,0.0,0.0,12.539171,0.0,0.0,nan,0.0,0.0,0.090144604,0.0,0.0,0.0,0.0,0.0,0.0,0.0,0.0
197345214,197343176,0.0,0.0,0.0,0.30158722,0.30158737,0.0,0.0,0.0,0.0,0.0,0.0,0.0,0.0,12.5387535,0.0,0.0,nan,0.0,0.0,0.09014453,0.0,0.0,0.0,0.0,0.0,0.0,0.0,0.0
197845210,197843418,0.0,0.0,0.0,0.30158952,0.30158982,0.0,0.0,0.0,0.0,0.0,0.0,0.0,0.0,12.538307,0.0,0.0,nan,0.0,0.0,0.090144575,0.0,0.0,0.0,0.0,0.0,0.0,0.0,0.0
198345699,198343657,0.0,0.0,0.0,0.30159056,0.3015909,0.0,0.0,0.0,0.0,0.0,0.0,0.0,0.0,12.538643,0.0,0.0,nan,0.0,0.0,0.0901445,0.0,0.0,0.0,0.0,0.0,0.0,0.0,0.0
198845865,198843893,0.0,0.0,0.0,0.3015917,0.30159208,0.0,0.0,0.0,0.0,0.0,0.0,0.0,0.0,12.53824,0.0,0.0,nan,0.0,0.0,0.09014454,0.0,0.0,0.0,0.0,0.0,0.0,0.0,0.0
199346107,199344134,0.0,0.0,0.0,0.30159274,0.30159312,0.0,0.0,0.0,0.0,0.0,0.0,0.0,0.0,12.539062,0.0,0.0,nan,0.0,0.0,0.09014446,0.0,0.0,0.0,0.0,0.0,0.0,0.0,0.0
199846418,199844378,0.0,0.0,0.0,0.30159277,0.30159318,0.0,0.0,0.0,0.0,0.0,0.0,0.0,0.0,12.538143,0.0,0.0,nan,0.0,0.0,0.09014451,0.0,0.0,0.0,0.0,0.0,0.0,0.0,0.0
200346621,200344612,0.0,0.0,0.0,0.30159336,0.30159372,0.0,0.0,0.0,0.0,0.0,0.0,0.0,0.0,12.53898,0.0,0.0,nan,0.0,0.0,0.090144545,0.0,0.0,0.0,0.0,0.0,0.0,0.0,0.0
200846870,200844854,0.0,0.0,0.0,0.30159348,0.3015938,0.0,0.0,0.0,0.0,0.0,0.0,0.0,0.0,12.538508,0.0,0.0,nan,0.0,0.0,0.09014446,0.0,0.0,0.0,0.0,0.0,0.0,0.0,0.0
201346780,201345103,0.0,0.0,0.0,0.30159354,0.30159378,0.0,0.0,0.0,0.0,0.0,0.0,0.0,0.0,12.5380745,0.0,0.0,nan,0.0,0.0,0.090144515,0.0,0.0,0.0,0.0,0.0,0.0,0.0,0.0
201847204,201845339,0.0,0.0,0.0,0.3015945,0.30159461,0.0,0.0,0.0,0.0,0.0,0.0,0.0,0.0,12.538451,0.0,0.0,nan,0.0,0.0,0.090144545,0.0,0.0,0.0,0.0,0.0,0.0,0.0,0.0
202347593,202345572,0.0,0.0,0.0,0.301594,0.30159396,0.0,0.0,0.0,0.0,0.0,0.0,0.0,0.0,12.539254,0.0,0.0,nan,0.0,0.0,0.09014447,0.0,0.0,0.0,0.0,0.0,0.0,0.0,0.0
202847730,202845812,0.0,0.0,0.0,0.30159554,0.3015954,0.0,0.0,0.0,0.0,0.0,0.0,0.0,0.0,12.538838,0.0,0.0,nan,0.0,0.0,0.0901444,0.0,0.0,0.0,0.0,0.0,0.0,0.0,0.0
203348107,203346053,0.0,0.0,0.0,0.30159584,0.30159563,0.0,0.0,0.0,0.0,0.0,0.0,0.0,0.0,12.539189,0.0,0.0,nan,0.0,0.0,0.09014457,0.0,0.0,0.0,0.0,0.0,0.0,0.0,0.0
203848479,203846293,0.0,0.0,0.0,0.30159712,0.30159685,0.0,0.0,0.0,0.0,0.0,0.0,0.0,0.0,12.538732,0.0,0.0,nan,0.0,0.0,0.090144485,0.0,0.0,0.0,0.0,0.0,0.0,0.0,0.0
204348189,204346534,0.0,0.0,0.0,0.3015979,0.30159765,0.0,0.0,0.0,0.0,0.0,0.0,0.0,0.0,12.538308,0.0,0.0,nan,0.0,0.0,0.090144426,0.0,0.0,0.0,0.0,0.0,0.0,0.0,0.0
204848633,204846775,0.0,0.0,0.0,0.30159912,0.30159885,0.0,0.0,0.0,0.0,0.0,0.0,0.0,0.0,12.538665,0.0,0.0,nan,0.0,0.0,0.09014446,0.0,0.0,0.0,0.0,0.0,0.0,0.0,0.0
205348652,205347016,0.0,0.0,0.0,0.3015994,0.30159917,0.0,0.0,0.0,0.0,0.0,0.0,0.0,0.0,12.538203,0.0,0.0,nan,0.0,0.0,0.090144396,0.0,0.0,0.0,0.0,0.0,0.0,0.0,0.0
205849198,205847257,0.0,0.0,0.0,0.061599597,0.061599325,0.0,0.0,0.0,0.0,0.0,0.0,0.0,0.0,12.539054,0.0,0.0,nan,0.0,0.0,0.090144426,0.0,0.0,0.0,0.0,0.0,0.0,0.0,0.0
206349482,206347506,0.0,0.0,0.0,0.01655658,0.016556535,0.0,0.0,0.0,0.0,0.0,0.0,0.0,0.0,12.538625,0.0,0.0,nan,0.0,0.0,0.09014436,0.0,0.0,0.0,0.0,0.0,0.0,0.0,0.0
206840048,206837735,0.0,0.0,0.0,0.25493988,0.2549398,0.0,0.0,0.0,0.0,0.0,0.0,0.0,0.0,12.538972,0.0,0.0,nan,0.0,0.0,0.09014442,0.0,0.0,0.0,0.0,0.0,0.0,0.0,0.0
207339928,207338007,0.0,0.0,0.0,0.2600887,0.2600884,0.0,0.0,0.0,0.0,0.0,0.0,0.0,0.0,12.538559,0.0,0.0,nan,0.0,0.0,0.090144455,0.0,0.0,0.0,0.0,0.0,0.0,0.0,0.0
207840274,207838223,0.0,0.0,0.0,0.2726356,0.272635,0.0,0.0,0.0,0.0,0.0,0.0,0.0,0.0,12.539373,0.0,0.0,nan,0.0,0.0,0.0901445,0.0,0.0,0.0,0.0,0.0,0.0,0.0,0.0
208340315,208338461,0.0,0.0,0.0,0.28224376,0.28224304,0.0,0.0,0.0,0.0,0.0,0.0,0.0,0.0,12.53847,0.0,0.0,nan,0.0,0.0,0.09014467,0.0,0.0,0.0,0.0,0.0,0.0,0.0,0.0
208840583,208838704,0.0,0.0,0.0,0.29366416,0.29366356,0.0,0.0,0.0,0.0,0.0,0.0,0.0,0.0,12.539302,0.0,0.0,nan,0.0,0.0,0.09014469,0.0,0.0,0.0,0.0,0.0,0.0,0.0,0.0
209351074,209348950,0.0,0.0,0.0,0.29798487,0.29798442,0.0,0.0,0.0,0.0,0.0,0.0,0.0,0.0,12.538827,0.0,0.0,nan,0.0,0.0,0.0901446,0.0,0.0,0.0,0.0,0.0,0.0,0.0,0.0
209851323,209849193,0.0,0.0,0.0,0.30049178,0.30049148,0.0,0.0,0.0,0.0,0.0,0.0,0.0,0.0,12.539211,0.0,0.0,nan,0.0,0.0,0.09014475,0.0,0.0,0.0,0.0,0.0,0.0,0.0,0.0
210341101,210339431,0.0,0.0,0.0,0.3006506,0.30065027,0.0,0.0,0.0,0.0,0.0,0.0,0.0,0.0,12.538781,0.0,0.0,nan,0.0,0.0,0.09014467,0.0,0.0,0.0,0.0,0.0,0.0,0.0,0.0
210841896,210839673,0.0,0.0,0.0,0.3000894,0.30008897,0.0,0.0,0.0,0.0,0.0,0.0,0.0,0.0,12.538326,0.0,0.0,nan,0.0,0.0,0.090144694,0.0,0.0,0.0,0.0,0.0,0.0,0.0,0.0
211342068,211339917,0.0,0.0,0.0,0.29965714,0.29965663,0.0,0.0,0.0,0.0,0.0,0.0,0.0,0.0,12.539185,0.0,0.0,nan,0.0,0.0,0.09014462,0.0,0.0,0.0,0.0,0.0,0.0,0.0,0.0
211841985,211840160,0.0,0.0,0.0,0.29927677,0.29927617,0.0,0.0,0.0,0.0,0.0,0.0,0.0,0.0,12.538268,0.0,0.0,nan,0.0,0.0,0.090144664,0.0,0.0,0.0,0.0,0.0,0.0,0.0,0.0
212342631,212340403,0.0,0.0,0.0,0.29925254,0.29925197,0.0,0.0,0.0,0.0,0.0,0.0,0.0,0.0,12.539084,0.0,0.0,nan,0.0,0.0,0.09014469,0.0,0.0,0.0,0.0,0.0,0.0,0.0,0.0
212842343,212840647,0.0,0.0,0.0,0.29950798,0.29950744,0.0,0.0,0.0,0.0,0.0,0.0,0.0,0.0,12.5386505,0.0,0.0,nan,0.0,0.0,0.09014473,0.0,0.0,0.0,0.0,0.0,0.0,0.0,0.0
213342994,213340890,0.0,0.0,0.0,0.2998062,0.29980567,0.0,0.0,0.0,0.0,0.0,0.0,0.0,0.0,12.538989,0.0,0.0,nan,0.0,0.0,0.090144746,0.0,0.0,0.0,0.0,0.0,0.0,0.0,0.0
213842870,213841134,0.0,0.0,0.0,0.30032152,0.30032107,0.0,0.0,0.0,0.0,0.0,0.0,0.0,0.0,12.538547,0.0,0.0,nan,0.0,0.0,0.09014478,0.0,0.0,0.0,0.0,0.0,0.0,0.0,0.0
214343345,214341386,0.0,0.0,0.0,0.3006518,0.3006514,0.0,0.0,0.0,0.0,0.0,0.0,0.0,0.0,12.538135,0.0,0.0,nan,0.0,0.0,0.090144806,0.0,0.0,0.0,0.0,0.0,0.0,0.0,0.0
214843799,214841622,0.0,0.0,0.0,0.30106458,0.3010643,0.0,0.0,0.0,0.0,0.0,0.0,0.0,0.0,12.538476,0.0,0.0,nan,0.0,0.0,0.09014495,0.0,0.0,0.0,0.0,0.0,0.0,0.0,0.0
215343759,215341861,0.0,0.0,0.0,0.30126864,0.30126843,0.0,0.0,0.0,0.0,0.0,0.0,0.0,0.0,12.538053,0.0,0.0,nan,0.0,0.0,0.09014485,0.0,0.0,0.0,0.0,0.0,0.0,0.0,0.0
215843802,215842115,0.0,0.0,0.0,0.30146652,0.30146632,0.0,0.0,0.0,0.0,0.0,0.0,0.0,0.0,12.53888,0.0,0.0,nan,0.0,0.0,0.09014489,0.0,0.0,0.0,0.0,0.0,0.0,0.0,0.0
216344463,216342360,0.0,0.0,0.0,0.30153728,0.30153707,0.0,0.0,0.0,0.0,0.0,0.0,0.0,0.0,12.538432,0.0,0.0,nan,0.0,0.0,0.0901449,0.0,0.0,0.0,0.0,0.0,0.0,0.0,0.0
216844212,216842599,0.0,0.0,0.0,0.30157965,0.30157942,0.0,0.0,0.0,0.0,0.0,0.0,0.0,0.0,12.538821,0.0,0.0,nan,0.0,0.0,0.09014493,0.0,0.0,0.0,0.0,0.0,0.0,0.0,0.0
217344750,217342843,0.0,0.0,0.0,0.30158052,0.30158022,0.0,0.0,0.0,0.0,0.0,0.0,0.0,0.0,12.538386,0.0,0.0,nan,0.0,0.0,0.09014494,0.0,0.0,0.0,0.0,0.0,0.0,0.0,0.0
217844971,217843088,0.0,0.0,0.0,0.30156282,0.30156252,0.0,0.0,0.0,0.0,0.0,0.0,0.0,0.0,12.539207,0.0,0.0,nan,0.0,0.0,0.09014498,0.0,0.0,0.0,0.0,0.0,0.0,0.0,0.0
218345247,218343332,0.0,0.0,0.0,0.3015463,0.30154598,0.0,0.0,0.0,0.0,0.0,0.0,0.0,0.0,12.538342,0.0,0.0,nan,0.0,0.0,0.09014498,0.0,0.0,0.0,0.0,0.0,0.0,0.0,0.0
218845742,218843607,0.0,0.0,0.0,0.3015256,0.30152524,0.0,0.0,0.0,0.0,0.0,0.0,0.0,0.0,12.539174,0.0,0.0,nan,0.0,0.0,0.09014489,0.0,0.0,0.0,0.0,0.0,0.0,0.0,0.0
219345624,219343821,0.0,0.0,0.0,0.30151713,0.30151677,0.0,0.0,0.0,0.0,0.0,0.0,0.0,0.0,12.538727,0.0,0.0,nan,0.0,0.0,0.09014491,0.0,0.0,0.0,0.0,0.0,0.0,0.0,0.0
219845961,219844072,0.0,0.0,0.0,0.30151346,0.30151314,0.0,0.0,0.0,0.0,0.0,0.0,0.0,0.0,12.53911,0.0,0.0,nan,0.0,0.0,0.09014483,0.0,0.0,0.0,0.0,0.0,0.0,0.0,0.0
220346333,220344311,0.0,0.0,0.0,0.30151725,0.30151686,0.0,0.0,0.0,0.0,0.0,0.0,0.0,0.0,12.538676,0.0,0.0,nan,0.0,0.0,0.09014484,0.0,0.0,0.0,0.0,0.0,0.0,0.0,0.0
220846236,220844557,0.0,0.0,0.0,0.3015276,0.30152717,0.0,0.0,0.0,0.0,0.0,0.0,0.0,0.0,12.53822,0.0,0.0,nan,0.0,0.0,0.09014476,0.0,0.0,0.0,0.0,0.0,0.0,0.0,0.0
221346885,221344802,0.0,0.0,0.0,0.30153716,0.30153677,0.0,0.0,0.0,0.0,0.0,0.0,0.0,0.0,12.538604,0.0,0.0,nan,0.0,0.0,0.090144895,0.0,0.0,0.0,0.0,0.0,0.0,0.0,0.0
221847051,221845048,0.0,0.0,0.0,0.3015525,0.30155215,0.0,0.0,0.0,0.0,0.0,0.0,0.0,0.0,12.539415,0.0,0.0,nan,0.0,0.0,0.0901448,0.0,0.0,0.0,0.0,0.0,0.0,0.0,0.0
222347359,222345300,0.0,0.0,0.0,0.30156273,0.30156237,0.0,0.0,0.0,0.0,0.0,0.0,0.0,0.0,12.53898,0.0,0.0,nan,0.0,0.0,0.09014493,0.0,0.0,0.0,0.0,0.0,0.0,0.0,0.0
222847581,222845539,0.0,0.0,0.0,0.30157563,0.3015752,0.0,0.0,0.0,0.0,0.0,0.0,0.0,0.0,12.538572,0.0,0.0,nan,0.0,0.0,0.090144835,0.0,0.0,0.0,0.0,0.0,0.0,0.0,0.0
223347512,223345785,0.0,0.0,0.0,0.30158317,0.30158278,0.0,0.0,0.0,0.0,0.0,0.0,0.0,0.0,12.538911,0.0,0.0,nan,0.0,0.0,0.09014487,0.0,0.0,0.0,0.0,0.0,0.0,0.0,0.0
223847976,223846032,0.0,0.0,0.0,0.30159128,0.3015909,0.0,0.0,0.0,0.0,0.0,0.0,0.0,0.0,12.53849,0.0,0.0,nan,0.0,0.0,0.09014489,0.0,0.0,0.0,0.0,0.0,0.0,0.0,0.0
224348300,224346278,0.0,0.0,0.0,0.301596,0.30159566,0.0,0.0,0.0,0.0,0.0,0.0,0.0,0.0,12.539324,0.0,0.0,nan,0.0,0.0,0.09014479,0.0,0.0,0.0,0.0,0.0,0.0,0.0,0.0
224848660,224846525,0.0,0.0,0.0,0.30160284,0.30160248,0.0,0.0,0.0,0.0,0.0,0.0,0.0,0.0,12.538382,0.0,0.0,nan,0.0,0.0,0.09014471,0.0,0.0,0.0,0.0,0.0,0.0,0.0,0.0
225348457,225346771,0.0,0.0,0.0,0.30160457,0.3016043,0.0,0.0,0.0,0.0,0.0,0.0,0.0,0.0,12.539234,0.0,0.0,nan,0.0,0.0,0.09014475,0.0,0.0,0.0,0.0,0.0,0.0,0.0,0.0
225848918,225847018,0.0,0.0,0.0,0.30160517,0.30160487,0.0,0.0,0.0,0.0,0.0,0.0,0.0,0.0,12.538804,0.0,0.0,nan,0.0,0.0,0.09014466,0.0,0.0,0.0,0.0,0.0,0.0,0.0,0.0
226349237,226347265,0.0,0.0,0.0,0.30160588,0.30160558,0.0,0.0,0.0,0.0,0.0,0.0,0.0,0.0,12.5391445,0.0,0.0,nan,0.0,0.0,0.09014458,0.0,0.0,0.0,0.0,0.0,0.0,0.0,0.0
226849439,226847512,0.0,0.0,0.0,0.30160648,0.3016062,0.0,0.0,0.0,0.0,0.0,0.0,0.0,0.0,12.538729,0.0,0.0,nan,0.0,0.0,0.09014483,0.0,0.0,0.0,0.0,0.0,0.0,0.0,0.0
227349729,227347759,0.0,0.0,0.0,0.30160636,0.3016061,0.0,0.0,0.0,0.0,0.0,0.0,0.0,0.0,12.538286,0.0,0.0,nan,0.0,0.0,0.090144746,0.0,0.0,0.0,0.0,0.0,0.0,0.0,0.0
227840185,227838002,0.0,0.0,0.0,0.30160487,0.30160463,0.0,0.0,0.0,0.0,0.0,0.0,0.0,0.0,12.5391,0.0,0.0,nan,0.0,0.0,0.09014467,0.0,0.0,0.0,0.0,0.0,0.0,0.0,0.0
228340062,228338272,0.0,0.0,0.0,0.3016039,0.30160367,0.0,0.0,0.0,0.0,0.0,0.0,0.0,0.0,12.538228,0.0,0.0,nan,0.0,0.0,0.09014481,0.0,0.0,0.0,0.0,0.0,0.0,0.0,0.0
228840675,228838498,0.0,0.0,0.0,0.30160335,0.3016031,0.0,0.0,0.0,0.0,0.0,0.0,0.0,0.0,12.539052,0.0,0.0,nan,0.0,0.0,0.090144716,0.0,0.0,0.0,0.0,0.0,0.0,0.0,0.0
229340924,229338745,0.0,0.0,0.0,0.30160448,0.30160424,0.0,0.0,0.0,0.0,0.0,0.0,0.0,0.0,12.538599,0.0,0.0,nan,0.0,0.0,0.09014474,0.0,0.0,0.0,0.0,0.0,0.0,0.0,0.0
229841370,229838993,0.0,0.0,0.0,0.3016073,0.30160704,0.0,0.0,0.0,0.0,0.0,0.0,0.0,0.0,12.538977,0.0,0.0,nan,0.0,0.0,0.09014467,0.0,0.0,0.0,0.0,0.0,0.0,0.0,0.0
230341050,230339242,0.0,0.0,0.0,0.30160835,0.30160806,0.0,0.0,0.0,0.0,0.0,0.0,0.0,0.0,12.538507,0.0,0.0,nan,0.0,0.0,0.090144694,0.0,0.0,0.0,0.0,0.0,0.0,0.0,0.0
230851128,230849496,0.0,0.0,0.0,0.3016095,0.30160913,0.0,0.0,0.0,0.0,0.0,0.0,0.0,0.0,12.538076,0.0,0.0,nan,0.0,0.0,0.090144716,0.0,0.0,0.0,0.0,0.0,0.0,0.0,0.0
231341789,231339739,0.0,0.0,0.0,0.30161,0.30160955,0.0,0.0,0.0,0.0,0.0,0.0,0.0,0.0,12.538427,0.0,0.0,nan,0.0,0.0,0.09014465,0.0,0.0,0.0,0.0,0.0,0.0,0.0,0.0
231842267,231839987,0.0,0.0,0.0,0.3016083,0.3016078,0.0,0.0,0.0,0.0,0.0,0.0,0.0,0.0,12.539235,0.0,0.0,nan,0.0,0.0,0.090144664,0.0,0.0,0.0,0.0,0.0,0.0,0.0,0.0
232342300,232340236,0.0,0.0,0.0,0.3016063,0.30160573,0.0,0.0,0.0,0.0,0.0,0.0,0.0,0.0,12.538825,0.0,0.0,nan,0.0,0.0,0.09014469,0.0,0.0,0.0,0.0,0.0,0.0,0.0,0.0
232842883,232840485,0.0,0.0,0.0,0.30160174,0.3016011,0.0,0.0,0.0,0.0,0.0,0.0,0.0,0.0,12.538385,0.0,0.0,nan,0.0,0.0,0.090144604,0.0,0.0,0.0,0.0,0.0,0.0,0.0,0.0
233342596,233340734,0.0,0.0,0.0,0.30159914,0.3015985,0.0,0.0,0.0,0.0,0.0,0.0,0.0,0.0,12.538725,0.0,0.0,nan,0.0,0.0,0.09014454,0.0,0.0,0.0,0.0,0.0,0.0,0.0,0.0
233843118,233840983,0.0,0.0,0.0,0.3015958,0.30159518,0.0,0.0,0.0,0.0,0.0,0.0,0.0,0.0,12.538304,0.0,0.0,nan,0.0,0.0,0.090144575,0.0,0.0,0.0,0.0,0.0,0.0,0.0,0.0
234343265,234341234,0.0,0.0,0.0,0.3015939,0.3015932,0.0,0.0,0.0,0.0,0.0,0.0,0.0,0.0,12.539138,0.0,0.0,nan,0.0,0.0,0.0901446,0.0,0.0,0.0,0.0,0.0,0.0,0.0,0.0
234843662,234841482,0.0,0.0,0.0,0.30159238,0.30159172,0.0,0.0,0.0,0.0,0.0,0.0,0.0,0.0,12.538203,0.0,0.0,nan,0.0,0.0,0.09014453,0.0,0.0,0.0,0.0,0.0,0.0,0.0,0.0
235343674,235341732,0.0,0.0,0.0,0.30159152,0.3015909,0.0,0.0,0.0,0.0,0.0,0.0,0.0,0.0,12.539057,0.0,0.0,nan,0.0,0.0,0.090144664,0.0,0.0,0.0,0.0,0.0,0.0,0.0,0.0
235844444,235841982,0.0,0.0,0.0,0.30158752,0.301587,0.0,0.0,0.0,0.0,0.0,0.0,0.0,0.0,12.5386305,0.0,0.0,nan,0.0,0.0,0.09014459,0.0,0.0,0.0,0.0,0.0,0.0,0.0,0.0
236344141,236342231,0.0,0.0,0.0,0.30158457,0.30158406,0.0,0.0,0.0,0.0,0.0,0.0,0.0,0.0,12.53898,0.0,0.0,nan,0.0,0.0,0.090144634,0.0,0.0,0.0,0.0,0.0,0.0,0.0,0.0
236844554,236842478,0.0,0.0,0.0,0.30157942,0.30157894,0.0,0.0,0.0,0.0,0.0,0.0,0.0,0.0,12.538568,0.0,0.0,nan,0.0,0.0,0.09014455,0.0,0.0,0.0,0.0,0.0,0.0,0.0,0.0
237344444,237342736,0.0,0.0,0.0,0.30157703,0.30157655,0.0,0.0,0.0,0.0,0.0,0.0,0.0,0.0,12.539383,0.0,0.0,nan,0.0,0.0,0.09014448,0.0,0.0,0.0,0.0,0.0,0.0,0.0,0.0
237845572,237842982,0.0,0.0,0.0,0.020306092,0.020306041,0.0,0.0,0.0,0.0,0.0,0.0,0.0,0.0,12.53848,0.0,0.0,nan,0.0,0.0,0.09014473,0.0,0.0,0.0,0.0,0.0,0.0,0.0,0.0
238344883,238343267,0.0,0.0,0.0,0.015413417,0.015413335,0.0,0.0,0.0,0.0,0.0,0.0,0.0,0.0,12.53931,0.0,0.0,nan,0.0,0.0,0.090144664,0.0,0.0,0.0,0.0,0.0,0.0,0.0,0.0
238845737,238843491,0.0,0.0,0.0,0.014929948,0.014929818,0.0,0.0,0.0,0.0,0.0,0.0,0.0,0.0,12.538862,0.0,0.0,nan,0.0,0.0,0.09014469,0.0,0.0,0.0,0.0,0.0,0.0,0.0,0.0
239345425,239343734,0.0,0.0,0.0,0.014886977,0.014886847,0.0,0.0,0.0,0.0,0.0,0.0,0.0,0.0,12.538447,0.0,0.0,nan,0.0,0.0,0.0901446,0.0,0.0,0.0,0.0,0.0,0.0,0.0,0.0
239846297,239843986,0.0,0.0,0.0,0.014627562,0.014627433,0.0,0.0,0.0,0.0,0.0,0.0,0.0,0.0,12.538807,0.0,0.0,nan,0.0,0.0,0.09014462,0.0,0.0,0.0,0.0,0.0,0.0,0.0,0.0
240346133,240344236,0.0,0.0,0.0,0.014437729,0.014437587,0.0,0.0,0.0,0.0,0.0,0.0,0.0,0.0,12.538348,0.0,0.0,nan,0.0,0.0,0.090144664,0.0,0.0,0.0,0.0,0.0,0.0,0.0,0.0
240846920,240844488,0.0,0.0,0.0,0.014242183,0.014242015,0.0,0.0,0.0,0.0,0.0,0.0,0.0,0.0,12.539204,0.0,0.0,nan,0.0,0.0,0.09014469,0.0,0.0,0.0,0.0,0.0,0.0,0.0,0.0
241346423,241344739,0.0,0.0,0.0,0.01417521,0.014175029,0.0,0.0,0.0,0.0,0.0,0.0,0.0,0.0,12.538311,0.0,0.0,nan,0.0,0.0,0.09014473,0.0,0.0,0.0,0.0,0.0,0.0,0.0,0.0
241847378,241844991,0.0,0.0,0.0,0.014136623,0.014136427,0.0,0.0,0.0,0.0,0.0,0.0,0.0,0.0,12.53912,0.0,0.0,nan,0.0,0.0,0.09014476,0.0,0.0,0.0,0.0,0.0,0.0,0.0,0.0
242347166,242345242,0.0,0.0,0.0,0.014131194,0.014130997,0.0,0.0,0.0,0.0,0.0,0.0,0.0,0.0,12.538708,0.0,0.0,nan,0.0,0.0,0.090144664,0.0,0.0,0.0,0.0,0.0,0.0,0.0,0.0
242848068,242845494,0.0,0.0,0.0,0.25571108,0.25571075,0.0,0.0,0.0,0.0,0.0,0.0,0.0,0.0,12.539093,0.0,0.0,nan,0.0,0.0,0.09014481,0.0,0.0,0.0,0.0,0.0,0.0,0.0,0.0
243347967,243345746,0.0,0.0,0.0,0.26027927,0.26027852,0.0,0.0,0.0,0.0,0.0,0.0,0.0,0.0,12.538634,0.0,0.0,nan,0.0,0.0,0.090144716,0.0,0.0,0.0,0.0,0.0,0.0,0.0,0.0
243848348,243846005,0.0,0.0,0.0,0.2705073,0.27050576,0.0,0.0,0.0,0.0,0.0,0.0,0.0,0.0,12.538236,0.0,0.0,nan,0.0,0.0,0.09014464,0.0,0.0,0.0,0.0,0.0,0.0,0.0,0.0
244348023,244346250,0.0,0.0,0.0,0.27844512,0.27844325,0.0,0.0,0.0,0.0,0.0,0.0,0.0,0.0,12.538588,0.0,0.0,nan,0.0,0.0,0.09014469,0.0,0.0,0.0,0.0,0.0,0.0,0.0,0.0
244848981,244846503,0.0,0.0,0.0,0.28887418,0.2888723,0.0,0.0,0.0,0.0,0.0,0.0,0.0,0.0,12.538146,0.0,0.0,nan,0.0,0.0,0.0901447,0.0,0.0,0.0,0.0,0.0,0.0,0.0,0.0
245338724,245336750,0.0,0.0,0.0,0.293627,0.29362538,0.0,0.0,0.0,0.0,0.0,0.0,0.0,0.0,12.539013,0.0,0.0,nan,0.0,0.0,0.09014474,0.0,0.0,0.0,0.0,0.0,0.0,0.0,0.0
245849257,245847008,0.0,0.0,0.0,0.057466798,0.05746563,0.0,0.0,0.0,0.0,0.0,0.0,0.0,0.0,12.538569,0.0,0.0,nan,0.0,0.0,0.09014475,0.0,0.0,0.0,0.0,0.0,0.0,0.0,0.0
246349003,246347260,0.0,0.0,0.0,0.016317615,0.016317537,0.0,0.0,0.0,0.0,0.0,0.0,0.0,0.0,12.538933,0.0,0.0,nan,0.0,0.0,0.0901448,0.0,0.0,0.0,0.0,0.0,0.0,0.0,0.0
246849643,246847513,0.0,0.0,0.0,0.014456764,0.014456579,0.0,0.0,0.0,0.0,0.0,0.0,0.0,0.0,12.53853,0.0,0.0,nan,0.0,0.0,0.09014471,0.0,0.0,0.0,0.0,0.0,0.0,0.0,0.0
247349718,247347766,0.0,0.0,0.0,0.014487644,0.014487434,0.0,0.0,0.0,0.0,0.0,0.0,0.0,0.0,12.539353,0.0,0.0,nan,0.0,0.0,0.09014473,0.0,0.0,0.0,0.0,0.0,0.0,0.0,0.0
247850329,247848019,0.0,0.0,0.0,0.014519494,0.014519321,0.0,0.0,0.0,0.0,0.0,0.0,0.0,0.0,12.538457,0.0,0.0,nan,0.0,0.0,0.09014464,0.0,0.0,0.0,0.0,0.0,0.0,0.0,0.0
248339971,248338268,0.0,0.0,0.0,0.014432801,0.014432649,0.0,0.0,0.0,0.0,0.0,0.0,0.0,0.0,12.539293,0.0,0.0,nan,0.0,0.0,0.090144806,0.0,0.0,0.0,0.0,0.0,0.0,0.0,0.0
248840485,248838521,0.0,0.0,0.0,0.014323009,0.01432286,0.0,0.0,0.0,0.0,0.0,0.0,0.0,0.0,12.538849,0.0,0.0,nan,0.0,0.0,0.090144716,0.0,0.0,0.0,0.0,0.0,0.0,0.0,0.0
249340477,249338779,0.0,0.0,0.0,0.014195782,0.014195617,0.0,0.0,0.0,0.0,0.0,0.0,0.0,0.0,12.538437,0.0,0.0,nan,0.0,0.0,0.09014463,0.0,0.0,0.0,0.0,0.0,0.0,0.0,0.0
249840744,249839033,0.0,0.0,0.0,0.014149006,0.014148831,0.0,0.0,0.0,0.0,0.0,0.0,0.0,0.0,12.538799,0.0,0.0,nan,0.0,0.0,0.090144776,0.0,0.0,0.0,0.0,0.0,0.0,0.0,0.0
250341629,250339281,0.0,0.0,0.0,0.014121053,0.0141208675,0.0,0.0,0.0,0.0,0.0,0.0,0.0,0.0,12.5383415,0.0,0.0,nan,0.0,0.0,0.09014479,0.0,0.0,0.0,0.0,0.0,0.0,0.0,0.0
250841661,250839535,0.0,0.0,0.0,0.014117433,0.0141172465,0.0,0.0,0.0,0.0,0.0,0.0,0.0,0.0,12.539198,0.0,0.0,nan,0.0,0.0,0.0901447,0.0,0.0,0.0,0.0,0.0,0.0,0.0,0.0
251341551,251339822,0.0,0.0,0.0,0.25411856,0.25411838,0.0,0.0,0.0,0.0,0.0,0.0,0.0,0.0,12.538279,0.0,0.0,nan,0.0,0.0,0.090144746,0.0,0.0,0.0,0.0,0.0,0.0,0.0,0.0
251841845,251840043,0.0,0.0,0.0,0.25771868,0.2577182,0.0,0.0,0.0,0.0,0.0,0.0,0.0,0.0,12.539093,0.0,0.0,nan,0.0,0.0,0.09014466,0.0,0.0,0.0,0.0,0.0,0.0,0.0,0.0
252342048,252340297,0.0,0.0,0.0,0.2666508,0.2666496,0.0,0.0,0.0,0.0,0.0,0.0,0.0,0.0,12.538685,0.0,0.0,nan,0.0,0.0,0.090144806,0.0,0.0,0.0,0.0,0.0,0.0,0.0,0.0
252842648,252840551,0.0,0.0,0.0,0.27435002,0.2743484,0.0,0.0,0.0,0.0,0.0,0.0,0.0,0.0,12.539048,0.0,0.0,nan,0.0,0.0,0.09014483,0.0,0.0,0.0,0.0,0.0,0.0,0.0,0.0
253342550,253340805,0.0,0.0,0.0,0.2856355,0.28563374,0.0,0.0,0.0,0.0,0.0,0.0,0.0,0.0,12.538596,0.0,0.0,nan,0.0,0.0,0.09014486,0.0,0.0,0.0,0.0,0.0,0.0,0.0,0.0
253842818,253841059,0.0,0.0,0.0,0.29136077,0.29135922,0.0,0.0,0.0,0.0,0.0,0.0,0.0,0.0,12.5381775,0.0,0.0,nan,0.0,0.0,0.09014477,0.0,0.0,0.0,0.0,0.0,0.0,0.0,0.0
254343194,254341314,0.0,0.0,0.0,0.2964561,0.29645497,0.0,0.0,0.0,0.0,0.0,0.0,0.0,0.0,12.53854,0.0,0.0,nan,0.0,0.0,0.09014468,0.0,0.0,0.0,0.0,0.0,0.0,0.0,0.0
254843542,254841569,0.0,0.0,0.0,0.29802033,0.29801938,0.0,0.0,0.0,0.0,0.0,0.0,0.0,0.0,12.538107,0.0,0.0,nan,0.0,0.0,0.0901447,0.0,0.0,0.0,0.0,0.0,0.0,0.0,0.0
255343908,255341824,0.0,0.0,0.0,0.29884508,0.2988443,0.0,0.0,0.0,0.0,0.0,0.0,0.0,0.0,12.538954,0.0,0.0,nan,0.0,0.0,0.09014461,0.0,0.0,0.0,0.0,0.0,0.0,0.0,0.0
255843778,255842078,0.0,0.0,0.0,0.2989356,0.29893482,0.0,0.0,0.0,0.0,0.0,0.0,0.0,0.0,12.538493,0.0,0.0,nan,0.0,0.0,0.09014466,0.0,0.0,0.0,0.0,0.0,0.0,0.0,0.0
256344172,256342333,0.0,0.0,0.0,0.29893968,0.29893893,0.0,0.0,0.0,0.0,0.0,0.0,0.0,0.0,12.53887,0.0,0.0,nan,0.0,0.0,0.090144575,0.0,0.0,0.0,0.0,0.0,0.0,0.0,0.0
256844282,256842588,0.0,0.0,0.0,0.2990042,0.29900336,0.0,0.0,0.0,0.0,0.0,0.0,0.0,0.0,12.538454,0.0,0.0,nan,0.0,0.0,0.09014449,0.0,0.0,0.0,0.0,0.0,0.0,0.0,0.0
257344931,257342847,0.0,0.0,0.0,0.29926562,0.29926473,0.0,0.0,0.0,0.0,0.0,0.0,0.0,0.0,12.539262,0.0,0.0,nan,0.0,0.0,0.09014453,0.0,0.0,0.0,0.0,0.0,0.0,0.0,0.0
257845220,257843099,0.0,0.0,0.0,0.29953268,0.2995318,0.0,0.0,0.0,0.0,0.0,0.0,0.0,0.0,12.5383835,0.0,0.0,nan,0.0,0.0,0.090144455,0.0,0.0,0.0,0.0,0.0,0.0,0.0,0.0
258345291,258343355,0.0,0.0,0.0,0.3000024,0.3000015,0.0,0.0,0.0,0.0,0.0,0.0,0.0,0.0,12.539206,0.0,0.0,nan,0.0,0.0,0.09014438,0.0,0.0,0.0,0.0,0.0,0.0,0.0,0.0
258845380,258843619,0.0,0.0,0.0,0.30031827,0.3003174,0.0,0.0,0.0,0.0,0.0,0.0,0.0,0.0,12.53875,0.0,0.0,nan,0.0,0.0,0.090144426,0.0,0.0,0.0,0.0,0.0,0.0,0.0,0.0
259345729,259343866,0.0,0.0,0.0,0.3007379,0.30073708,0.0,0.0,0.0,0.0,0.0,0.0,0.0,0.0,12.539152,0.0,0.0,nan,0.0,0.0,0.09014436,0.0,0.0,0.0,0.0,0.0,0.0,0.0,0.0
259846220,259844122,0.0,0.0,0.0,0.3009635,0.30096272,0.0,0.0,0.0,0.0,0.0,0.0,0.0,0.0,12.538708,0.0,0.0,nan,0.0,0.0,0.090144396,0.0,0.0,0.0,0.0,0.0,0.0,0.0,0.0
260346221,260344386,0.0,0.0,0.0,0.30121258,0.30121183,0.0,0.0,0.0,0.0,0.0,0.0,0.0,0.0,12.538268,0.0,0.0,nan,0.0,0.0,0.09014445,0.0,0.0,0.0,0.0,0.0,0.0,0.0,0.0
260846616,260844661,0.0,0.0,0.0,0.30132285,0.30132213,0.0,0.0,0.0,0.0,0.0,0.0,0.0,0.0,12.538637,0.0,0.0,nan,0.0,0.0,0.09014438,0.0,0.0,0.0,0.0,0.0,0.0,0.0,0.0
261346832,261344890,0.0,0.0,0.0,0.3014243,0.30142358,0.0,0.0,0.0,0.0,0.0,0.0,0.0,0.0,12.539464,0.0,0.0,nan,0.0,0.0,0.09014442,0.0,0.0,0.0,0.0,0.0,0.0,0.0,0.0
261847076,261845147,0.0,0.0,0.0,0.3014603,0.30145955,0.0,0.0,0.0,0.0,0.0,0.0,0.0,0.0,12.539014,0.0,0.0,nan,0.0,0.0,0.090144575,0.0,0.0,0.0,0.0,0.0,0.0,0.0,0.0
262347054,262345407,0.0,0.0,0.0,0.30148357,0.30148283,0.0,0.0,0.0,0.0,0.0,0.0,0.0,0.0,12.538594,0.0,0.0,nan,0.0,0.0,0.09014462,0.0,0.0,0.0,0.0,0.0,0.0,0.0,0.0
262847554,262845660,0.0,0.0,0.0,0.30148816,0.30149013,0.0,0.0,0.0,0.0,0.0,0.0,0.0,0.0,12.538919,0.0,0.0,nan,0.0,0.0,0.090144664,0.0,0.0,0.0,0.0,0.0,0.0,0.0,0.0
263347734,263345917,0.0,0.0,0.0,0.3014924,0.30159092,0.0,0.0,0.0,0.0,0.0,0.0,0.0,0.0,12.538502,0.0,0.0,nan,0.0,0.0,0.090144664,0.0,0.0,0.0,0.0,0.0,0.0,0.0,0.0
263847903,263846174,0.0,0.0,0.0,100.06208,100.06278,0.0,0.0,0.0,0.0,0.0,0.0,0.0,0.0,12.539426,0.0,0.0,nan,0.0,0.0,0.09014498,0.0,0.0,0.0,0.0,0.0,0.0,0.0,0.0
264348406,264346446,0.0,0.0,0.0,100.11064,100.11478,0.0,0.0,0.0,0.0,0.0,0.0,0.0,0.0,12.537441,0.0,0.0,nan,0.0,0.0,0.09014528,0.0,0.0,0.0,0.0,0.0,0.0,0.0,0.0
264848699,264846689,0.0,0.0,0.0,100.16373,100.172104,0.0,0.0,0.0,0.0,0.0,0.0,0.0,0.0,12.536059,0.0,0.0,nan,0.0,0.0,0.09014601,0.0,0.0,0.0,0.0,0.0,0.0,0.0,0.0
265348838,265346947,0.0,0.0,0.0,100.29604,100.31924,0.0,0.0,0.0,0.0,0.0,0.0,0.0,0.0,12.533546,0.0,0.0,nan,0.0,0.0,0.09014544,0.0026467815,0.0026603045,0.002646232,0.0,0.0,0.0,0.0,0.0
265852575,265847205,0.0,0.0,0.0,100.44143,100.482605,0.0,0.0,0.0,0.0,0.0,0.0,0.0,0.0,12.532626,0.0,0.0,nan,0.0,0.0,0.09014544,0.0025735807,0.002569009,0.002578579,0.0,0.0,0.0,0.0,0.0
266342665,266337457,0.0,0.0,0.0,100.80464,100.88043,0.0,0.0,0.0,0.0,0.0,0.0,0.0,0.0,12.533177,0.0,0.0,nan,0.0,0.0,0.09014544,0.0025401053,0.002544433,0.002540196,0.0,0.0,0.0,0.0,0.0
266842944,266837715,0.0,0.0,0.0,101.17343,101.27703,0.0,0.0,0.0,0.0,0.0,0.0,0.0,0.0,12.536976,0.0,0.0,nan,0.0,0.0,0.09014544,0.0025321455,0.0026081004,0.0025572537,0.0,0.0,0.0,0.0,0.0
267339674,267337974,0.0,0.0,0.0,101.96219,102.117584,0.0,0.0,0.0,0.0,0.0,0.0,0.0,0.0,12.544774,0.0,0.0,nan,0.0,0.0,0.09014544,0.0025241494,0.0025641418,0.0025388722,0.0,0.0,0.0,0.0,0.0
267840085,267838235,0.0,0.0,0.0,102.65768,102.85602,0.0,0.0,0.0,0.0,0.0,0.0,0.0,0.0,12.553121,0.0,0.0,nan,0.0,0.0,0.09014544,0.0025209447,0.0025338677,0.002520147,0.0,0.0,0.0,0.0,0.0
268343860,268338514,0.0,0.0,0.0,103.91537,104.19027,0.0,0.0,0.0,0.0,0.0,0.0,0.0,0.0,12.563761,0.0,0.0,nan,0.0,0.0,0.09014544,0.0025196497,0.0025355378,0.0025163966,0.0,0.0,0.0,0.0,0.0
268854176,268848754,0.0,0.0,0.0,104.83862,105.16745,0.0,0.0,0.0,0.0,0.0,0.0,0.0,0.0,12.573648,0.0,0.0,nan,0.0,0.0,0.09014544,0.0025168322,0.0025214974,0.0025151665,0.0,0.0,0.0,0.0,0.0
269354053,269349013,0.0,0.0,0.0,106.20117,106.61974,0.0,0.0,0.0,0.0,0.0,0.0,0.0,0.0,12.581669,0.0,0.0,nan,0.0,0.0,0.09014544,0.002519319,0.0025400755,0.002516203,0.0,0.0,0.0,0.0,0.0
269840990,269839266,0.0,0.0,0.0,107.006516,107.49402,0.0,0.0,0.0,0.0,0.0,0.0,0.0,0.0,12.585235,0.0,0.0,nan,0.0,0.0,0.09014544,0.0025172662,0.0025314377,0.0025175652,0.0,0.0,0.0,0.0,0.0
270341546,270339526,0.0,0.0,0.0,107.994125,108.56916,0.0,0.0,0.0,0.0,0.0,0.0,0.0,0.0,12.583547,0.0,0.0,nan,0.0,0.0,0.09014544,0.0025137498,0.002530855,0.0025153111,0.0,0.0,0.0,0.0,0.0
270841828,270839784,0.0,0.0,0.0,108.49042,109.09774,0.0,0.0,0.0,0.0,0.0,0.0,0.0,0.0,12.584028,0.0,0.0,nan,0.0,0.0,0.09014544,0.0025157102,0.002548881,0.0025119858,0.0,0.0,0.0,0.0,0.0
271345289,271340043,0.0,0.0,0.0,108.9816,109.58587,0.0,0.0,0.0,0.0,0.0,0.0,0.0,0.0,12.581638,0.0,0.0,nan,0.0,0.0,0.09014544,0.0025187624,0.002549033,0.0025192276,0.0,0.0,0.0,0.0,0.0
271845530,271840323,0.0,0.0,0.0,109.16788,109.726364,0.0,0.0,0.0,0.0,0.0,0.0,0.0,0.0,12.580954,0.0,0.0,nan,0.0,0.0,0.09014544,0.0025256404,0.0025371134,0.0025220208,0.0,0.0,0.0,0.0,0.0
272345719,272340562,0.0,0.0,0.0,109.2807,109.72568,0.0,0.0,0.0,0.0,0.0,0.0,0.0,0.0,12.580196,0.0,0.0,nan,0.0,0.0,0.09014544,0.0025231987,0.002539666,0.0025132394,0.0,0.0,0.0,0.0,0.0
272845948,272840821,0.0,0.0,0.0,109.252464,109.61621,0.0,0.0,0.0,0.0,0.0,0.0,0.0,0.0,12.585589,0.0,0.0,nan,0.0,0.0,0.09014544,0.0025222169,0.0025481768,0.0025075309,0.0,0.0,0.0,0.0,0.0
273342827,273341088,0.0,0.0,0.0,109.088264,109.323364,0.0,0.0,0.0,0.0,0.0,0.0,0.0,0.0,12.5852585,0.0,0.0,nan,0.0,0.0,0.09014544,0.002520162,0.0025347648,0.0025074093,0.0,0.0,0.0,0.0,0.0
273843208,273841341,0.0,0.0,0.0,108.94339,109.1149,0.0,0.0,0.0,0.0,0.0,0.0,0.0,0.0,12.58886,0.0,0.0,nan,0.0,0.0,0.09014544,0.0025207954,0.0025296626,0.0025071888,0.0,0.0,0.0,0.0,0.0
274343488,274341600,0.0,0.0,0.0,108.68279,108.77663,0.0,0.0,0.0,0.0,0.0,0.0,0.0,0.0,12.588078,0.0,0.0,nan,0.0,0.0,0.09014544,0.0025214495,0.0025254034,0.0025077001,0.0,0.0,0.0,0.0,0.0
274843576,274841872,0.0,0.0,0.0,108.49228,108.538635,0.0,0.0,0.0,0.0,0.0,0.0,0.0,0.0,12.59281,0.0,0.0,nan,0.0,0.0,0.09014544,0.0025217792,0.0025231654,0.0025076102,0.0,0.0,0.0,0.0,0.0
275343932,275342121,0.0,0.0,0.0,108.203125,108.20959,0.0,0.0,0.0,0.0,0.0,0.0,0.0,0.0,12.595082,0.0,0.0,nan,0.0,0.0,0.09014544,0.0025227463,0.002523899,0.002508805,0.0,0.0,0.0,0.0,0.0
275844403,275842389,0.0,0.0,0.0,108.00835,108.004456,0.0,0.0,0.0,0.0,0.0,0.0,0.0,0.0,12.605095,0.0,0.0,nan,0.0,0.0,0.09014544,0.0025234106,0.0025216478,0.0025070582,0.0,0.0,0.0,0.0,0.0
276347592,276342684,0.0,0.0,0.0,107.71398,107.701904,0.0,0.0,0.0,0.0,0.0,0.0,0.0,0.0,12.612417,0.0,0.0,nan,0.0,0.0,0.09014544,0.002523423,0.002520607,0.0025065823,0.0,0.0,0.0,0.0,0.0
276848020,276842905,0.0,0.0,0.0,107.518616,107.50245,0.0,0.0,0.0,0.0,0.0,0.0,0.0,0.0,12.62596,0.0,0.0,nan,0.0,0.0,0.09014544,0.0025233214,0.0025211056,0.0025061113,0.0,0.0,0.0,0.0,0.0
277348533,277343161,0.0,0.0,0.0,107.23842,107.24897,0.0,0.0,0.0,0.0,0.0,0.0,0.0,0.0,12.635452,0.0,0.0,nan,0.0,0.0,0.09014544,0.0025229994,0.0025282719,0.0025058454,0.0,0.0,0.0,0.0,0.0
277845115,277843422,0.0,0.0,0.0,107.06022,107.09404,0.0,0.0,0.0,0.0,0.0,0.0,0.0,0.0,12.642307,0.0,0.0,nan,0.0,0.0,0.09014544,0.0025180022,0.002533319,0.002506092,0.0,0.0,0.0,0.0,0.0
278345493,278343682,0.0,0.0,0.0,106.82139,106.928345,0.0,0.0,0.0,0.0,0.0,0.0,0.0,0.0,12.642945,0.0,0.0,nan,0.0,0.0,0.09014544,0.0025160615,0.002527026,0.0025059213,0.0,0.0,0.0,0.0,0.0
278845801,278843943,0.0,0.0,0.0,106.68478,106.85776,0.0,0.0,0.0,0.0,0.0,0.0,0.0,0.0,12.636469,0.0,0.0,nan,0.0,0.0,0.09014544,0.002513769,0.0025166473,0.0025051993,0.0,0.0,0.0,0.0,0.0
279345980,279344233,0.0,0.0,0.0,106.515945,106.81312,0.0,0.0,0.0,0.0,0.0,0.0,0.0,0.0,12.629277,0.0,0.0,nan,0.0,0.0,0.09014544,0.0025127388,0.0025154513,0.0025049378,0.0,0.0,0.0,0.0,0.0
279846386,279844479,0.0,0.0,0.0,106.425224,106.82276,0.0,0.0,0.0,0.0,0.0,0.0,0.0,0.0,12.620375,0.0,0.0,nan,0.0,0.0,0.09014544,0.0025111716,0.0025134876,0.0025048517,0.0,0.0,0.0,0.0,0.0
280349777,280344726,0.0,0.0,0.0,106.33456,106.90446,0.0,0.0,0.0,0.0,0.0,0.0,0.0,0.0,12.611741,0.0,0.0,nan,0.0,0.0,0.09014544,0.0025108447,0.002512052,0.00250461,0.0,0.0,0.0,0.0,0.0
280846802,280845008,0.0,0.0,0.0,106.30069,106.99172,0.0,0.0,0.0,0.0,0.0,0.0,0.0,0.0,12.601218,0.0,0.0,nan,0.0,0.0,0.09014544,0.0025101663,0.0025100152,0.0025042268,0.0,0.0,0.0,0.0,0.0
281347076,281345248,0.0,0.0,0.0,106.27883,107.161804,0.0,0.0,0.0,0.0,0.0,0.0,0.0,0.0,12.594476,0.0,0.0,nan,0.0,0.0,0.09014544,0.0025101542,0.0025104864,0.0025041825,0.0,0.0,0.0,0.0,0.0
281847223,281845509,0.0,0.0,0.0,106.28873,107.29507,0.0,0.0,0.0,0.0,0.0,0.0,0.0,0.0,12.589051,0.0,0.0,nan,0.0,0.0,0.09014544,0.0025099858,0.0025117032,0.0025047606,0.0,0.0,0.0,0.0,0.0
282350995,282345803,0.0,0.0,0.0,106.32635,107.51305,0.0,0.0,0.0,0.0,0.0,0.0,0.0,0.0,12.585667,0.0,0.0,nan,0.0,0.0,0.09014544,0.0025100287,0.002509898,0.0025040926,0.0,0.0,0.0,0.0,0.0
282851294,282846031,0.0,0.0,0.0,106.361755,107.661736,0.0,0.0,0.0,0.0,0.0,0.0,0.0,0.0,12.58249,0.0,0.0,nan,0.0,0.0,0.09014544,0.0025093872,0.0025128627,0.0025043467,0.0,0.0,0.0,0.0,0.0
283351577,283346293,0.0,0.0,0.0,106.43588,107.88228,0.0,0.0,0.0,0.0,0.0,0.0,0.0,0.0,12.577162,0.0,0.0,nan,0.0,0.0,0.09014544,0.0025095057,0.0025245054,0.0025064214,0.0,0.0,0.0,0.0,0.0
283838258,283836568,0.0,0.0,0.0,106.49731,108.02297,0.0,0.0,0.0,0.0,0.0,0.0,0.0,0.0,12.570438,0.0,0.0,nan,0.0,0.0,0.09014544,0.0025105304,0.0025134927,0.0025057315,0.0,0.0,0.0,0.0,0.0
284352256,284346812,0.0,0.0,0.0,106.61559,108.240456,0.0,0.0,0.0,0.0,0.0,0.0,0.0,0.0,12.558979,0.0,0.0,nan,0.0,0.0,0.09014544,0.0025102634,0.0025092086,0.002505104,0.0,0.0,0.0,0.0,0.0
284852225,284847077,0.0,0.0,0.0,106.70353,108.37491,0.0,0.0,0.0,0.0,0.0,0.0,0.0,0.0,12.552156,0.0,0.0,nan,0.0,0.0,0.09014544,0.0025089097,0.0025119963,0.0025053604,0.0,0.0,0.0,0.0,0.0
285349093,285347363,0.0,0.0,0.0,106.835815,108.53949,0.0,0.0,0.0,0.0,0.0,0.0,0.0,0.0,12.544679,0.0,0.0,nan,0.0,0.0,0.09014544,0.0025082007,0.0025220877,0.002507806,0.0,0.0,0.0,0.0,0.0
285852909,285847601,0.0,0.0,0.0,106.913345,108.615166,0.0,0.0,0.0,0.0,0.0,0.0,0.0,0.0,12.53852,0.0,0.0,nan,0.0,0.0,0.09014544,0.00250741,0.0025186345,0.0025073197,0.0,0.0,0.0,0.0,0.0
286349676,286347863,0.0,0.0,0.0,107.01532,108.693184,0.0,0.0,0.0,0.0,0.0,0.0,0.0,0.0,12.534018,0.0,0.0,nan,0.0,0.0,0.09014544,0.0025077607,0.0025159034,0.0025073611,0.0,0.0,0.0,0.0,0.0
286849838,286848162,0.0,0.0,0.0,107.07385,108.7303,0.0,0.0,0.0,0.0,0.0,0.0,0.0,0.0,12.533366,0.0,0.0,nan,0.0,0.0,0.09014544,0.0025087548,0.0025125328,0.0025070105,0.0,0.0,0.0,0.0,0.0
287340468,287338390,0.0,0.0,0.0,107.15313,108.800095,0.0,0.0,0.0,0.0,0.0,0.0,0.0,0.0,12.534341,0.0,0.0,nan,0.0,0.0,0.09014544,0.00250956,0.0025093018,0.0025063707,0.0,0.0,0.0,0.0,0.0
287840447,287838644,0.0,0.0,0.0,107.19525,108.85371,0.0,0.0,0.0,0.0,0.0,0.0,0.0,0.0,12.539497,0.0,0.0,nan,0.0,0.0,0.09014544,0.0025097704,0.0025073858,0.0025055397,0.0,0.0,0.0,0.0,0.0
288344140,288338912,0.0,0.0,0.0,107.22685,108.90504,0.0,0.0,0.0,0.0,0.0,0.0,0.0,0.0,12.54338,0.0,0.0,nan,0.0,0.0,0.09014544,0.0025100473,0.002508103,0.002505588,0.0,0.0,0.0,0.0,0.0
288841147,288839168,0.0,0.0,0.0,107.22136,108.90942,0.0,0.0,0.0,0.0,0.0,0.0,0.0,0.0,12.547495,0.0,0.0,nan,0.0,0.0,0.09014544,0.002508868,0.0025071036,0.0025048354,0.0,0.0,0.0,0.0,0.0
289344599,289339431,0.0,0.0,0.0,107.17239,108.85782,0.0,0.0,0.0,0.0,0.0,0.0,0.0,0.0,12.55096,0.0,0.0,nan,0.0,0.0,0.09014544,0.0025085525,0.0025072596,0.0025039767,0.0,0.0,0.0,0.0,0.0
289844927,289839748,0.0,0.0,0.0,107.11693,108.788376,0.0,0.0,0.0,0.0,0.0,0.0,0.0,0.0,12.551993,0.0,0.0,nan,0.0,0.0,0.09014544,0.0025081031,0.0025074603,0.0025035746,0.0,0.0,0.0,0.0,0.0
290345361,290339955,0.0,0.0,0.0,107.022385,108.64576,0.0,0.0,0.0,0.0,0.0,0.0,0.0,0.0,12.55194,0.0,0.0,nan,0.0,0.0,0.09014544,0.0025079022,0.0025083916,0.002503626,0.0,0.0,0.0,0.0,0.0
290845137,290840218,0.0,0.0,0.0,106.95935,108.536705,0.0,0.0,0.0,0.0,0.0,0.0,0.0,0.0,12.549057,0.0,0.0,nan,0.0,0.0,0.09014544,0.0025076447,0.002509148,0.0025043765,0.0,0.0,0.0,0.0,0.0
291345914,291340501,0.0,0.0,0.0,106.88873,108.368195,0.0,0.0,0.0,0.0,0.0,0.0,0.0,0.0,12.546239,0.0,0.0,nan,0.0,0.0,0.09014544,0.002507402,0.0025102606,0.002505634,0.0,0.0,0.0,0.0,0.0
291845891,291840744,0.0,0.0,0.0,106.853775,108.24902,0.0,0.0,0.0,0.0,0.0,0.0,0.0,0.0,12.54252,0.0,0.0,nan,0.0,0.0,0.09014544,0.0025070072,0.0025123744,0.0025077797,0.0,0.0,0.0,0.0,0.0
292346213,292341006,0.0,0.0,0.0,106.819466,108.06348,0.0,0.0,0.0,0.0,0.0,0.0,0.0,0.0,12.539249,0.0,0.0,nan,0.0,0.0,0.09014544,0.0025063646,0.0025155803,0.0025106305,0.0,0.0,0.0,0.0,0.0
292843243,292841278,0.0,0.0,0.0,106.81052,107.92819,0.0,0.0,0.0,0.0,0.0,0.0,0.0,0.0,12.53687,0.0,0.0,nan,0.0,0.0,0.09014544,0.0025079777,0.0025114112,0.002507145,0.0,0.0,0.0,0.0,0.0
293346699,293341532,0.0,0.0,0.0,106.83206,107.7307,0.0,0.0,0.0,0.0,0.0,0.0,0.0,0.0,12.536502,0.0,0.0,nan,0.0,0.0,0.09014544,0.0025087663,0.002509693,0.002505639,0.0,0.0,0.0,0.0,0.0
293847153,293841795,0.0,0.0,0.0,106.86472,107.62553,0.0,0.0,0.0,0.0,0.0,0.0,0.0,0.0,12.5391445,0.0,0.0,nan,0.0,0.0,0.09014544,0.0025087225,0.0025092445,0.0025065183,0.0,0.0,0.0,0.0,0.0
294347332,294342071,0.0,0.0,0.0,106.934555,107.499146,0.0,0.0,0.0,0.0,0.0,0.0,0.0,0.0,12.541279,0.0,0.0,nan,0.0,0.0,0.09014544,0.0025091902,0.0025092545,0.002506758,0.0,0.0,0.0,0.0,0.0
294844166,294842321,0.0,0.0,0.0,106.98133,107.4155,0.0,0.0,0.0,0.0,0.0,0.0,0.0,0.0,12.545259,0.0,0.0,nan,0.0,0.0,0.09014544,0.0025099525,0.0025104377,0.0025079418,0.0,0.0,0.0,0.0,0.0
295344388,295342585,0.0,0.0,0.0,107.0513,107.276634,0.0,0.0,0.0,0.0,0.0,0.0,0.0,0.0,12.547563,0.0,0.0,nan,0.0,0.0,0.09014544,0.0025108391,0.0025125241,0.0025102803,0.0,0.0,0.0,0.0,0.0
295847911,295842858,0.0,0.0,0.0,107.09867,107.17508,0.0,0.0,0.0,0.0,0.0,0.0,0.0,0.0,12.552125,0.0,0.0,nan,0.0,0.0,0.09014544,0.0025130003,0.00251164,0.0025093234,0.0,0.0,0.0,0.0,0.0
296348262,296343111,0.0,0.0,0.0,107.183365,107.057465,0.0,0.0,0.0,0.0,0.0,0.0,0.0,0.0,12.556749,0.0,0.0,nan,0.0,0.0,0.09014544,0.0025129374,0.002510625,0.0025079434,0.0,0.0,0.0,0.0,0.0
296848430,296843381,0.0,0.0,0.0,107.23148,107.01371,0.0,0.0,0.0,0.0,0.0,0.0,0.0,0.0,12.565655,0.0,0.0,nan,0.0,0.0,0.09014544,0.0025117209,0.0025106894,0.002507751,0.0,0.0,0.0,0.0,0.0
297345328,297343633,0.0,0.0,0.0,107.25278,106.99882,0.0,0.0,0.0,0.0,0.0,0.0,0.0,0.0,12.574728,0.0,0.0,nan,0.0,0.0,0.09014544,0.0025101204,0.0025110664,0.002507335,0.0,0.0,0.0,0.0,0.0
297848982,297843902,0.0,0.0,0.0,107.21929,107.023,0.0,0.0,0.0,0.0,0.0,0.0,0.0,0.0,12.586375,0.0,0.0,nan,0.0,0.0,0.09014544,0.0025087015,0.002510891,0.0025067122,0.0,0.0,0.0,0.0,0.0
298345946,298344170,0.0,0.0,0.0,107.09155,107.11584,0.0,0.0,0.0,0.0,0.0,0.0,0.0,0.0,12.600857,0.0,0.0,nan,0.0,0.0,0.09014544,0.002507781,0.0025104922,0.002506534,0.0,0.0,0.0,0.0,0.0
298849349,298844440,0.0,0.0,0.0,106.955215,107.20335,0.0,0.0,0.0,0.0,0.0,0.0,0.0,0.0,12.615679,0.0,0.0,nan,0.0,0.0,0.09014544,0.00250688,0.002510275,0.0025065746,0.0,0.0,0.0,0.0,0.0
299349772,299344692,0.0,0.0,0.0,106.697205,107.351685,0.0,0.0,0.0,0.0,0.0,0.0,0.0,0.0,12.630779,0.0,0.0,nan,0.0,0.0,0.09014544,0.002506397,0.0025095255,0.0025055357,0.0,0.0,0.0,0.0,0.0
299846692,299844957,0.0,0.0,0.0,106.51221,107.44148,0.0,0.0,0.0,0.0,0.0,0.0,0.0,0.0,12.641251,0.0,0.0,nan,0.0,0.0,0.09014544,0.0025062044,0.0025099267,0.0025041888,0.0,0.0,0.0,0.0,0.0
300350663,300345221,0.0,0.0,0.0,106.250305,107.547,0.0,0.0,0.0,0.0,0.0,0.0,0.0,0.0,12.646494,0.0,0.0,nan,0.0,0.0,0.09014544,0.0025057863,0.0025107309,0.002503944,0.0,0.0,0.0,0.0,0.0
300847285,300845488,0.0,0.0,0.0,106.098045,107.60168,0.0,0.0,0.0,0.0,0.0,0.0,0.0,0.0,12.64318,0.0,0.0,nan,0.0,0.0,0.09014544,0.0025055732,0.0025087246,0.0025042302,0.0,0.0,0.0,0.0,0.0
301350876,301345752,0.0,0.0,0.0,105.905945,107.64768,0.0,0.0,0.0,0.0,0.0,0.0,0.0,0.0,12.637952,0.0,0.0,nan,0.0,0.0,0.09014544,0.0025053567,0.0025083025,0.0025049965,0.0,0.0,0.0,0.0,0.0
301851344,301846012,0.0,0.0,0.0,105.796135,107.647606,0.0,0.0,0.0,0.0,0.0,0.0,0.0,0.0,12.628446,0.0,0.0,nan,0.0,0.0,0.09014544,0.002505259,0.002508053,0.0025049096,0.0,0.0,0.0,0.0,0.0
302351207,302346276,0.0,0.0,0.0,105.65541,107.6036,0.0,0.0,0.0,0.0,0.0,0.0,0.0,0.0,12.621363,0.0,0.0,nan,0.0,0.0,0.09014544,0.0025051194,0.002507864,0.0025042838,0.0,0.0,0.0,0.0,0.0
302851840,302846540,0.0,0.0,0.0,105.59168,107.561935,0.0,0.0,0.0,0.0,0.0,0.0,0.0,0.0,12.612852,0.0,0.0,nan,0.0,0.0,0.09014544,0.0025052389,0.0025078473,0.002503765,0.0,0.0,0.0,0.0,0.0
303348552,303346804,0.0,0.0,0.0,105.54196,107.499695,0.0,0.0,0.0,0.0,0.0,0.0,0.0,0.0,12.603491,0.0,0.0,nan,0.0,0.0,0.09014544,0.0025052691,0.002508444,0.0025036628,0.0,0.0,0.0,0.0,0.0
303848840,303847068,0.0,0.0,0.0,105.532265,107.44886,0.0,0.0,0.0,0.0,0.0,0.0,0.0,0.0,12.593427,0.0,0.0,nan,0.0,0.0,0.09014544,0.00250539,0.0025097765,0.002504146,0.0,0.0,0.0,0.0,0.0
304352648,304347332,0.0,0.0,0.0,105.53711,107.352936,0.0,0.0,0.0,0.0,0.0,0.0,0.0,0.0,12.580563,0.0,0.0,nan,0.0,0.0,0.09014544,0.002505419,0.0025095765,0.0025040498,0.0,0.0,0.0,0.0,0.0
304842799,304837585,0.0,0.0,0.0,105.55115,107.28273,0.0,0.0,0.0,0.0,0.0,0.0,0.0,0.0,12.569536,0.0,0.0,nan,0.0,0.0,0.09014544,0.0025050954,0.0025079441,0.0025042542,0.0,0.0,0.0,0.0,0.0
305343351,305337855,0.0,0.0,0.0,105.58113,107.17132,0.0,0.0,0.0,0.0,0.0,0.0,0.0,0.0,12.557652,0.0,0.0,nan,0.0,0.0,0.09014544,0.002505025,0.0025079714,0.0025038805,0.0,0.0,0.0,0.0,0.0
305843252,305838119,0.0,0.0,0.0,105.606415,107.09206,0.0,0.0,0.0,0.0,0.0,0.0,0.0,0.0,12.550737,0.0,0.0,nan,0.0,0.0,0.09014544,0.0025051862,0.002508632,0.0025041625,0.0,0.0,0.0,0.0,0.0
306343836,306338392,0.0,0.0,0.0,105.65724,106.99843,0.0,0.0,0.0,0.0,0.0,0.0,0.0,0.0,12.543273,0.0,0.0,nan,0.0,0.0,0.09014544,0.00250566,0.0025091371,0.0025045606,0.0,0.0,0.0,0.0,0.0
306840437,306838653,0.0,0.0,0.0,105.69141,106.94364,0.0,0.0,0.0,0.0,0.0,0.0,0.0,0.0,12.537672,0.0,0.0,nan,0.0,0.0,0.09014544,0.0025052978,0.0025096396,0.0025047516,0.0,0.0,0.0,0.0,0.0
307350707,307348918,0.0,0.0,0.0,105.73449,106.85558,0.0,0.0,0.0,0.0,0.0,0.0,0.0,0.0,12.529937,0.0,0.0,nan,0.0,0.0,0.09014544,0.0025052775,0.0025082238,0.0025037937,0.0,0.0,0.0,0.0,0.0
307854471,307849182,0.0,0.0,0.0,105.7536,106.79073,0.0,0.0,0.0,0.0,0.0,0.0,0.0,0.0,12.523945,0.0,0.0,nan,0.0,0.0,0.09014544,0.0025053744,0.002508164,0.0025037576,0.0,0.0,0.0,0.0,0.0
308341241,308339442,0.0,0.0,0.0,105.78097,106.70551,0.0,0.0,0.0,0.0,0.0,0.0,0.0,0.0,12.5193615,0.0,0.0,nan,0.0,0.0,0.09014544,0.0025055588,0.0025082426,0.0025036205,0.0,0.0,0.0,0.0,0.0
308841477,308839706,0.0,0.0,0.0,105.79591,106.65548,0.0,0.0,0.0,0.0,0.0,0.0,0.0,0.0,12.513515,0.0,0.0,nan,0.0,0.0,0.09014544,0.0025057078,0.0025085525,0.0025036728,0.0,0.0,0.0,0.0,0.0
309341780,309339976,0.0,0.0,0.0,105.809944,106.58339,0.0,0.0,0.0,0.0,0.0,0.0,0.0,0.0,12.510392,0.0,0.0,nan,0.0,0.0,0.09014544,0.0025057753,0.0025083355,0.0025035583,0.0,0.0,0.0,0.0,0.0
309842109,309840239,0.0,0.0,0.0,105.81713,106.53875,0.0,0.0,0.0,0.0,0.0,0.0,0.0,0.0,12.507229,0.0,0.0,nan,0.0,0.0,0.09014544,0.0025063027,0.0025082855,0.0025031697,0.0,0.0,0.0,0.0,0.0
310345733,310340500,0.0,0.0,0.0,105.82288,106.479195,0.0,0.0,0.0,0.0,0.0,0.0,0.0,0.0,12.505576,0.0,0.0,nan,0.0,0.0,0.09014544,0.0025076626,0.0025082524,0.002502545,0.0,0.0,0.0,0.0,0.0
310842445,310840767,0.0,0.0,0.0,105.83667,106.45634,0.0,0.0,0.0,0.0,0.0,0.0,0.0,0.0,12.504759,0.0,0.0,nan,0.0,0.0,0.09014544,0.0025082424,0.0025084717,0.0025021643,0.0,0.0,0.0,0.0,0.0
311342919,311341043,0.0,0.0,0.0,105.85402,106.42951,0.0,0.0,0.0,0.0,0.0,0.0,0.0,0.0,12.506199,0.0,0.0,nan,0.0,0.0,0.09014544,0.0025075066,0.0025081886,0.0025025895,0.0,0.0,0.0,0.0,0.0
311846513,311841294,0.0,0.0,0.0,105.86079,106.41193,0.0,0.0,0.0,0.0,0.0,0.0,0.0,0.0,12.507567,0.0,0.0,nan,0.0,0.0,0.09014544,0.002507068,0.0025081441,0.002502939,0.0,0.0,0.0,0.0,0.0
312343390,312341562,0.0,0.0,0.0,105.86714,106.38568,0.0,0.0,0.0,0.0,0.0,0.0,0.0,0.0,12.51082,0.0,0.0,nan,0.0,0.0,0.09014544,0.0025062668,0.0025081774,0.0025039942,0.0,0.0,0.0,0.0,0.0
312843596,312841823,0.0,0.0,0.0,105.86835,106.37046,0.0,0.0,0.0,0.0,0.0,0.0,0.0,0.0,12.513355,0.0,0.0,nan,0.0,0.0,0.09014544,0.0025074163,0.0025077497,0.0025047078,0.0,0.0,0.0,0.0,0.0
313347284,313342088,0.0,0.0,0.0,105.88771,106.37756,0.0,0.0,0.0,0.0,0.0,0.0,0.0,0.0,12.516671,0.0,0.0,nan,0.0,0.0,0.09014544,0.002506841,0.0025079711,0.0025047623,0.0,0.0,0.0,0.0,0.0
313847291,313842361,0.0,0.0,0.0,105.89795,106.37964,0.0,0.0,0.0,0.0,0.0,0.0,0.0,0.0,12.52229,0.0,0.0,nan,0.0,0.0,0.09014544,0.0025064256,0.0025081958,0.0025031504,0.0,0.0,0.0,0.0,0.0
314344552,314342618,0.0,0.0,0.0,105.91005,106.37992,0.0,0.0,0.0,0.0,0.0,0.0,0.0,0.0,12.527412,0.0,0.0,nan,0.0,0.0,0.09014544,0.0025069395,0.0025080226,0.0025024014,0.0,0.0,0.0,0.0,0.0
314844699,314842882,0.0,0.0,0.0,105.928955,106.39424,0.0,0.0,0.0,0.0,0.0,0.0,0.0,0.0,12.534406,0.0,0.0,nan,0.0,0.0,0.09014544,0.0025072454,0.002507725,0.0025025923,0.0,0.0,0.0,0.0,0.0
315348121,315343148,0.0,0.0,0.0,105.958275,106.41874,0.0,0.0,0.0,0.0,0.0,0.0,0.0,0.0,12.539281,0.0,0.0,nan,0.0,0.0,0.09014544,0.002507129,0.0025080054,0.0025022372,0.0,0.0,0.0,0.0,0.0
315845204,315843413,0.0,0.0,0.0,105.9768,106.43147,0.0,0.0,0.0,0.0,0.0,0.0,0.0,0.0,12.5450945,0.0,0.0,nan,0.0,0.0,0.09014544,0.0025070708,0.0025081483,0.0025026626,0.0,0.0,0.0,0.0,0.0
316348868,316343677,0.0,0.0,0.0,106.001915,106.44022,0.0,0.0,0.0,0.0,0.0,0.0,0.0,0.0,12.548966,0.0,0.0,nan,0.0,0.0,0.09014544,0.0025070666,0.0025080224,0.002502418,0.0,0.0,0.0,0.0,0.0
316845853,316843943,0.0,0.0,0.0,106.012085,106.43536,0.0,0.0,0.0,0.0,0.0,0.0,0.0,0.0,12.553872,0.0,0.0,nan,0.0,0.0,0.09014544,0.0025072347,0.002507906,0.0025023504,0.0,0.0,0.0,0.0,0.0
317349466,317344208,0.0,0.0,0.0,106.024086,106.422165,0.0,0.0,0.0,0.0,0.0,0.0,0.0,0.0,12.556237,0.0,0.0,nan,0.0,0.0,0.09014544,0.002507479,0.0025076235,0.0025024412,0.0,0.0,0.0,0.0,0.0
317846319,317844473,0.0,0.0,0.0,106.028244,106.409,0.0,0.0,0.0,0.0,0.0,0.0,0.0,0.0,12.558214,0.0,0.0,nan,0.0,0.0,0.09014544,0.0025073763,0.0025079332,0.0025023923,0.0,0.0,0.0,0.0,0.0
318346654,318344762,0.0,0.0,0.0,106.03169,106.38353,0.0,0.0,0.0,0.0,0.0,0.0,0.0,0.0,12.560334,0.0,0.0,nan,0.0,0.0,0.09014544,0.0025077886,0.0025082736,0.0025024756,0.0,0.0,0.0,0.0,0.0
318850255,318845003,0.0,0.0,0.0,106.02967,106.35497,0.0,0.0,0.0,0.0,0.0,0.0,0.0,0.0,12.561505,0.0,0.0,nan,0.0,0.0,0.09014544,0.0025081926,0.002508033,0.0025020319,0.0,0.0,0.0,0.0,0.0
319350550,319345272,0.0,0.0,0.0,106.02108,106.30558,0.0,0.0,0.0,0.0,0.0,0.0,0.0,0.0,12.563612,0.0,0.0,nan,0.0,0.0,0.09014544,0.0025084838,0.0025080126,0.0025016575,0.0,0.0,0.0,0.0,0.0
319847327,319845534,0.0,0.0,0.0,106.017715,106.27468,0.0,0.0,0.0,0.0,0.0,0.0,0.0,0.0,12.564448,0.0,0.0,nan,0.0,0.0,0.09014544,0.002508551,0.0025082144,0.002501719,0.0,0.0,0.0,0.0,0.0
320347594,320345799,0.0,0.0,0.0,106.01086,106.22647,0.0,0.0,0.0,0.0,0.0,0.0,0.0,0.0,12.565937,0.0,0.0,nan,0.0,0.0,0.09014544,0.002509102,0.0025080582,0.0025016877,0.0,0.0,0.0,0.0,0.0
320851136,320846068,0.0,0.0,0.0,105.99315,106.18946,0.0,0.0,0.0,0.0,0.0,0.0,0.0,0.0,12.565964,0.0,0.0,nan,0.0,0.0,0.09014544,0.0025086778,0.0025076938,0.002502135,0.0,0.0,0.0,0.0,0.0
321351603,321346349,0.0,0.0,0.0,105.959366,106.145164,0.0,0.0,0.0,0.0,0.0,0.0,0.0,0.0,12.566282,0.0,0.0,nan,0.0,0.0,0.09014544,0.0025077816,0.0025076699,0.0025059157,0.0,0.0,0.0,0.0,0.0
321848292,321846606,0.0,0.0,0.0,105.940186,106.13665,0.0,0.0,0.0,0.0,0.0,0.0,0.0,0.0,12.562553,0.0,0.0,nan,0.0,0.0,0.09014544,0.002507395,0.0025065097,0.0025054114,0.0,0.0,0.0,0.0,0.0
322342108,322336862,0.0,0.0,0.0,105.91455,106.14633,0.0,0.0,0.0,0.0,0.0,0.0,0.0,0.0,12.558944,0.0,0.0,nan,0.0,0.0,0.09014544,0.0025073092,0.0025060105,0.0025031348,0.0,0.0,0.0,0.0,0.0
322838981,322837123,0.0,0.0,0.0,105.89084,106.152725,0.0,0.0,0.0,0.0,0.0,0.0,0.0,0.0,12.554066,0.0,0.0,nan,0.0,0.0,0.09014544,0.0025072147,0.0025060906,0.0025031778,0.0,0.0,0.0,0.0,0.0
323352835,323347393,0.0,0.0,0.0,105.85648,106.18075,0.0,0.0,0.0,0.0,0.0,0.0,0.0,0.0,12.54952,0.0,0.0,nan,0.0,0.0,0.09014544,0.0025069604,0.0025061131,0.0025036077,0.0,0.0,0.0,0.0,0.0
323849490,323847656,0.0,0.0,0.0,105.841286,106.22505,0.0,0.0,0.0,0.0,0.0,0.0,0.0,0.0,12.5450325,0.0,0.0,nan,0.0,0.0,0.09014544,0.0025069867,0.0025062244,0.0025029872,0.0,0.0,0.0,0.0,0.0
324349742,324347921,0.0,0.0,0.0,105.81415,106.288216,0.0,0.0,0.0,0.0,0.0,0.0,0.0,0.0,12.541153,0.0,0.0,nan,0.0,0.0,0.09014544,0.002507245,0.0025063865,0.0025022032,0.0,0.0,0.0,0.0,0.0
324850072,324848187,0.0,0.0,0.0,105.78775,106.31792,0.0,0.0,0.0,0.0,0.0,0.0,0.0,0.0,12.538727,0.0,0.0,nan,0.0,0.0,0.09014544,0.002507283,0.0025067334,0.0025019902,0.0,0.0,0.0,0.0,0.0
325350258,325348452,0.0,0.0,0.0,105.74564,106.34898,0.0,0.0,0.0,0.0,0.0,0.0,0.0,0.0,12.536424,0.0,0.0,nan,0.0,0.0,0.09014544,0.0025069932,0.0025072885,0.0025021103,0.0,0.0,0.0,0.0,0.0
325840528,325838712,0.0,0.0,0.0,105.724686,106.37539,0.0,0.0,0.0,0.0,0.0,0.0,0.0,0.0,12.535982,0.0,0.0,nan,0.0,0.0,0.09014544,0.0025065816,0.002507207,0.0025025425,0.0,0.0,0.0,0.0,0.0
326340828,326338978,0.0,0.0,0.0,105.70155,106.42164,0.0,0.0,0.0,0.0,0.0,0.0,0.0,0.0,12.534813,0.0,0.0,nan,0.0,0.0,0.09014544,0.0025062517,0.00250758,0.0025027243,0.0,0.0,0.0,0.0,0.0
326841155,326839262,0.0,0.0,0.0,105.69103,106.451866,0.0,0.0,0.0,0.0,0.0,0.0,0.0,0.0,12.534961,0.0,0.0,nan,0.0,0.0,0.09014544,0.0025060938,0.0025075185,0.0025029567,0.0,0.0,0.0,0.0,0.0
327344826,327339509,0.0,0.0,0.0,105.675095,106.48352,0.0,0.0,0.0,0.0,0.0,0.0,0.0,0.0,12.534708,0.0,0.0,nan,0.0,0.0,0.09014544,0.0025060992,0.0025076377,0.0025028936,0.0,0.0,0.0,0.0,0.0
327845067,327839781,0.0,0.0,0.0,105.66826,106.50615,0.0,0.0,0.0,0.0,0.0,0.0,0.0,0.0,12.534761,0.0,0.0,nan,0.0,0.0,0.09014544,0.0025061374,0.0025080102,0.0025029695,0.0,0.0,0.0,0.0,0.0
328342129,328340039,0.0,0.0,0.0,105.6572,106.51347,0.0,0.0,0.0,0.0,0.0,0.0,0.0,0.0,12.535951,0.0,0.0,nan,0.0,0.0,0.09014544,0.0025064696,0.0025080775,0.002502588,0.0,0.0,0.0,0.0,0.0
328842255,328840305,0.0,0.0,0.0,105.64846,106.505066,0.0,0.0,0.0,0.0,0.0,0.0,0.0,0.0,12.536635,0.0,0.0,nan,0.0,0.0,0.09014544,0.0025064033,0.0025086012,0.002502915,0.0,0.0,0.0,0.0,0.0
329345911,329340602,0.0,0.0,0.0,105.63686,106.49314,0.0,0.0,0.0,0.0,0.0,0.0,0.0,0.0,12.538419,0.0,0.0,nan,0.0,0.0,0.09014544,0.002505792,0.002508418,0.0025040864,0.0,0.0,0.0,0.0,0.0
329842598,329840836,0.0,0.0,0.0,105.63651,106.50835,0.0,0.0,0.0,0.0,0.0,0.0,0.0,0.0,12.537714,0.0,0.0,nan,0.0,0.0,0.09014544,0.0025053436,0.002508385,0.0025053446,0.0,0.0,0.0,0.0,0.0
330342899,330341115,0.0,0.0,0.0,105.637924,106.56808,0.0,0.0,0.0,0.0,0.0,0.0,0.0,0.0,12.53625,0.0,0.0,nan,0.0,0.0,0.09014544,0.0025054833,0.002508444,0.0025075371,0.0,0.0,0.0,0.0,0.0
330846740,330841395,0.0,0.0,0.0,105.63603,106.62558,0.0,0.0,0.0,0.0,0.0,0.0,0.0,0.0,12.533439,0.0,0.0,nan,0.0,0.0,0.09014544,0.0025061343,0.0025064724,0.002505784,0.0,0.0,0.0,0.0,0.0
331343467,331341661,0.0,0.0,0.0,105.63465,106.72928,0.0,0.0,0.0,0.0,0.0,0.0,0.0,0.0,12.532526,0.0,0.0,nan,0.0,0.0,0.09014544,0.002506661,0.002505844,0.0025051548,0.0,0.0,0.0,0.0,0.0
331843624,331841897,0.0,0.0,0.0,105.63292,106.801025,0.0,0.0,0.0,0.0,0.0,0.0,0.0,0.0,12.531311,0.0,0.0,nan,0.0,0.0,0.09014544,0.0025064177,0.0025059036,0.0025052843,0.0,0.0,0.0,0.0,0.0
332343955,332342168,0.0,0.0,0.0,105.62903,106.899025,0.0,0.0,0.0,0.0,0.0,0.0,0.0,0.0,12.532914,0.0,0.0,nan,0.0,0.0,0.09014544,0.0025072494,0.002506228,0.002503245,0.0,0.0,0.0,0.0,0.0
332847658,332842429,0.0,0.0,0.0,105.63178,106.96783,0.0,0.0,0.0,0.0,0.0,0.0,0.0,0.0,12.534048,0.0,0.0,nan,0.0,0.0,0.09014544,0.0025069541,0.002507661,0.002502242,0.0,0.0,0.0,0.0,0.0
333347997,333342694,0.0,0.0,0.0,105.64243,107.05612,0.0,0.0,0.0,0.0,0.0,0.0,0.0,0.0,12.53586,0.0,0.0,nan,0.0,0.0,0.09014544,0.0025065143,0.0025084012,0.0025023646,0.0,0.0,0.0,0.0,0.0
333844647,333842960,0.0,0.0,0.0,105.6503,107.09184,0.0,0.0,0.0,0.0,0.0,0.0,0.0,0.0,12.535835,0.0,0.0,nan,0.0,0.0,0.09014544,0.0025060915,0.0025074733,0.0025031965,0.0,0.0,0.0,0.0,0.0
334345148,334343224,0.0,0.0,0.0,105.66046,107.12617,0.0,0.0,0.0,0.0,0.0,0.0,0.0,0.0,12.535245,0.0,0.0,nan,0.0,0.0,0.09014544,0.002505989,0.0025062643,0.0025054028,0.0,0.0,0.0,0.0,0.0
334845519,334843490,0.0,0.0,0.0,105.665565,107.14998,0.0,0.0,0.0,0.0,0.0,0.0,0.0,0.0,12.535861,0.0,0.0,nan,0.0,0.0,0.09014544,0.0025064668,0.0025065334,0.0025080943,0.0,0.0,0.0,0.0,0.0
335348892,335343756,0.0,0.0,0.0,105.668076,107.21575,0.0,0.0,0.0,0.0,0.0,0.0,0.0,0.0,12.535884,0.0,0.0,nan,0.0,0.0,0.09014544,0.0025075243,0.002506156,0.0025083653,0.0,0.0,0.0,0.0,0.0
335849189,335844032,0.0,0.0,0.0,105.66292,107.27008,0.0,0.0,0.0,0.0,0.0,0.0,0.0,0.0,12.537618,0.0,0.0,nan,0.0,0.0,0.09014544,0.0025080938,0.0025045217,0.0025073444,0.0,0.0,0.0,0.0,0.0
336346334,336344288,0.0,0.0,0.0,105.64618,107.36345,0.0,0.0,0.0,0.0,0.0,0.0,0.0,0.0,12.538472,0.0,0.0,nan,0.0,0.0,0.09014544,0.0025082633,0.0025052428,0.0025045243,0.0,0.0,0.0,0.0,0.0
336849457,336844552,0.0,0.0,0.0,105.634834,107.42559,0.0,0.0,0.0,0.0,0.0,0.0,0.0,0.0,12.54134,0.0,0.0,nan,0.0,0.0,0.09014544,0.0025082498,0.002507341,0.0025023227,0.0,0.0,0.0,0.0,0.0
337346622,337344817,0.0,0.0,0.0,105.61666,107.481804,0.0,0.0,0.0,0.0,0.0,0.0,0.0,0.0,12.5417795,0.0,0.0,nan,0.0,0.0,0.09014544,0.0025081069,0.0025077614,0.0025019138,0.0,0.0,0.0,0.0,0.0
337846877,337845082,0.0,0.0,0.0,105.60689,107.4901,0.0,0.0,0.0,0.0,0.0,0.0,0.0,0.0,12.540998,0.0,0.0,nan,0.0,0.0,0.09014544,0.0025080359,0.002507917,0.0025019206,0.0,0.0,0.0,0.0,0.0
338350262,338345348,0.0,0.0,0.0,105.597885,107.46468,0.0,0.0,0.0,0.0,0.0,0.0,0.0,0.0,12.539325,0.0,0.0,nan,0.0,0.0,0.09014544,0.0025075318,0.0025077264,0.0025022437,0.0,0.0,0.0,0.0,0.0
338847425,338845613,0.0,0.0,0.0,105.597015,107.42884,0.0,0.0,0.0,0.0,0.0,0.0,0.0,0.0,12.536496,0.0,0.0,nan,0.0,0.0,0.09014544,0.0025071707,0.0025074768,0.0025027343,0.0,0.0,0.0,0.0,0.0
339347669,339345878,0.0,0.0,0.0,105.59755,107.35856,0.0,0.0,0.0,0.0,0.0,0.0,0.0,0.0,12.534678,0.0,0.0,nan,0.0,0.0,0.09014544,0.0025066147,0.0025079488,0.0025028305,0.0,0.0,0.0,0.0,0.0
339848130,339846176,0.0,0.0,0.0,105.598465,107.29782,0.0,0.0,0.0,0.0,0.0,0.0,0.0,0.0,12.5326185,0.0,0.0,nan,0.0,0.0,0.09014544,0.002506412,0.0025082892,0.0025029215,0.0,0.0,0.0,0.0,0.0
340348293,340346409,0.0,0.0,0.0,105.59979,107.18555,0.0,0.0,0.0,0.0,0.0,0.0,0.0,0.0,12.530731,0.0,0.0,nan,0.0,0.0,0.09014544,0.0025063884,0.002508244,0.0025025904,0.0,0.0,0.0,0.0,0.0
340851553,340846674,0.0,0.0,0.0,105.597755,107.0957,0.0,0.0,0.0,0.0,0.0,0.0,0.0,0.0,12.529807,0.0,0.0,nan,0.0,0.0,0.09014544,0.0025063548,0.0025079928,0.002502562,0.0,0.0,0.0,0.0,0.0
341349049,341346940,0.0,0.0,0.0,105.59236,106.94893,0.0,0.0,0.0,0.0,0.0,0.0,0.0,0.0,12.530729,0.0,0.0,nan,0.0,0.0,0.09014544,0.0025063485,0.0025081004,0.0025025264,0.0,0.0,0.0,0.0,0.0
341849207,341847205,0.0,0.0,0.0,105.59573,106.8487,0.0,0.0,0.0,0.0,0.0,0.0,0.0,0.0,12.531923,0.0,0.0,nan,0.0,0.0,0.09014745,0.0025062924,0.0025081746,0.0025026544,0.0,0.0,0.0,0.0,0.0
342349527,342347470,0.0,0.0,0.0,105.63146,106.705536,0.0,0.0,0.0,0.0,0.0,0.0,0.0,0.0,12.53543,0.0,0.0,nan,0.0,0.0,0.090144135,0.0025062924,0.0025081746,0.0025026544,0.0,0.0,0.0,0.0,0.0
342849670,342847736,0.0,0.0,0.0,105.65853,106.63607,0.0,0.0,0.0,0.0,0.0,0.0,0.0,0.0,12.539008,0.0,0.0,nan,0.0,0.0,0.09014444,0.002638041,0.0026609963,0.002637694,0.0,0.0,0.0,0.0,0.0
343343434,343337996,0.0,0.0,0.0,105.70555,106.55472,0.0,0.0,0.0,0.0,0.0,0.0,0.0,0.0,12.54594,0.0,0.0,nan,0.0,0.0,0.09014444,0.0025697104,0.002569476,0.0025997958,0.0,0.0,0.0,0.0,0.0
343840134,343838261,0.0,0.0,0.0,105.752396,106.52077,0.0,0.0,0.0,0.0,0.0,0.0,0.0,0.0,12.554215,0.0,0.0,nan,0.0,0.0,0.09014444,0.0025610242,0.0026193175,0.0025669963,0.0,0.0,0.0,0.0,0.0
344340310,344338561,0.0,0.0,0.0,105.85364,106.50346,0.0,0.0,0.0,0.0,0.0,0.0,0.0,0.0,12.56432,0.0,0.0,nan,0.0,0.0,0.09014444,0.0025454792,0.0025455551,0.0025425928,0.0,0.0,0.0,0.0,0.0
344840713,344838791,0.0,0.0,0.0,105.94924,106.518364,0.0,0.0,0.0,0.0,0.0,0.0,0.0,0.0,12.576521,0.0,0.0,nan,0.0,0.0,0.09014444,0.002548307,0.0025394778,0.002535345,0.0,0.0,0.0,0.0,0.0
345341022,345339056,0.0,0.0,0.0,106.10361,106.52652,0.0,0.0,0.0,0.0,0.0,0.0,0.0,0.0,12.586755,0.0,0.0,nan,0.0,0.0,0.09014444,0.0025450783,0.0025531345,0.002592653,0.0,0.0,0.0,0.0,0.0
345844716,345839322,0.0,0.0,0.0,106.20865,106.50932,0.0,0.0,0.0,0.0,0.0,0.0,0.0,0.0,12.595192,0.0,0.0,nan,0.0,0.0,0.09014444,0.0025512122,0.0025367811,0.002553874,0.0,0.0,0.0,0.0,0.0
346341457,346339587,0.0,0.0,0.0,106.35871,106.464645,0.0,0.0,0.0,0.0,0.0,0.0,0.0,0.0,12.602204,0.0,0.0,nan,0.0,0.0,0.09014444,0.0025495845,0.0025270067,0.0025295143,0.0,0.0,0.0,0.0,0.0
346841604,346839852,0.0,0.0,0.0,106.44741,106.435616,0.0,0.0,0.0,0.0,0.0,0.0,0.0,0.0,12.608425,0.0,0.0,nan,0.0,0.0,0.09014444,0.0025476424,0.0025250753,0.0025216402,0.0,0.0,0.0,0.0,0.0
347345326,347340117,0.0,0.0,0.0,106.552475,106.41446,0.0,0.0,0.0,0.0,0.0,0.0,0.0,0.0,12.611264,0.0,0.0,nan,0.0,0.0,0.09014444,0.0025407912,0.0025352084,0.002521569,0.0,0.0,0.0,0.0,0.0
347845562,347840391,0.0,0.0,0.0,106.59273,106.41359,0.0,0.0,0.0,0.0,0.0,0.0,0.0,0.0,12.616353,0.0,0.0,nan,0.0,0.0,0.09014444,0.0025349811,0.0025511552,0.0025201975,0.0,0.0,0.0,0.0,0.0
348342680,348340647,0.0,0.0,0.0,106.62458,106.45661,0.0,0.0,0.0,0.0,0.0,0.0,0.0,0.0,12.615668,0.0,0.0,nan,0.0,0.0,0.09014444,0.002529875,0.0025535303,0.002517266,0.0,0.0,0.0,0.0,0.0
348846141,348840920,0.0,0.0,0.0,106.630295,106.497475,0.0,0.0,0.0,0.0,0.0,0.0,0.0,0.0,12.615192,0.0,0.0,nan,0.0,0.0,0.09014444,0.0025213961,0.0025392575,0.0025134592,0.0,0.0,0.0,0.0,0.0
349342986,349341189,0.0,0.0,0.0,106.59366,106.53384,0.0,0.0,0.0,0.0,0.0,0.0,0.0,0.0,12.609448,0.0,0.0,nan,0.0,0.0,0.09014444,0.0025165817,0.0025228136,0.0025108561,0.0,0.0,0.0,0.0,0.0
349843614,349841453,0.0,0.0,0.0,106.54672,106.552284,0.0,0.0,0.0,0.0,0.0,0.0,0.0,0.0,12.60113,0.0,0.0,nan,0.0,0.0,0.09014444,0.0025150778,0.0025159682,0.0025094706,0.0,0.0,0.0,0.0,0.0
350346991,350341708,0.0,0.0,0.0,106.44824,106.5672,0.0,0.0,0.0,0.0,0.0,0.0,0.0,0.0,12.59208,0.0,0.0,nan,0.0,0.0,0.09014444,0.002512834,0.0025121474,0.0025090037,0.0,0.0,0.0,0.0,0.0
350843780,350841972,0.0,0.0,0.0,106.37336,106.577965,0.0,0.0,0.0,0.0,0.0,0.0,0.0,0.0,12.584473,0.0,0.0,nan,0.0,0.0,0.09014444,0.002512489,0.0025120405,0.0025088564,0.0,0.0,0.0,0.0,0.0
351347576,351342237,0.0,0.0,0.0,106.26505,106.60644,0.0,0.0,0.0,0.0,0.0,0.0,0.0,0.0,12.578222,0.0,0.0,nan,0.0,0.0,0.09014444,0.0025119432,0.0025120429,0.0025088529,0.0,0.0,0.0,0.0,0.0
351847728,351842503,0.0,0.0,0.0,106.19778,106.629105,0.0,0.0,0.0,0.0,0.0,0.0,0.0,0.0,12.573439,0.0,0.0,nan,0.0,0.0,0.09014444,0.0025114368,0.002511308,0.0025083895,0.0,0.0,0.0,0.0,0.0
352344438,352342767,0.0,0.0,0.0,106.105286,106.660736,0.0,0.0,0.0,0.0,0.0,0.0,0.0,0.0,12.570576,0.0,0.0,nan,0.0,0.0,0.09014444,0.002512012,0.0025114478,0.0025079942,0.0,0.0,0.0,0.0,0.0
352848440,352843032,0.0,0.0,0.0,106.05399,106.67261,0.0,0.0,0.0,0.0,0.0,0.0,0.0,0.0,12.5658045,0.0,0.0,nan,0.0,0.0,0.09014444,0.0025123775,0.002510949,0.0025077632,0.0,0.0,0.0,0.0,0.0
353345088,353343303,0.0,0.0,0.0,106.00265,106.67705,0.0,0.0,0.0,0.0,0.0,0.0,0.0,0.0,12.56322,0.0,0.0,nan,0.0,0.0,0.09014444,0.0025120259,0.002510212,0.0025076598,0.0,0.0,0.0,0.0,0.0
353845380,353843562,0.0,0.0,0.0,105.98281,106.6718,0.0,0.0,0.0,0.0,0.0,0.0,0.0,0.0,12.560149,0.0,0.0,nan,0.0,0.0,0.09014444,0.0025104051,0.0025100363,0.0025071772,0.0,0.0,0.0,0.0,0.0
354349005,354343827,0.0,0.0,0.0,105.98829,106.668015,0.0,0.0,0.0,0.0,0.0,0.0,0.0,0.0,12.558067,0.0,0.0,nan,0.0,0.0,0.09014444,0.0025090568,0.002509266,0.0025075434,0.0,0.0,0.0,0.0,0.0
354849388,354844092,0.0,0.0,0.0,105.99611,106.647316,0.0,0.0,0.0,0.0,0.0,0.0,0.0,0.0,12.556319,0.0,0.0,nan,0.0,0.0,0.09014444,0.0025109628,0.0025100773,0.0025070037,0.0,0.0,0.0,0.0,0.0
355346229,355344357,0.0,0.0,0.0,106.00092,106.58523,0.0,0.0,0.0,0.0,0.0,0.0,0.0,0.0,12.555321,0.0,0.0,nan,0.0,0.0,0.09014444,0.00251076,0.0025098,0.0025069353,0.0,0.0,0.0,0.0,0.0
355846419,355844622,0.0,0.0,0.0,106.00101,106.52852,0.0,0.0,0.0,0.0,0.0,0.0,0.0,0.0,12.553233,0.0,0.0,nan,0.0,0.0,0.09014444,0.00251138,0.0025093483,0.0025069637,0.0,0.0,0.0,0.0,0.0
356350184,356344887,0.0,0.0,0.0,106.0105,106.45395,0.0,0.0,0.0,0.0,0.0,0.0,0.0,0.0,12.551888,0.0,0.0,nan,0.0,0.0,0.09014444,0.0025091132,0.0025089,0.0025067853,0.0,0.0,0.0,0.0,0.0
356847035,356845152,0.0,0.0,0.0,106.02623,106.41606,0.0,0.0,0.0,0.0,0.0,0.0,0.0,0.0,12.550434,0.0,0.0,nan,0.0,0.0,0.09014444,0.0025084198,0.00250922,0.002506695,0.0,0.0,0.0,0.0,0.0
357350777,357345420,0.0,0.0,0.0,106.07495,106.37763,0.0,0.0,0.0,0.0,0.0,0.0,0.0,0.0,12.54985,0.0,0.0,nan,0.0,0.0,0.09014444,0.0025079045,0.0025088442,0.002506458,0.0,0.0,0.0,0.0,0.0
357847562,357845681,0.0,0.0,0.0,106.12318,106.36567,0.0,0.0,0.0,0.0,0.0,0.0,0.0,0.0,12.550192,0.0,0.0,nan,0.0,0.0,0.09014444,0.00250867,0.0025087798,0.0025062715,0.0,0.0,0.0,0.0,0.0
358347704,358345946,0.0,0.0,0.0,106.20303,106.34916,0.0,0.0,0.0,0.0,0.0,0.0,0.0,0.0,12.549169,0.0,0.0,nan,0.0,0.0,0.09014444,0.0025082298,0.0025140995,0.0025078014,0.0,0.0,0.0,0.0,0.0
358851307,358846211,0.0,0.0,0.0,106.25372,106.33668,0.0,0.0,0.0,0.0,0.0,0.0,0.0,0.0,12.547431,0.0,0.0,nan,0.0,0.0,0.09014444,0.0025073402,0.002521911,0.0025089963,0.0,0.0,0.0,0.0,0.0
