timestamp,accel_device_id_primary,accel_device_ids[0],accel_device_ids[1],accel_device_ids[2],accel_device_ids[3],accel_inconsistency_m_s_s[0],accel_inconsistency_m_s_s[1],accel_inconsistency_m_s_s[2],accel_inconsistency_m_s_s[3],gyro_device_id_primary,gyro_device_ids[0],gyro_device_ids[1],gyro_device_ids[2],gyro_device_ids[3],gyro_inconsistency_rad_s[0],gyro_inconsistency_rad_s[1],gyro_inconsistency_rad_s[2],gyro_inconsistency_rad_s[3],accel_healthy[0],accel_healthy[1],accel_healthy[2],accel_healthy[3],gyro_healthy[0],gyro_healthy[1],gyro_healthy[2],gyro_healthy[3]
186844298,2162698,2162698,1114122,0,0,0.16542998,0.16542989,0.0,0.0,2162698,2162698,2228234,0,0,0.002171433,0.0021714335,0.0,0.0,1,1,0,0,1,1,0,0
186849307,2162698,2162698,1114122,0,0,0.17001723,0.17001717,0.0,0.0,2162698,2162698,2228234,0,0,0.0018901736,0.001890174,0.0,0.0,1,1,0,0,1,1,0,0
187044511,2162698,2162698,1114122,0,0,0.20403196,0.204032,0.0,0.0,2162698,2162698,2228234,0,0,0.0021229212,0.0021229212,0.0,0.0,1,1,0,0,1,1,0,0
187244522,2162698,2162698,1114122,0,0,0.18360944,0.18360938,0.0,0.0,2162698,2162698,2228234,0,0,0.0012062014,0.0012062016,0.0,0.0,1,1,0,0,1,1,0,0
187449704,2162698,2162698,1114122,0,0,0.17358519,0.17358528,0.0,0.0,2162698,2162698,2228234,0,0,0.0026882696,0.0026882694,0.0,0.0,1,1,0,0,1,1,0,0
187649809,2162698,2162698,1114122,0,0,0.1651348,0.16513479,0.0,0.0,2162698,2162698,2228234,0,0,0.0011183512,0.0011183508,0.0,0.0,1,1,0,0,1,1,0,0
187844747,2162698,2162698,1114122,0,0,0.18031195,0.18031193,0.0,0.0,2162698,2162698,2228234,0,0,0.0014520539,0.0014520539,0.0,0.0,1,1,0,0,1,1,0,0
188044842,2162698,2162698,1114122,0,0,0.17332315,0.1733231,0.0,0.0,2162698,2162698,2228234,0,0,0.0018779691,0.0018779689,0.0,0.0,1,1,0,0,1,1,0,0
188245022,2162698,2162698,1114122,0,0,0.18184292,0.18184292,0.0,0.0,2162698,2162698,2228234,0,0,0.0021766038,0.0021766038,0.0,0.0,1,1,0,0,1,1,0,0
188445163,2162698,2162698,1114122,0,0,0.18588862,0.18588871,0.0,0.0,2162698,2162698,2228234,0,0,0.0019196665,0.0019196665,0.0,0.0,1,1,0,0,1,1,0,0
188645155,2162698,2162698,1114122,0,0,0.20575574,0.2057556,0.0,0.0,2162698,2162698,2228234,0,0,0.003041154,0.003041154,0.0,0.0,1,1,0,0,1,1,0,0
188850281,2162698,2162698,1114122,0,0,0.18563892,0.18563882,0.0,0.0,2162698,2162698,2228234,0,0,0.0017157783,0.0017157778,0.0,0.0,1,1,0,0,1,1,0,0
189045316,2162698,2162698,1114122,0,0,0.17457764,0.1745776,0.0,0.0,2162698,2162698,2228234,0,0,0.0019110735,0.001911073,0.0,0.0,1,1,0,0,1,1,0,0
189245419,2162698,2162698,1114122,0,0,0.17906304,0.17906308,0.0,0.0,2162698,2162698,2228234,0,0,0.0022406324,0.0022406324,0.0,0.0,1,1,0,0,1,1,0,0
189445513,2162698,2162698,1114122,0,0,0.18792057,0.18792047,0.0,0.0,2162698,2162698,2228234,0,0,0.003064316,0.003064316,0.0,0.0,1,1,0,0,1,1,0,0
189645619,2162698,2162698,1114122,0,0,0.16496034,0.1649604,0.0,0.0,2162698,2162698,2228234,0,0,0.0017253254,0.0017253256,0.0,0.0,1,1,0,0,1,1,0,0
189845769,2162698,2162698,1114122,0,0,0.17933188,0.1793319,0.0,0.0,2162698,2162698,2228234,0,0,0.0020864152,0.0020864157,0.0,0.0,1,1,0,0,1,1,0,0
190045844,2162698,2162698,1114122,0,0,0.198157,0.19815697,0.0,0.0,2162698,2162698,2228234,0,0,0.0019640434,0.0019640431,0.0,0.0,1,1,0,0,1,1,0,0
190245963,2162698,2162698,1114122,0,0,0.19030692,0.19030698,0.0,0.0,2162698,2162698,2228234,0,0,0.0030353132,0.0030353137,0.0,0.0,1,1,0,0,1,1,0,0
190445976,2162698,2162698,1114122,0,0,0.17528306,0.17528309,0.0,0.0,2162698,2162698,2228234,0,0,0.0030663267,0.0030663263,0.0,0.0,1,1,0,0,1,1,0,0
190646094,2162698,2162698,1114122,0,0,0.2107374,0.21073738,0.0,0.0,2162698,2162698,2228234,0,0,0.001962787,0.0019627872,0.0,0.0,1,1,0,0,1,1,0,0
190846198,2162698,2162698,1114122,0,0,0.18894802,0.18894799,0.0,0.0,2162698,2162698,2228234,0,0,0.00085140154,0.0008514014,0.0,0.0,1,1,0,0,1,1,0,0
191046280,2162698,2162698,1114122,0,0,0.20567761,0.20567752,0.0,0.0,2162698,2162698,2228234,0,0,0.0024649012,0.0024649017,0.0,0.0,1,1,0,0,1,1,0,0
191246357,2162698,2162698,1114122,0,0,0.19526505,0.19526486,0.0,0.0,2162698,2162698,2228234,0,0,0.00254372,0.0025437202,0.0,0.0,1,1,0,0,1,1,0,0
191446527,2162698,2162698,1114122,0,0,0.19131623,0.19131626,0.0,0.0,2162698,2162698,2228234,0,0,0.0013309161,0.0013309161,0.0,0.0,1,1,0,0,1,1,0,0
191646666,2162698,2162698,1114122,0,0,0.20737769,0.20737775,0.0,0.0,2162698,2162698,2228234,0,0,0.0018320116,0.0018320119,0.0,0.0,1,1,0,0,1,1,0,0
191846655,2162698,2162698,1114122,0,0,0.1865131,0.18651289,0.0,0.0,2162698,2162698,2228234,0,0,0.0023997568,0.002399757,0.0,0.0,1,1,0,0,1,1,0,0
192046750,2162698,2162698,1114122,0,0,0.16921495,0.16921508,0.0,0.0,2162698,2162698,2228234,0,0,0.0020912958,0.002091296,0.0,0.0,1,1,0,0,1,1,0,0
192246855,2162698,2162698,1114122,0,0,0.18491894,0.18491907,0.0,0.0,2162698,2162698,2228234,0,0,0.0014386777,0.0014386773,0.0,0.0,1,1,0,0,1,1,0,0
192446980,2162698,2162698,1114122,0,0,0.16795504,0.16795504,0.0,0.0,2162698,2162698,2228234,0,0,0.0017848808,0.0017848806,0.0,0.0,1,1,0,0,1,1,0,0
192647037,2162698,2162698,1114122,0,0,0.18525857,0.18525857,0.0,0.0,2162698,2162698,2228234,0,0,0.0013692398,0.0013692395,0.0,0.0,1,1,0,0,1,1,0,0
192847194,2162698,2162698,1114122,0,0,0.18600734,0.18600737,0.0,0.0,2162698,2162698,2228234,0,0,0.0032662253,0.0032662263,0.0,0.0,1,1,0,0,1,1,0,0
193047432,2162698,2162698,1114122,0,0,0.1789638,0.17896378,0.0,0.0,2162698,2162698,2228234,0,0,0.0020971524,0.0020971526,0.0,0.0,1,1,0,0,1,1,0,0
193247408,2162698,2162698,1114122,0,0,0.18811633,0.18811625,0.0,0.0,2162698,2162698,2228234,0,0,0.002640614,0.002640614,0.0,0.0,1,1,0,0,1,1,0,0
193447508,2162698,2162698,1114122,0,0,0.1920894,0.19208948,0.0,0.0,2162698,2162698,2228234,0,0,0.003294387,0.003294387,0.0,0.0,1,1,0,0,1,1,0,0
193647522,2162698,2162698,1114122,0,0,0.16970156,0.16970155,0.0,0.0,2162698,2162698,2228234,0,0,0.0045586987,0.0045586983,0.0,0.0,1,1,0,0,1,1,0,0
193847658,2162698,2162698,1114122,0,0,0.19650966,0.1965097,0.0,0.0,2162698,2162698,2228234,0,0,0.0035326178,0.0035326187,0.0,0.0,1,1,0,0,1,1,0,0
194047802,2162698,2162698,1114122,0,0,0.21357003,0.21357007,0.0,0.0,2162698,2162698,2228234,0,0,0.002637262,0.0026372622,0.0,0.0,1,1,0,0,1,1,0,0
194242837,2162698,2162698,1114122,0,0,0.1861629,0.18616302,0.0,0.0,2162698,2162698,2228234,0,0,0.0038736272,0.0038736267,0.0,0.0,1,1,0,0,1,1,0,0
194448072,2162698,2162698,1114122,0,0,0.15549424,0.1554944,0.0,0.0,2162698,2162698,2228234,0,0,0.0018123091,0.001812309,0.0,0.0,1,1,0,0,1,1,0,0
194648123,2162698,2162698,1114122,0,0,0.1936486,0.19364886,0.0,0.0,2162698,2162698,2228234,0,0,0.0017789252,0.0017789255,0.0,0.0,1,1,0,0,1,1,0,0
194848078,2162698,2162698,1114122,0,0,0.201483,0.20148318,0.0,0.0,2162698,2162698,2228234,0,0,0.0026922494,0.0026922491,0.0,0.0,1,1,0,0,1,1,0,0
195048189,2162698,2162698,1114122,0,0,0.21785565,0.21785568,0.0,0.0,2162698,2162698,2228234,0,0,0.0039927033,0.0039927033,0.0,0.0,1,1,0,0,1,1,0,0
195248312,2162698,2162698,1114122,0,0,0.19885209,0.19885223,0.0,0.0,2162698,2162698,2228234,0,0,0.0015273571,0.0015273568,0.0,0.0,1,1,0,0,1,1,0,0
195443514,2162698,2162698,1114122,0,0,0.19842137,0.19842143,0.0,0.0,2162698,2162698,2228234,0,0,0.0028274169,0.0028274169,0.0,0.0,1,1,0,0,1,1,0,0
195643614,2162698,2162698,1114122,0,0,0.18179688,0.18179683,0.0,0.0,2162698,2162698,2228234,0,0,0.002286397,0.002286397,0.0,0.0,1,1,0,0,1,1,0,0
195848562,2162698,2162698,1114122,0,0,0.21062464,0.21062467,0.0,0.0,2162698,2162698,2228234,0,0,0.002408759,0.0024087592,0.0,0.0,1,1,0,0,1,1,0,0
196048728,2162698,2162698,1114122,0,0,0.17553587,0.17553599,0.0,0.0,2162698,2162698,2228234,0,0,0.0017216298,0.0017216296,0.0,0.0,1,1,0,0,1,1,0,0
196248779,2162698,2162698,1114122,0,0,0.1839225,0.18392248,0.0,0.0,2162698,2162698,2228234,0,0,0.002271943,0.002271943,0.0,0.0,1,1,0,0,1,1,0,0
196448856,2162698,2162698,1114122,0,0,0.21621878,0.21621871,0.0,0.0,2162698,2162698,2228234,0,0,0.002156811,0.002156811,0.0,0.0,1,1,0,0,1,1,0,0
196643945,2162698,2162698,1114122,0,0,0.16253428,0.16253422,0.0,0.0,2162698,2162698,2228234,0,0,0.0028490103,0.0028490103,0.0,0.0,1,1,0,0,1,1,0,0
196844130,2162698,2162698,1114122,0,0,0.19312494,0.19312485,0.0,0.0,2162698,2162698,2228234,0,0,0.0018511921,0.0018511922,0.0,0.0,1,1,0,0,1,1,0,0
197044178,2162698,2162698,1114122,0,0,0.17599818,0.17599817,0.0,0.0,2162698,2162698,2228234,0,0,0.0033445265,0.0033445263,0.0,0.0,1,1,0,0,1,1,0,0
197249231,2162698,2162698,1114122,0,0,0.18803614,0.18803619,0.0,0.0,2162698,2162698,2228234,0,0,0.0030573087,0.0030573087,0.0,0.0,1,1,0,0,1,1,0,0
197449380,2162698,2162698,1114122,0,0,0.19956137,0.19956142,0.0,0.0,2162698,2162698,2228234,0,0,0.0025565277,0.002556528,0.0,0.0,1,1,0,0,1,1,0,0
197649483,2162698,2162698,1114122,0,0,0.18910348,0.1891035,0.0,0.0,2162698,2162698,2228234,0,0,0.002140945,0.002140945,0.0,0.0,1,1,0,0,1,1,0,0
197844535,2162698,2162698,1114122,0,0,0.19067748,0.1906773,0.0,0.0,2162698,2162698,2228234,0,0,0.0020413832,0.0020413832,0.0,0.0,1,1,0,0,1,1,0,0
198044666,2162698,2162698,1114122,0,0,0.183403,0.18340282,0.0,0.0,2162698,2162698,2228234,0,0,0.0020066896,0.0020066898,0.0,0.0,1,1,0,0,1,1,0,0
198244873,2162698,2162698,1114122,0,0,0.17577416,0.17577419,0.0,0.0,2162698,2162698,2228234,0,0,0.002197135,0.002197135,0.0,0.0,1,1,0,0,1,1,0,0
198444921,2162698,2162698,1114122,0,0,0.19181971,0.19181974,0.0,0.0,2162698,2162698,2228234,0,0,0.0030245876,0.0030245876,0.0,0.0,1,1,0,0,1,1,0,0
198649899,2162698,2162698,1114122,0,0,0.18862334,0.18862322,0.0,0.0,2162698,2162698,2228234,0,0,0.0016683157,0.0016683154,0.0,0.0,1,1,0,0,1,1,0,0
198849990,2162698,2162698,1114122,0,0,0.20597243,0.20597243,0.0,0.0,2162698,2162698,2228234,0,0,0.0031454829,0.0031454829,0.0,0.0,1,1,0,0,1,1,0,0
199045164,2162698,2162698,1114122,0,0,0.19865726,0.19865726,0.0,0.0,2162698,2162698,2228234,0,0,0.002061261,0.002061261,0.0,0.0,1,1,0,0,1,1,0,0
199245269,2162698,2162698,1114122,0,0,0.16770785,0.16770789,0.0,0.0,2162698,2162698,2228234,0,0,0.0025390007,0.0025390002,0.0,0.0,1,1,0,0,1,1,0,0
199445284,2162698,2162698,1114122,0,0,0.1970362,0.1970362,0.0,0.0,2162698,2162698,2228234,0,0,0.0027118453,0.002711845,0.0,0.0,1,1,0,0,1,1,0,0
199645568,2162698,2162698,1114122,0,0,0.20398097,0.20398098,0.0,0.0,2162698,2162698,2228234,0,0,0.0030047384,0.0030047384,0.0,0.0,1,1,0,0,1,1,0,0
199845525,2162698,2162698,1114122,0,0,0.18141094,0.18141101,0.0,0.0,2162698,2162698,2228234,0,0,0.0038717932,0.0038717932,0.0,0.0,1,1,0,0,1,1,0,0
200045607,2162698,2162698,1114122,0,0,0.22107723,0.22107704,0.0,0.0,2162698,2162698,2228234,0,0,0.0022587115,0.0022587117,0.0,0.0,1,1,0,0,1,1,0,0
200245660,2162698,2162698,1114122,0,0,0.18690555,0.18690547,0.0,0.0,2162698,2162698,2228234,0,0,0.0017267744,0.0017267745,0.0,0.0,1,1,0,0,1,1,0,0
200445796,2162698,2162698,1114122,0,0,0.19589254,0.19589263,0.0,0.0,2162698,2162698,2228234,0,0,0.0026850838,0.0026850835,0.0,0.0,1,1,0,0,1,1,0,0
200645849,2162698,2162698,1114122,0,0,0.20160404,0.20160407,0.0,0.0,2162698,2162698,2228234,0,0,0.0025388803,0.0025388806,0.0,0.0,1,1,0,0,1,1,0,0
200845958,2162698,2162698,1114122,0,0,0.18558832,0.18558826,0.0,0.0,2162698,2162698,2228234,0,0,0.0021511244,0.0021511249,0.0,0.0,1,1,0,0,1,1,0,0
201046203,2162698,2162698,1114122,0,0,0.1700416,0.17004153,0.0,0.0,2162698,2162698,2228234,0,0,0.0030568873,0.0030568873,0.0,0.0,1,1,0,0,1,1,0,0
201246145,2162698,2162698,1114122,0,0,0.18574478,0.18574496,0.0,0.0,2162698,2162698,2228234,0,0,0.0023608545,0.0023608543,0.0,0.0,1,1,0,0,1,1,0,0
201446262,2162698,2162698,1114122,0,0,0.16969776,0.16969779,0.0,0.0,2162698,2162698,2228234,0,0,0.0022279604,0.0022279602,0.0,0.0,1,1,0,0,1,1,0,0
201646363,2162698,2162698,1114122,0,0,0.1769186,0.17691854,0.0,0.0,2162698,2162698,2228234,0,0,0.0019890773,0.0019890768,0.0,0.0,1,1,0,0,1,1,0,0
201846441,2162698,2162698,1114122,0,0,0.1786201,0.17862009,0.0,0.0,2162698,2162698,2228234,0,0,0.002813056,0.0028130566,0.0,0.0,1,1,0,0,1,1,0,0
202046536,2162698,2162698,1114122,0,0,0.18040298,0.18040296,0.0,0.0,2162698,2162698,2228234,0,0,0.0030061635,0.0030061638,0.0,0.0,1,1,0,0,1,1,0,0
202246652,2162698,2162698,1114122,0,0,0.16552728,0.16552724,0.0,0.0,2162698,2162698,2228234,0,0,0.0033971786,0.0033971788,0.0,0.0,1,1,0,0,1,1,0,0
202446843,2162698,2162698,1114122,0,0,0.19872919,0.19872902,0.0,0.0,2162698,2162698,2228234,0,0,0.0018286785,0.001828678,0.0,0.0,1,1,0,0,1,1,0,0
202646803,2162698,2162698,1114122,0,0,0.18517642,0.1851765,0.0,0.0,2162698,2162698,2228234,0,0,0.002151678,0.0021516783,0.0,0.0,1,1,0,0,1,1,0,0
202846942,2162698,2162698,1114122,0,0,0.1807978,0.18079782,0.0,0.0,2162698,2162698,2228234,0,0,0.0020826277,0.0020826277,0.0,0.0,1,1,0,0,1,1,0,0
203047015,2162698,2162698,1114122,0,0,0.18958476,0.1895847,0.0,0.0,2162698,2162698,2228234,0,0,0.0020378465,0.0020378467,0.0,0.0,1,1,0,0,1,1,0,0
203247182,2162698,2162698,1114122,0,0,0.17387514,0.17387521,0.0,0.0,2162698,2162698,2228234,0,0,0.0029597043,0.0029597036,0.0,0.0,1,1,0,0,1,1,0,0
203447272,2162698,2162698,1114122,0,0,0.16999163,0.16999167,0.0,0.0,2162698,2162698,2228234,0,0,0.004253593,0.004253592,0.0,0.0,1,1,0,0,1,1,0,0
203647331,2162698,2162698,1114122,0,0,0.17047323,0.17047328,0.0,0.0,2162698,2162698,2228234,0,0,0.003443419,0.0034434197,0.0,0.0,1,1,0,0,1,1,0,0
203847603,2162698,2162698,1114122,0,0,0.18407337,0.1840735,0.0,0.0,2162698,2162698,2228234,0,0,0.001542714,0.0015427141,0.0,0.0,1,1,0,0,1,1,0,0
204047488,2162698,2162698,1114122,0,0,0.17543943,0.17543963,0.0,0.0,2162698,2162698,2228234,0,0,0.0023442418,0.0023442418,0.0,0.0,1,1,0,0,1,1,0,0
204247719,2162698,2162698,1114122,0,0,0.19827269,0.19827297,0.0,0.0,2162698,2162698,2228234,0,0,0.0020499888,0.0020499888,0.0,0.0,1,1,0,0,1,1,0,0
204447759,2162698,2162698,1114122,0,0,0.19543138,0.19543158,0.0,0.0,2162698,2162698,2228234,0,0,0.0011239871,0.0011239874,0.0,0.0,1,1,0,0,1,1,0,0
204647797,2162698,2162698,1114122,0,0,0.1717855,0.17178552,0.0,0.0,2162698,2162698,2228234,0,0,0.002584266,0.0025842665,0.0,0.0,1,1,0,0,1,1,0,0
204847876,2162698,2162698,1114122,0,0,0.20098253,0.2009825,0.0,0.0,2162698,2162698,2228234,0,0,0.0023975999,0.0023976,0.0,0.0,1,1,0,0,1,1,0,0
205048010,2162698,2162698,1114122,0,0,0.18769886,0.1876989,0.0,0.0,2162698,2162698,2228234,0,0,0.0027045785,0.0027045787,0.0,0.0,1,1,0,0,1,1,0,0
205243127,2162698,2162698,1114122,0,0,0.17554948,0.17554948,0.0,0.0,2162698,2162698,2228234,0,0,0.0022865634,0.0022865634,0.0,0.0,1,1,0,0,1,1,0,0
205443180,2162698,2162698,1114122,0,0,0.17804639,0.17804624,0.0,0.0,2162698,2162698,2228234,0,0,0.001661315,0.0016613152,0.0,0.0,1,1,0,0,1,1,0,0
205648391,2162698,2162698,1114122,0,0,0.19979504,0.19979505,0.0,0.0,2162698,2162698,2228234,0,0,0.003218105,0.0032181053,0.0,0.0,1,1,0,0,1,1,0,0
205848356,2162698,2162698,1114122,0,0,0.17370431,0.17370431,0.0,0.0,2162698,2162698,2228234,0,0,0.002313364,0.002313364,0.0,0.0,1,1,0,0,1,1,0,0
206048491,2162698,2162698,1114122,0,0,0.15506,0.15506002,0.0,0.0,2162698,2162698,2228234,0,0,0.0026567795,0.0026567795,0.0,0.0,1,1,0,0,1,1,0,0
206248583,2162698,2162698,1114122,0,0,0.18706217,0.18706235,0.0,0.0,2162698,2162698,2228234,0,0,0.0019396452,0.0019396449,0.0,0.0,1,1,0,0,1,1,0,0
206443696,2162698,2162698,1114122,0,0,0.19055836,0.19055822,0.0,0.0,2162698,2162698,2228234,0,0,0.002899474,0.002899474,0.0,0.0,1,1,0,0,1,1,0,0
206643811,2162698,2162698,1114122,0,0,0.17034443,0.17034444,0.0,0.0,2162698,2162698,2228234,0,0,0.0030653628,0.003065363,0.0,0.0,1,1,0,0,1,1,0,0
206843886,2162698,2162698,1114122,0,0,0.1787928,0.17879276,0.0,0.0,2162698,2162698,2228234,0,0,0.0022876256,0.0022876253,0.0,0.0,1,1,0,0,1,1,0,0
207048986,2162698,2162698,1114122,0,0,0.17408912,0.17408912,0.0,0.0,2162698,2162698,2228234,0,0,0.0021932959,0.0021932959,0.0,0.0,1,1,0,0,1,1,0,0
207249031,2162698,2162698,1114122,0,0,0.17957568,0.17957571,0.0,0.0,2162698,2162698,2228234,0,0,0.0028555205,0.0028555205,0.0,0.0,1,1,0,0,1,1,0,0
207449148,2162698,2162698,1114122,0,0,0.182118,0.18211795,0.0,0.0,2162698,2162698,2228234,0,0,0.0029841796,0.0029841799,0.0,0.0,1,1,0,0,1,1,0,0
207644352,2162698,2162698,1114122,0,0,0.19092767,0.19092773,0.0,0.0,2162698,2162698,2228234,0,0,0.003483693,0.0034836924,0.0,0.0,1,1,0,0,1,1,0,0
207844359,2162698,2162698,1114122,0,0,0.19038142,0.19038151,0.0,0.0,2162698,2162698,2228234,0,0,0.0028100533,0.0028100533,0.0,0.0,1,1,0,0,1,1,0,0
208044516,2162698,2162698,1114122,0,0,0.18045236,0.18045244,0.0,0.0,2162698,2162698,2228234,0,0,0.0021160434,0.0021160431,0.0,0.0,1,1,0,0,1,1,0,0
208244527,2162698,2162698,1114122,0,0,0.21091779,0.21091777,0.0,0.0,2162698,2162698,2228234,0,0,0.0023930883,0.0023930878,0.0,0.0,1,1,0,0,1,1,0,0
208449664,2162698,2162698,1114122,0,0,0.17419267,0.17419252,0.0,0.0,2162698,2162698,2228234,0,0,0.0032518336,0.0032518331,0.0,0.0,1,1,0,0,1,1,0,0
208649724,2162698,2162698,1114122,0,0,0.17920229,0.17920223,0.0,0.0,2162698,2162698,2228234,0,0,0.0026400588,0.002640059,0.0,0.0,1,1,0,0,1,1,0,0
208844804,2162698,2162698,1114122,0,0,0.21179876,0.21179861,0.0,0.0,2162698,2162698,2228234,0,0,0.0022933616,0.0022933614,0.0,0.0,1,1,0,0,1,1,0,0
209044899,2162698,2162698,1114122,0,0,0.1733099,0.1733099,0.0,0.0,2162698,2162698,2228234,0,0,0.0034908147,0.0034908147,0.0,0.0,1,1,0,0,1,1,0,0
209245026,2162698,2162698,1114122,0,0,0.15441968,0.15441959,0.0,0.0,2162698,2162698,2228234,0,0,0.0030853448,0.003085344,0.0,0.0,1,1,0,0,1,1,0,0
209445189,2162698,2162698,1114122,0,0,0.15071718,0.15071699,0.0,0.0,2162698,2162698,2228234,0,0,0.0025892654,0.0025892651,0.0,0.0,1,1,0,0,1,1,0,0
209645223,2162698,2162698,1114122,0,0,0.17662042,0.17662042,0.0,0.0,2162698,2162698,2228234,0,0,0.003020522,0.003020522,0.0,0.0,1,1,0,0,1,1,0,0
209850296,2162698,2162698,1114122,0,0,0.18539906,0.18539923,0.0,0.0,2162698,2162698,2228234,0,0,0.0036451411,0.0036451414,0.0,0.0,1,1,0,0,1,1,0,0
210045389,2162698,2162698,1114122,0,0,0.1778802,0.17788011,0.0,0.0,2162698,2162698,2228234,0,0,0.0036394177,0.0036394175,0.0,0.0,1,1,0,0,1,1,0,0
210245493,2162698,2162698,1114122,0,0,0.17169364,0.17169371,0.0,0.0,2162698,2162698,2228234,0,0,0.00475248,0.0047524795,0.0,0.0,1,1,0,0,1,1,0,0
210445584,2162698,2162698,1114122,0,0,0.19981527,0.19981523,0.0,0.0,2162698,2162698,2228234,0,0,0.0055167647,0.0055167642,0.0,0.0,1,1,0,0,1,1,0,0
210645731,2162698,2162698,1114122,0,0,0.18024158,0.18024154,0.0,0.0,2162698,2162698,2228234,0,0,0.003136756,0.003136755,0.0,0.0,1,1,0,0,1,1,0,0
210845881,2162698,2162698,1114122,0,0,0.18309724,0.1830974,0.0,0.0,2162698,2162698,2228234,0,0,0.0030491543,0.0030491545,0.0,0.0,1,1,0,0,1,1,0,0
211045872,2162698,2162698,1114122,0,0,0.18787791,0.18787803,0.0,0.0,2162698,2162698,2228234,0,0,0.003644529,0.0036445297,0.0,0.0,1,1,0,0,1,1,0,0
211246046,2162698,2162698,1114122,0,0,0.18579963,0.18579952,0.0,0.0,2162698,2162698,2228234,0,0,0.0028717082,0.0028717082,0.0,0.0,1,1,0,0,1,1,0,0
211446051,2162698,2162698,1114122,0,0,0.17553276,0.17553288,0.0,0.0,2162698,2162698,2228234,0,0,0.0031825693,0.0031825693,0.0,0.0,1,1,0,0,1,1,0,0
211646246,2162698,2162698,1114122,0,0,0.17472002,0.17472,0.0,0.0,2162698,2162698,2228234,0,0,0.002989792,0.002989792,0.0,0.0,1,1,0,0,1,1,0,0
211846329,2162698,2162698,1114122,0,0,0.20364203,0.20364207,0.0,0.0,2162698,2162698,2228234,0,0,0.0030569744,0.0030569744,0.0,0.0,1,1,0,0,1,1,0,0
212046448,2162698,2162698,1114122,0,0,0.18279676,0.18279672,0.0,0.0,2162698,2162698,2228234,0,0,0.002816822,0.002816822,0.0,0.0,1,1,0,0,1,1,0,0
212246570,2162698,2162698,1114122,0,0,0.18599518,0.18599513,0.0,0.0,2162698,2162698,2228234,0,0,0.0040883217,0.0040883212,0.0,0.0,1,1,0,0,1,1,0,0
212446630,2162698,2162698,1114122,0,0,0.17710763,0.17710765,0.0,0.0,2162698,2162698,2228234,0,0,0.00454859,0.0045485897,0.0,0.0,1,1,0,0,1,1,0,0
212646765,2162698,2162698,1114122,0,0,0.18897273,0.18897273,0.0,0.0,2162698,2162698,2228234,0,0,0.0033506486,0.0033506483,0.0,0.0,1,1,0,0,1,1,0,0
212846900,2162698,2162698,1114122,0,0,0.16081971,0.1608196,0.0,0.0,2162698,2162698,2228234,0,0,0.003618022,0.0036180224,0.0,0.0,1,1,0,0,1,1,0,0
213046865,2162698,2162698,1114122,0,0,0.17489044,0.17489043,0.0,0.0,2162698,2162698,2228234,0,0,0.0021217628,0.0021217621,0.0,0.0,1,1,0,0,1,1,0,0
213246925,2162698,2162698,1114122,0,0,0.18241532,0.18241502,0.0,0.0,2162698,2162698,2228234,0,0,0.0027697817,0.0027697815,0.0,0.0,1,1,0,0,1,1,0,0
213447082,2162698,2162698,1114122,0,0,0.20575565,0.20575565,0.0,0.0,2162698,2162698,2228234,0,0,0.002719709,0.0027197092,0.0,0.0,1,1,0,0,1,1,0,0
213647231,2162698,2162698,1114122,0,0,0.2018528,0.20185284,0.0,0.0,2162698,2162698,2228234,0,0,0.0028331939,0.002833194,0.0,0.0,1,1,0,0,1,1,0,0
213847258,2162698,2162698,1114122,0,0,0.18535121,0.18535122,0.0,0.0,2162698,2162698,2228234,0,0,0.0029796844,0.0029796844,0.0,0.0,1,1,0,0,1,1,0,0
214047339,2162698,2162698,1114122,0,0,0.19054614,0.19054617,0.0,0.0,2162698,2162698,2228234,0,0,0.0029578647,0.0029578647,0.0,0.0,1,1,0,0,1,1,0,0
214247449,2162698,2162698,1114122,0,0,0.18168408,0.18168409,0.0,0.0,2162698,2162698,2228234,0,0,0.0030812973,0.003081297,0.0,0.0,1,1,0,0,1,1,0,0
214447551,2162698,2162698,1114122,0,0,0.19920807,0.19920787,0.0,0.0,2162698,2162698,2228234,0,0,0.003005336,0.0030053363,0.0,0.0,1,1,0,0,1,1,0,0
214647645,2162698,2162698,1114122,0,0,0.19385561,0.19385578,0.0,0.0,2162698,2162698,2228234,0,0,0.003049202,0.003049202,0.0,0.0,1,1,0,0,1,1,0,0
214847769,2162698,2162698,1114122,0,0,0.18416937,0.18416947,0.0,0.0,2162698,2162698,2228234,0,0,0.0032217735,0.0032217733,0.0,0.0,1,1,0,0,1,1,0,0
215047912,2162698,2162698,1114122,0,0,0.1714628,0.17146279,0.0,0.0,2162698,2162698,2228234,0,0,0.0036464813,0.0036464813,0.0,0.0,1,1,0,0,1,1,0,0
215242905,2162698,2162698,1114122,0,0,0.18867603,0.18867615,0.0,0.0,2162698,2162698,2228234,0,0,0.0030697875,0.003069787,0.0,0.0,1,1,0,0,1,1,0,0
215448025,2162698,2162698,1114122,0,0,0.1583937,0.15839371,0.0,0.0,2162698,2162698,2228234,0,0,0.0027906743,0.0027906743,0.0,0.0,1,1,0,0,1,1,0,0
215648162,2162698,2162698,1114122,0,0,0.16819718,0.16819732,0.0,0.0,2162698,2162698,2228234,0,0,0.0018695652,0.0018695656,0.0,0.0,1,1,0,0,1,1,0,0
215848219,2162698,2162698,1114122,0,0,0.16108015,0.1610803,0.0,0.0,2162698,2162698,2228234,0,0,0.0038877723,0.0038877726,0.0,0.0,1,1,0,0,1,1,0,0
216048309,2162698,2162698,1114122,0,0,0.20451646,0.20451644,0.0,0.0,2162698,2162698,2228234,0,0,0.0043399767,0.0043399762,0.0,0.0,1,1,0,0,1,1,0,0
216248510,2162698,2162698,1114122,0,0,0.18855788,0.18855777,0.0,0.0,2162698,2162698,2228234,0,0,0.0037241597,0.0037241597,0.0,0.0,1,1,0,0,1,1,0,0
216443585,2162698,2162698,1114122,0,0,0.19841537,0.19841538,0.0,0.0,2162698,2162698,2228234,0,0,0.003217515,0.0032175146,0.0,0.0,1,1,0,0,1,1,0,0
216643619,2162698,2162698,1114122,0,0,0.197504,0.19750394,0.0,0.0,2162698,2162698,2228234,0,0,0.0024475898,0.00244759,0.0,0.0,1,1,0,0,1,1,0,0
216848721,2162698,2162698,1114122,0,0,0.19810133,0.19810133,0.0,0.0,2162698,2162698,2228234,0,0,0.0040573543,0.0040573543,0.0,0.0,1,1,0,0,1,1,0,0
217048853,2162698,2162698,1114122,0,0,0.17146185,0.17146163,0.0,0.0,2162698,2162698,2228234,0,0,0.0028626095,0.0028626095,0.0,0.0,1,1,0,0,1,1,0,0
217248904,2162698,2162698,1114122,0,0,0.17048657,0.1704865,0.0,0.0,2162698,2162698,2228234,0,0,0.0028395716,0.002839572,0.0,0.0,1,1,0,0,1,1,0,0
217449000,2162698,2162698,1114122,0,0,0.17530115,0.1753012,0.0,0.0,2162698,2162698,2228234,0,0,0.0027144777,0.0027144777,0.0,0.0,1,1,0,0,1,1,0,0
217644138,2162698,2162698,1114122,0,0,0.15948799,0.15948814,0.0,0.0,2162698,2162698,2228234,0,0,0.0042466754,0.004246675,0.0,0.0,1,1,0,0,1,1,0,0
217844254,2162698,2162698,1114122,0,0,0.17125213,0.17125213,0.0,0.0,2162698,2162698,2228234,0,0,0.00439395,0.0043939496,0.0,0.0,1,1,0,0,1,1,0,0
218044270,2162698,2162698,1114122,0,0,0.15944672,0.15944664,0.0,0.0,2162698,2162698,2228234,0,0,0.0033444006,0.0033444003,0.0,0.0,1,1,0,0,1,1,0,0
218244387,2162698,2162698,1114122,0,0,0.19154665,0.19154644,0.0,0.0,2162698,2162698,2228234,0,0,0.003452798,0.003452798,0.0,0.0,1,1,0,0,1,1,0,0
218449517,2162698,2162698,1114122,0,0,0.19699113,0.1969911,0.0,0.0,2162698,2162698,2228234,0,0,0.0029881035,0.002988104,0.0,0.0,1,1,0,0,1,1,0,0
218644583,2162698,2162698,1114122,0,0,0.20917808,0.20917808,0.0,0.0,2162698,2162698,2228234,0,0,0.0045317626,0.004531762,0.0,0.0,1,1,0,0,1,1,0,0
218844759,2162698,2162698,1114122,0,0,0.15608902,0.15608892,0.0,0.0,2162698,2162698,2228234,0,0,0.0029622465,0.0029622463,0.0,0.0,1,1,0,0,1,1,0,0
219044812,2162698,2162698,1114122,0,0,0.18165196,0.18165205,0.0,0.0,2162698,2162698,2228234,0,0,0.0035145124,0.0035145122,0.0,0.0,1,1,0,0,1,1,0,0
219244930,2162698,2162698,1114122,0,0,0.16733505,0.167335,0.0,0.0,2162698,2162698,2228234,0,0,0.004638883,0.0046388838,0.0,0.0,1,1,0,0,1,1,0,0
219445050,2162698,2162698,1114122,0,0,0.18218522,0.18218507,0.0,0.0,2162698,2162698,2228234,0,0,0.004347629,0.004347629,0.0,0.0,1,1,0,0,1,1,0,0
219650102,2162698,2162698,1114122,0,0,0.19119969,0.19119969,0.0,0.0,2162698,2162698,2228234,0,0,0.0037111235,0.0037111235,0.0,0.0,1,1,0,0,1,1,0,0
219845161,2162698,2162698,1114122,0,0,0.20256059,0.20256053,0.0,0.0,2162698,2162698,2228234,0,0,0.0039782496,0.00397825,0.0,0.0,1,1,0,0,1,1,0,0
220045268,2162698,2162698,1114122,0,0,0.1904778,0.19047774,0.0,0.0,2162698,2162698,2228234,0,0,0.0031409536,0.0031409536,0.0,0.0,1,1,0,0,1,1,0,0
220245434,2162698,2162698,1114122,0,0,0.17642191,0.17642203,0.0,0.0,2162698,2162698,2228234,0,0,0.0039284606,0.0039284606,0.0,0.0,1,1,0,0,1,1,0,0
220445512,2162698,2162698,1114122,0,0,0.20532358,0.20532359,0.0,0.0,2162698,2162698,2228234,0,0,0.0028485341,0.0028485337,0.0,0.0,1,1,0,0,1,1,0,0
220645626,2162698,2162698,1114122,0,0,0.17702988,0.17702983,0.0,0.0,2162698,2162698,2228234,0,0,0.0031904392,0.0031904392,0.0,0.0,1,1,0,0,1,1,0,0
220845661,2162698,2162698,1114122,0,0,0.19119331,0.19119334,0.0,0.0,2162698,2162698,2228234,0,0,0.0035120482,0.0035120482,0.0,0.0,1,1,0,0,1,1,0,0
221045760,2162698,2162698,1114122,0,0,0.18981229,0.1898123,0.0,0.0,2162698,2162698,2228234,0,0,0.0033147603,0.0033147603,0.0,0.0,1,1,0,0,1,1,0,0
221245872,2162698,2162698,1114122,0,0,0.19036967,0.1903697,0.0,0.0,2162698,2162698,2228234,0,0,0.0054689664,0.0054689664,0.0,0.0,1,1,0,0,1,1,0,0
221445948,2162698,2162698,1114122,0,0,0.17047203,0.17047194,0.0,0.0,2162698,2162698,2228234,0,0,0.002465892,0.0024658917,0.0,0.0,1,1,0,0,1,1,0,0
221646148,2162698,2162698,1114122,0,0,0.19305111,0.19305113,0.0,0.0,2162698,2162698,2228234,0,0,0.0049485997,0.0049485993,0.0,0.0,1,1,0,0,1,1,0,0
221846192,2162698,2162698,1114122,0,0,0.20020741,0.20020741,0.0,0.0,2162698,2162698,2228234,0,0,0.0030249632,0.0030249632,0.0,0.0,1,1,0,0,1,1,0,0
222046298,2162698,2162698,1114122,0,0,0.14489211,0.144892,0.0,0.0,2162698,2162698,2228234,0,0,0.0028782142,0.0028782142,0.0,0.0,1,1,0,0,1,1,0,0
222246332,2162698,2162698,1114122,0,0,0.18232584,0.18232599,0.0,0.0,2162698,2162698,2228234,0,0,0.0027856578,0.0027856578,0.0,0.0,1,1,0,0,1,1,0,0
222446460,2162698,2162698,1114122,0,0,0.15884425,0.15884416,0.0,0.0,2162698,2162698,2228234,0,0,0.0026938103,0.0026938103,0.0,0.0,1,1,0,0,1,1,0,0
222646721,2162698,2162698,1114122,0,0,0.17878278,0.17878273,0.0,0.0,2162698,2162698,2228234,0,0,0.0036828823,0.0036828823,0.0,0.0,1,1,0,0,1,1,0,0
222846729,2162698,2162698,1114122,0,0,0.20121032,0.2012104,0.0,0.0,2162698,2162698,2228234,0,0,0.0026703484,0.0026703486,0.0,0.0,1,1,0,0,1,1,0,0
223046930,2162698,2162698,1114122,0,0,0.18270482,0.18270506,0.0,0.0,2162698,2162698,2228234,0,0,0.0046149874,0.0046149874,0.0,0.0,1,1,0,0,1,1,0,0
223246871,2162698,2162698,1114122,0,0,0.1785133,0.17851354,0.0,0.0,2162698,2162698,2228234,0,0,0.0033493391,0.003349339,0.0,0.0,1,1,0,0,1,1,0,0
223446981,2162698,2162698,1114122,0,0,0.16956393,0.16956396,0.0,0.0,2162698,2162698,2228234,0,0,0.003841056,0.003841056,0.0,0.0,1,1,0,0,1,1,0,0
223647028,2162698,2162698,1114122,0,0,0.19624627,0.19624618,0.0,0.0,2162698,2162698,2228234,0,0,0.0033831403,0.0033831403,0.0,0.0,1,1,0,0,1,1,0,0
223847133,2162698,2162698,1114122,0,0,0.19120112,0.19120105,0.0,0.0,2162698,2162698,2228234,0,0,0.002281051,0.0022810507,0.0,0.0,1,1,0,0,1,1,0,0
224047232,2162698,2162698,1114122,0,0,0.2041848,0.20418483,0.0,0.0,2162698,2162698,2228234,0,0,0.003150677,0.0031506768,0.0,0.0,1,1,0,0,1,1,0,0
224247330,2162698,2162698,1114122,0,0,0.21208227,0.21208227,0.0,0.0,2162698,2162698,2228234,0,0,0.0031690353,0.0031690348,0.0,0.0,1,1,0,0,1,1,0,0
224447517,2162698,2162698,1114122,0,0,0.21252108,0.21252097,0.0,0.0,2162698,2162698,2228234,0,0,0.00380875,0.0038087498,0.0,0.0,1,1,0,0,1,1,0,0
224647580,2162698,2162698,1114122,0,0,0.1853347,0.18533477,0.0,0.0,2162698,2162698,2228234,0,0,0.0044269096,0.004426909,0.0,0.0,1,1,0,0,1,1,0,0
224847779,2162698,2162698,1114122,0,0,0.16906376,0.16906357,0.0,0.0,2162698,2162698,2228234,0,0,0.0046545984,0.004654598,0.0,0.0,1,1,0,0,1,1,0,0
225042712,2162698,2162698,1114122,0,0,0.19924548,0.19924536,0.0,0.0,2162698,2162698,2228234,0,0,0.003668766,0.0036687662,0.0,0.0,1,1,0,0,1,1,0,0
225247796,2162698,2162698,1114122,0,0,0.16360502,0.16360497,0.0,0.0,2162698,2162698,2228234,0,0,0.012474106,0.012474107,0.0,0.0,1,1,0,0,1,1,0,0
225447910,2162698,2162698,1114122,0,0,0.14802553,0.14802562,0.0,0.0,2162698,2162698,2228234,0,0,0.0060255877,0.006025591,0.0,0.0,1,1,0,0,1,1,0,0
225648026,2162698,2162698,1114122,0,0,0.16671859,0.16671845,0.0,0.0,2162698,2162698,2228234,0,0,0.0035542508,0.0035542517,0.0,0.0,1,1,0,0,1,1,0,0
225848298,2162698,2162698,1114122,0,0,0.17083941,0.17083934,0.0,0.0,2162698,2162698,2228234,0,0,0.0026357935,0.002635794,0.0,0.0,1,1,0,0,1,1,0,0
226048269,2162698,2162698,1114122,0,0,0.16260296,0.16260312,0.0,0.0,2162698,2162698,2228234,0,0,0.0041514407,0.0041514407,0.0,0.0,1,1,0,0,1,1,0,0
226243386,2162698,2162698,1114122,0,0,0.16923249,0.16923243,0.0,0.0,2162698,2162698,2228234,0,0,0.0026619,0.0026619004,0.0,0.0,1,1,0,0,1,1,0,0
226443412,2162698,2162698,1114122,0,0,0.17832854,0.17832851,0.0,0.0,2162698,2162698,2228234,0,0,0.003400646,0.0034006464,0.0,0.0,1,1,0,0,1,1,0,0
226648519,2162698,2162698,1114122,0,0,0.17911741,0.17911746,0.0,0.0,2162698,2162698,2228234,0,0,0.0026793596,0.0026793596,0.0,0.0,1,1,0,0,1,1,0,0
226848608,2162698,2162698,1114122,0,0,0.1841582,0.18415831,0.0,0.0,2162698,2162698,2228234,0,0,0.0038340106,0.0038340113,0.0,0.0,1,1,0,0,1,1,0,0
227048721,2162698,2162698,1114122,0,0,0.18411279,0.18411277,0.0,0.0,2162698,2162698,2228234,0,0,0.0044645914,0.004464592,0.0,0.0,1,1,0,0,1,1,0,0
227248875,2162698,2162698,1114122,0,0,0.16366144,0.16366133,0.0,0.0,2162698,2162698,2228234,0,0,0.0041316454,0.0041316454,0.0,0.0,1,1,0,0,1,1,0,0
227443941,2162698,2162698,1114122,0,0,0.18765108,0.18765125,0.0,0.0,2162698,2162698,2228234,0,0,0.0029851587,0.0029851585,0.0,0.0,1,1,0,0,1,1,0,0
227644151,2162698,2162698,1114122,0,0,0.20840694,0.208407,0.0,0.0,2162698,2162698,2228234,0,0,0.0039387243,0.003938724,0.0,0.0,1,1,0,0,1,1,0,0
227844104,2162698,2162698,1114122,0,0,0.18669656,0.18669677,0.0,0.0,2162698,2162698,2228234,0,0,0.004175544,0.004175544,0.0,0.0,1,1,0,0,1,1,0,0
228049214,2162698,2162698,1114122,0,0,0.17840913,0.17840914,0.0,0.0,2162698,2162698,2228234,0,0,0.003261312,0.003261312,0.0,0.0,1,1,0,0,1,1,0,0
228249308,2162698,2162698,1114122,0,0,0.19353393,0.1935339,0.0,0.0,2162698,2162698,2228234,0,0,0.003849768,0.0038497685,0.0,0.0,1,1,0,0,1,1,0,0
228449426,2162698,2162698,1114122,0,0,0.1770733,0.17707334,0.0,0.0,2162698,2162698,2228234,0,0,0.00266239,0.00266239,0.0,0.0,1,1,0,0,1,1,0,0
228644590,2162698,2162698,1114122,0,0,0.15849546,0.15849535,0.0,0.0,2162698,2162698,2228234,0,0,0.004168316,0.0041683153,0.0,0.0,1,1,0,0,1,1,0,0
228844736,2162698,2162698,1114122,0,0,0.17342427,0.17342421,0.0,0.0,2162698,2162698,2228234,0,0,0.0032372165,0.0032372165,0.0,0.0,1,1,0,0,1,1,0,0
229044763,2162698,2162698,1114122,0,0,0.16800466,0.16800453,0.0,0.0,2162698,2162698,2228234,0,0,0.003044545,0.0030445452,0.0,0.0,1,1,0,0,1,1,0,0
229244794,2162698,2162698,1114122,0,0,0.1496097,0.1496096,0.0,0.0,2162698,2162698,2228234,0,0,0.0047458992,0.0047459,0.0,0.0,1,1,0,0,1,1,0,0
229449904,2162698,2162698,1114122,0,0,0.1541568,0.15415664,0.0,0.0,2162698,2162698,2228234,0,0,0.0036458191,0.0036458187,0.0,0.0,1,1,0,0,1,1,0,0
229645116,2162698,2162698,1114122,0,0,0.16561884,0.16561866,0.0,0.0,2162698,2162698,2228234,0,0,0.0039484794,0.00394848,0.0,0.0,1,1,0,0,1,1,0,0
229845181,2162698,2162698,1114122,0,0,0.161052,0.16105208,0.0,0.0,2162698,2162698,2228234,0,0,0.0027814999,0.0027814999,0.0,0.0,1,1,0,0,1,1,0,0
230045208,2162698,2162698,1114122,0,0,0.2002305,0.20023048,0.0,0.0,2162698,2162698,2228234,0,0,0.003106016,0.0031060157,0.0,0.0,1,1,0,0,1,1,0,0
230245356,2162698,2162698,1114122,0,0,0.17527299,0.17527287,0.0,0.0,2162698,2162698,2228234,0,0,0.0031207486,0.0031207488,0.0,0.0,1,1,0,0,1,1,0,0
230445446,2162698,2162698,1114122,0,0,0.1750262,0.17502607,0.0,0.0,2162698,2162698,2228234,0,0,0.0027945235,0.0027945233,0.0,0.0,1,1,0,0,1,1,0,0
230645504,2162698,2162698,1114122,0,0,0.19620678,0.19620675,0.0,0.0,2162698,2162698,2228234,0,0,0.0031169977,0.0031169984,0.0,0.0,1,1,0,0,1,1,0,0
230845601,2162698,2162698,1114122,0,0,0.1539136,0.15391363,0.0,0.0,2162698,2162698,2228234,0,0,0.0037342645,0.0037342645,0.0,0.0,1,1,0,0,1,1,0,0
231045736,2162698,2162698,1114122,0,0,0.17179525,0.17179531,0.0,0.0,2162698,2162698,2228234,0,0,0.0028318882,0.0028318884,0.0,0.0,1,1,0,0,1,1,0,0
231245798,2162698,2162698,1114122,0,0,0.1949815,0.19498159,0.0,0.0,2162698,2162698,2228234,0,0,0.0034473767,0.0034473767,0.0,0.0,1,1,0,0,1,1,0,0
231445890,2162698,2162698,1114122,0,0,0.1661537,0.16615382,0.0,0.0,2162698,2162698,2228234,0,0,0.0030715119,0.0030715119,0.0,0.0,1,1,0,0,1,1,0,0
231646060,2162698,2162698,1114122,0,0,0.15713239,0.15713237,0.0,0.0,2162698,2162698,2228234,0,0,0.006746213,0.006746213,0.0,0.0,1,1,0,0,1,1,0,0
231846130,2162698,2162698,1114122,0,0,0.16606063,0.16606072,0.0,0.0,2162698,2162698,2228234,0,0,0.004823754,0.0048237536,0.0,0.0,1,1,0,0,1,1,0,0
232046186,2162698,2162698,1114122,0,0,0.19159278,0.19159292,0.0,0.0,2162698,2162698,2228234,0,0,0.0027492803,0.0027492805,0.0,0.0,1,1,0,0,1,1,0,0
232246284,2162698,2162698,1114122,0,0,0.18979095,0.189791,0.0,0.0,2162698,2162698,2228234,0,0,0.002417104,0.0024171043,0.0,0.0,1,1,0,0,1,1,0,0
232446452,2162698,2162698,1114122,0,0,0.18848163,0.18848157,0.0,0.0,2162698,2162698,2228234,0,0,0.0037977095,0.0037977095,0.0,0.0,1,1,0,0,1,1,0,0
232646521,2162698,2162698,1114122,0,0,0.1703865,0.17038634,0.0,0.0,2162698,2162698,2228234,0,0,0.0038198836,0.0038198833,0.0,0.0,1,1,0,0,1,1,0,0
232846608,2162698,2162698,1114122,0,0,0.1622377,0.16223766,0.0,0.0,2162698,2162698,2228234,0,0,0.0050530867,0.0050530867,0.0,0.0,1,1,0,0,1,1,0,0
233046707,2162698,2162698,1114122,0,0,0.16325392,0.16325389,0.0,0.0,2162698,2162698,2228234,0,0,0.0027836591,0.0027836594,0.0,0.0,1,1,0,0,1,1,0,0
233246828,2162698,2162698,1114122,0,0,0.19201484,0.19201481,0.0,0.0,2162698,2162698,2228234,0,0,0.0047309175,0.0047309175,0.0,0.0,1,1,0,0,1,1,0,0
233446885,2162698,2162698,1114122,0,0,0.16713399,0.16713409,0.0,0.0,2162698,2162698,2228234,0,0,0.003303967,0.0033039667,0.0,0.0,1,1,0,0,1,1,0,0
233646996,2162698,2162698,1114122,0,0,0.1817197,0.18171972,0.0,0.0,2162698,2162698,2228234,0,0,0.0029127656,0.002912766,0.0,0.0,1,1,0,0,1,1,0,0
233847124,2162698,2162698,1114122,0,0,0.19137487,0.19137493,0.0,0.0,2162698,2162698,2228234,0,0,0.0031502976,0.0031502976,0.0,0.0,1,1,0,0,1,1,0,0
234047219,2162698,2162698,1114122,0,0,0.1819057,0.18190567,0.0,0.0,2162698,2162698,2228234,0,0,0.0034771203,0.0034771203,0.0,0.0,1,1,0,0,1,1,0,0
234247272,2162698,2162698,1114122,0,0,0.19017941,0.19017932,0.0,0.0,2162698,2162698,2228234,0,0,0.0035700705,0.0035700705,0.0,0.0,1,1,0,0,1,1,0,0
234447388,2162698,2162698,1114122,0,0,0.19940476,0.1994048,0.0,0.0,2162698,2162698,2228234,0,0,0.003967397,0.003967397,0.0,0.0,1,1,0,0,1,1,0,0
234647548,2162698,2162698,1114122,0,0,0.1838764,0.18387647,0.0,0.0,2162698,2162698,2228234,0,0,0.0027133632,0.0027133632,0.0,0.0,1,1,0,0,1,1,0,0
234842568,2162698,2162698,1114122,0,0,0.17632577,0.17632575,0.0,0.0,2162698,2162698,2228234,0,0,0.0026812267,0.0026812265,0.0,0.0,1,1,0,0,1,1,0,0
235047707,2162698,2162698,1114122,0,0,0.17172386,0.17172384,0.0,0.0,2162698,2162698,2228234,0,0,0.0031570736,0.0031570739,0.0,0.0,1,1,0,0,1,1,0,0
235247819,2162698,2162698,1114122,0,0,0.19520085,0.19520068,0.0,0.0,2162698,2162698,2228234,0,0,0.0030838125,0.003083813,0.0,0.0,1,1,0,0,1,1,0,0
235447901,2162698,2162698,1114122,0,0,0.18535101,0.18535104,0.0,0.0,2162698,2162698,2228234,0,0,0.005038036,0.005038035,0.0,0.0,1,1,0,0,1,1,0,0
235647994,2162698,2162698,1114122,0,0,0.18549947,0.1854994,0.0,0.0,2162698,2162698,2228234,0,0,0.0052760458,0.005276046,0.0,0.0,1,1,0,0,1,1,0,0
235848113,2162698,2162698,1114122,0,0,0.16216797,0.16216786,0.0,0.0,2162698,2162698,2228234,0,0,0.0030716048,0.0030716045,0.0,0.0,1,1,0,0,1,1,0,0
236043238,2162698,2162698,1114122,0,0,0.17548458,0.17548458,0.0,0.0,2162698,2162698,2228234,0,0,0.004722946,0.0047229454,0.0,0.0,1,1,0,0,1,1,0,0
236243340,2162698,2162698,1114122,0,0,0.19638826,0.19638833,0.0,0.0,2162698,2162698,2228234,0,0,0.0031174154,0.0031174158,0.0,0.0,1,1,0,0,1,1,0,0
236448379,2162698,2162698,1114122,0,0,0.18380241,0.18380256,0.0,0.0,2162698,2162698,2228234,0,0,0.0045213746,0.0045213746,0.0,0.0,1,1,0,0,1,1,0,0
236648561,2162698,2162698,1114122,0,0,0.17757627,0.17757635,0.0,0.0,2162698,2162698,2228234,0,0,0.0033993647,0.0033993649,0.0,0.0,1,1,0,0,1,1,0,0
236848592,2162698,2162698,1114122,0,0,0.17984872,0.17984854,0.0,0.0,2162698,2162698,2228234,0,0,0.0039423825,0.0039423825,0.0,0.0,1,1,0,0,1,1,0,0
237048727,2162698,2162698,1114122,0,0,0.17037022,0.17037037,0.0,0.0,2162698,2162698,2228234,0,0,0.0034974455,0.003497446,0.0,0.0,1,1,0,0,1,1,0,0
237243926,2162698,2162698,1114122,0,0,0.19355223,0.19355236,0.0,0.0,2162698,2162698,2228234,0,0,0.003640636,0.0036406359,0.0,0.0,1,1,0,0,1,1,0,0
237443998,2162698,2162698,1114122,0,0,0.15827371,0.15827385,0.0,0.0,2162698,2162698,2228234,0,0,0.0039588963,0.0039588967,0.0,0.0,1,1,0,0,1,1,0,0
237644032,2162698,2162698,1114122,0,0,0.18239957,0.18239962,0.0,0.0,2162698,2162698,2228234,0,0,0.0036686505,0.0036686505,0.0,0.0,1,1,0,0,1,1,0,0
237849076,2162698,2162698,1114122,0,0,0.16668478,0.16668476,0.0,0.0,2162698,2162698,2228234,0,0,0.00279468,0.00279468,0.0,0.0,1,1,0,0,1,1,0,0
238049230,2162698,2162698,1114122,0,0,0.16943847,0.1694383,0.0,0.0,2162698,2162698,2228234,0,0,0.003547805,0.003547805,0.0,0.0,1,1,0,0,1,1,0,0
238249285,2162698,2162698,1114122,0,0,0.18611258,0.18611261,0.0,0.0,2162698,2162698,2228234,0,0,0.0036876062,0.003687606,0.0,0.0,1,1,0,0,1,1,0,0
238444389,2162698,2162698,1114122,0,0,0.18667248,0.18667245,0.0,0.0,2162698,2162698,2228234,0,0,0.003387896,0.003387896,0.0,0.0,1,1,0,0,1,1,0,0
238644575,2162698,2162698,1114122,0,0,0.19939959,0.19939962,0.0,0.0,2162698,2162698,2228234,0,0,0.0036042777,0.003604278,0.0,0.0,1,1,0,0,1,1,0,0
238844676,2162698,2162698,1114122,0,0,0.18131493,0.18131484,0.0,0.0,2162698,2162698,2228234,0,0,0.0033960908,0.0033960906,0.0,0.0,1,1,0,0,1,1,0,0
239044839,2162698,2162698,1114122,0,0,0.17522076,0.1752207,0.0,0.0,2162698,2162698,2228234,0,0,0.0037575858,0.0037575858,0.0,0.0,1,1,0,0,1,1,0,0
239249790,2162698,2162698,1114122,0,0,0.20242122,0.20242132,0.0,0.0,2162698,2162698,2228234,0,0,0.0030548493,0.0030548493,0.0,0.0,1,1,0,0,1,1,0,0
239449934,2162698,2162698,1114122,0,0,0.17826487,0.17826492,0.0,0.0,2162698,2162698,2228234,0,0,0.0036795319,0.003679532,0.0,0.0,1,1,0,0,1,1,0,0
239644970,2162698,2162698,1114122,0,0,0.15523611,0.15523611,0.0,0.0,2162698,2162698,2228234,0,0,0.0044640894,0.0044640894,0.0,0.0,1,1,0,0,1,1,0,0
239845119,2162698,2162698,1114122,0,0,0.16975744,0.1697575,0.0,0.0,2162698,2162698,2228234,0,0,0.004406407,0.004406407,0.0,0.0,1,1,0,0,1,1,0,0
240045243,2162698,2162698,1114122,0,0,0.17411336,0.17411348,0.0,0.0,2162698,2162698,2228234,0,0,0.00338576,0.0033857601,0.0,0.0,1,1,0,0,1,1,0,0
240245321,2162698,2162698,1114122,0,0,0.16632718,0.16632712,0.0,0.0,2162698,2162698,2228234,0,0,0.0038435147,0.0038435147,0.0,0.0,1,1,0,0,1,1,0,0
240445449,2162698,2162698,1114122,0,0,0.1695746,0.16957459,0.0,0.0,2162698,2162698,2228234,0,0,0.0036611944,0.0036611946,0.0,0.0,1,1,0,0,1,1,0,0
240645501,2162698,2162698,1114122,0,0,0.15625001,0.15625012,0.0,0.0,2162698,2162698,2228234,0,0,0.0045714923,0.0045714923,0.0,0.0,1,1,0,0,1,1,0,0
240845607,2162698,2162698,1114122,0,0,0.1745155,0.17451538,0.0,0.0,2162698,2162698,2228234,0,0,0.0031887912,0.0031887912,0.0,0.0,1,1,0,0,1,1,0,0
241045693,2162698,2162698,1114122,0,0,0.18827066,0.1882709,0.0,0.0,2162698,2162698,2228234,0,0,0.003189534,0.0031895337,0.0,0.0,1,1,0,0,1,1,0,0
241245830,2162698,2162698,1114122,0,0,0.18077204,0.18077198,0.0,0.0,2162698,2162698,2228234,0,0,0.004178874,0.004178874,0.0,0.0,1,1,0,0,1,1,0,0
241445947,2162698,2162698,1114122,0,0,0.19185533,0.19185531,0.0,0.0,2162698,2162698,2228234,0,0,0.0032140692,0.0032140692,0.0,0.0,1,1,0,0,1,1,0,0
241646016,2162698,2162698,1114122,0,0,0.18215702,0.18215714,0.0,0.0,2162698,2162698,2228234,0,0,0.0030173457,0.0030173457,0.0,0.0,1,1,0,0,1,1,0,0
241846137,2162698,2162698,1114122,0,0,0.19509184,0.19509186,0.0,0.0,2162698,2162698,2228234,0,0,0.0033386208,0.0033386208,0.0,0.0,1,1,0,0,1,1,0,0
242046194,2162698,2162698,1114122,0,0,0.14852558,0.14852585,0.0,0.0,2162698,2162698,2228234,0,0,0.0032898418,0.0032898418,0.0,0.0,1,1,0,0,1,1,0,0
242246304,2162698,2162698,1114122,0,0,0.16829582,0.1682959,0.0,0.0,2162698,2162698,2228234,0,0,0.0038063366,0.003806336,0.0,0.0,1,1,0,0,1,1,0,0
242446468,2162698,2162698,1114122,0,0,0.17252359,0.1725236,0.0,0.0,2162698,2162698,2228234,0,0,0.004271101,0.0042711007,0.0,0.0,1,1,0,0,1,1,0,0
242646544,2162698,2162698,1114122,0,0,0.15228377,0.1522837,0.0,0.0,2162698,2162698,2228234,0,0,0.004220519,0.0042205197,0.0,0.0,1,1,0,0,1,1,0,0
242846644,2162698,2162698,1114122,0,0,0.1647909,0.16479097,0.0,0.0,2162698,2162698,2228234,0,0,0.0030576948,0.003057695,0.0,0.0,1,1,0,0,1,1,0,0
243046704,2162698,2162698,1114122,0,0,0.17425136,0.17425127,0.0,0.0,2162698,2162698,2228234,0,0,0.004628176,0.0046281763,0.0,0.0,1,1,0,0,1,1,0,0
243246842,2162698,2162698,1114122,0,0,0.16773292,0.16773286,0.0,0.0,2162698,2162698,2228234,0,0,0.0037627614,0.0037627611,0.0,0.0,1,1,0,0,1,1,0,0
243446960,2162698,2162698,1114122,0,0,0.1837046,0.1837046,0.0,0.0,2162698,2162698,2228234,0,0,0.004163802,0.004163802,0.0,0.0,1,1,0,0,1,1,0,0
243647005,2162698,2162698,1114122,0,0,0.16283493,0.1628352,0.0,0.0,2162698,2162698,2228234,0,0,0.0034758556,0.0034758556,0.0,0.0,1,1,0,0,1,1,0,0
243847097,2162698,2162698,1114122,0,0,0.18832868,0.18832865,0.0,0.0,2162698,2162698,2228234,0,0,0.004271114,0.0042711133,0.0,0.0,1,1,0,0,1,1,0,0
244047227,2162698,2162698,1114122,0,0,0.19186606,0.19186613,0.0,0.0,2162698,2162698,2228234,0,0,0.0040679565,0.004067957,0.0,0.0,1,1,0,0,1,1,0,0
244247364,2162698,2162698,1114122,0,0,0.18133372,0.18133356,0.0,0.0,2162698,2162698,2228234,0,0,0.004476126,0.0044761263,0.0,0.0,1,1,0,0,1,1,0,0
244447403,2162698,2162698,1114122,0,0,0.17725769,0.17725766,0.0,0.0,2162698,2162698,2228234,0,0,0.0038260221,0.0038260224,0.0,0.0,1,1,0,0,1,1,0,0
244642541,2162698,2162698,1114122,0,0,0.15665658,0.15665662,0.0,0.0,2162698,2162698,2228234,0,0,0.0037388492,0.0037388492,0.0,0.0,1,1,0,0,1,1,0,0
244847651,2162698,2162698,1114122,0,0,0.17904174,0.17904161,0.0,0.0,2162698,2162698,2228234,0,0,0.003514664,0.0035146642,0.0,0.0,1,1,0,0,1,1,0,0
245047712,2162698,2162698,1114122,0,0,0.16821876,0.16821875,0.0,0.0,2162698,2162698,2228234,0,0,0.0034249006,0.0034249004,0.0,0.0,1,1,0,0,1,1,0,0
245247805,2162698,2162698,1114122,0,0,0.17780234,0.17780241,0.0,0.0,2162698,2162698,2228234,0,0,0.0035014914,0.0035014916,0.0,0.0,1,1,0,0,1,1,0,0
245447907,2162698,2162698,1114122,0,0,0.16848691,0.16848694,0.0,0.0,2162698,2162698,2228234,0,0,0.0035020662,0.0035020667,0.0,0.0,1,1,0,0,1,1,0,0
245648073,2162698,2162698,1114122,0,0,0.20348811,0.20348799,0.0,0.0,2162698,2162698,2228234,0,0,0.002838039,0.002838039,0.0,0.0,1,1,0,0,1,1,0,0
245843106,2162698,2162698,1114122,0,0,0.1639961,0.16399607,0.0,0.0,2162698,2162698,2228234,0,0,0.004052799,0.0040527987,0.0,0.0,1,1,0,0,1,1,0,0
246043225,2162698,2162698,1114122,0,0,0.16670945,0.16670947,0.0,0.0,2162698,2162698,2228234,0,0,0.0038185676,0.0038185674,0.0,0.0,1,1,0,0,1,1,0,0
246248352,2162698,2162698,1114122,0,0,0.1658922,0.16589212,0.0,0.0,2162698,2162698,2228234,0,0,0.0034041768,0.0034041768,0.0,0.0,1,1,0,0,1,1,0,0
246448419,2162698,2162698,1114122,0,0,0.17548586,0.17548567,0.0,0.0,2162698,2162698,2228234,0,0,0.0031785492,0.0031785495,0.0,0.0,1,1,0,0,1,1,0,0
246648525,2162698,2162698,1114122,0,0,0.14012273,0.14012279,0.0,0.0,2162698,2162698,2228234,0,0,0.0033129905,0.0033129905,0.0,0.0,1,1,0,0,1,1,0,0
246848674,2162698,2162698,1114122,0,0,0.17912287,0.17912287,0.0,0.0,2162698,2162698,2228234,0,0,0.0037307444,0.0037307441,0.0,0.0,1,1,0,0,1,1,0,0
247043737,2162698,2162698,1114122,0,0,0.16343676,0.16343667,0.0,0.0,2162698,2162698,2228234,0,0,0.0033562297,0.0033562297,0.0,0.0,1,1,0,0,1,1,0,0
247243814,2162698,2162698,1114122,0,0,0.17806707,0.17806691,0.0,0.0,2162698,2162698,2228234,0,0,0.0040541175,0.0040541175,0.0,0.0,1,1,0,0,1,1,0,0
247443952,2162698,2162698,1114122,0,0,0.16464971,0.16464953,0.0,0.0,2162698,2162698,2228234,0,0,0.004171992,0.004171992,0.0,0.0,1,1,0,0,1,1,0,0
247649063,2162698,2162698,1114122,0,0,0.19302651,0.19302638,0.0,0.0,2162698,2162698,2228234,0,0,0.0038367938,0.0038367938,0.0,0.0,1,1,0,0,1,1,0,0
247849119,2162698,2162698,1114122,0,0,0.15619795,0.1561979,0.0,0.0,2162698,2162698,2228234,0,0,0.0043244925,0.004324493,0.0,0.0,1,1,0,0,1,1,0,0
248049232,2162698,2162698,1114122,0,0,0.18076591,0.18076584,0.0,0.0,2162698,2162698,2228234,0,0,0.0032498315,0.0032498315,0.0,0.0,1,1,0,0,1,1,0,0
248244304,2162698,2162698,1114122,0,0,0.17226703,0.17226692,0.0,0.0,2162698,2162698,2228234,0,0,0.0034696544,0.0034696541,0.0,0.0,1,1,0,0,1,1,0,0
248444506,2162698,2162698,1114122,0,0,0.165248,0.16524796,0.0,0.0,2162698,2162698,2228234,0,0,0.004257627,0.004257627,0.0,0.0,1,1,0,0,1,1,0,0
248644540,2162698,2162698,1114122,0,0,0.18218717,0.18218704,0.0,0.0,2162698,2162698,2228234,0,0,0.004082886,0.0040828856,0.0,0.0,1,1,0,0,1,1,0,0
248844636,2162698,2162698,1114122,0,0,0.19205278,0.19205283,0.0,0.0,2162698,2162698,2228234,0,0,0.0047526937,0.0047526937,0.0,0.0,1,1,0,0,1,1,0,0
249049865,2162698,2162698,1114122,0,0,0.15997107,0.15997113,0.0,0.0,2162698,2162698,2228234,0,0,0.0037890575,0.003789057,0.0,0.0,1,1,0,0,1,1,0,0
249249960,2162698,2162698,1114122,0,0,0.1616217,0.16162173,0.0,0.0,2162698,2162698,2228234,0,0,0.004457812,0.004457812,0.0,0.0,1,1,0,0,1,1,0,0
249444925,2162698,2162698,1114122,0,0,0.20504345,0.20504351,0.0,0.0,2162698,2162698,2228234,0,0,0.0046160254,0.0046160254,0.0,0.0,1,1,0,0,1,1,0,0
249645013,2162698,2162698,1114122,0,0,0.17284782,0.17284797,0.0,0.0,2162698,2162698,2228234,0,0,0.0039325412,0.0039325417,0.0,0.0,1,1,0,0,1,1,0,0
249845178,2162698,2162698,1114122,0,0,0.17269573,0.17269574,0.0,0.0,2162698,2162698,2228234,0,0,0.0038274112,0.0038274114,0.0,0.0,1,1,0,0,1,1,0,0
250045235,2162698,2162698,1114122,0,0,0.15316454,0.15316446,0.0,0.0,2162698,2162698,2228234,0,0,0.0035772664,0.0035772661,0.0,0.0,1,1,0,0,1,1,0,0
250245338,2162698,2162698,1114122,0,0,0.14598428,0.14598416,0.0,0.0,2162698,2162698,2228234,0,0,0.0038946935,0.0038946935,0.0,0.0,1,1,0,0,1,1,0,0
250450490,2162698,2162698,1114122,0,0,0.17692265,0.17692268,0.0,0.0,2162698,2162698,2228234,0,0,0.004420517,0.004420517,0.0,0.0,1,1,0,0,1,1,0,0
250645658,2162698,2162698,1114122,0,0,0.18945415,0.18945405,0.0,0.0,2162698,2162698,2228234,0,0,0.004574292,0.004574292,0.0,0.0,1,1,0,0,1,1,0,0
250845760,2162698,2162698,1114122,0,0,0.16934058,0.16934052,0.0,0.0,2162698,2162698,2228234,0,0,0.004508587,0.0045085875,0.0,0.0,1,1,0,0,1,1,0,0
251045724,2162698,2162698,1114122,0,0,0.16703224,0.16703224,0.0,0.0,2162698,2162698,2228234,0,0,0.0046579847,0.0046579847,0.0,0.0,1,1,0,0,1,1,0,0
251245861,2162698,2162698,1114122,0,0,0.16148776,0.16148764,0.0,0.0,2162698,2162698,2228234,0,0,0.0038267288,0.0038267293,0.0,0.0,1,1,0,0,1,1,0,0
251445918,2162698,2162698,1114122,0,0,0.17651324,0.17651315,0.0,0.0,2162698,2162698,2228234,0,0,0.004312086,0.0043120864,0.0,0.0,1,1,0,0,1,1,0,0
251646040,2162698,2162698,1114122,0,0,0.17685178,0.17685185,0.0,0.0,2162698,2162698,2228234,0,0,0.0043547405,0.00435474,0.0,0.0,1,1,0,0,1,1,0,0
251846232,2162698,2162698,1114122,0,0,0.19384907,0.19384924,0.0,0.0,2162698,2162698,2228234,0,0,0.0045662755,0.0045662755,0.0,0.0,1,1,0,0,1,1,0,0
252046310,2162698,2162698,1114122,0,0,0.1944404,0.19444048,0.0,0.0,2162698,2162698,2228234,0,0,0.0039191577,0.0039191577,0.0,0.0,1,1,0,0,1,1,0,0
252246356,2162698,2162698,1114122,0,0,0.20752656,0.20752665,0.0,0.0,2162698,2162698,2228234,0,0,0.004535494,0.004535494,0.0,0.0,1,1,0,0,1,1,0,0
252446469,2162698,2162698,1114122,0,0,0.17821075,0.17821077,0.0,0.0,2162698,2162698,2228234,0,0,0.004025816,0.004025816,0.0,0.0,1,1,0,0,1,1,0,0
252646558,2162698,2162698,1114122,0,0,0.17800017,0.17800014,0.0,0.0,2162698,2162698,2228234,0,0,0.004252651,0.004252651,0.0,0.0,1,1,0,0,1,1,0,0
252846644,2162698,2162698,1114122,0,0,0.15282302,0.15282287,0.0,0.0,2162698,2162698,2228234,0,0,0.0071156383,0.0071156374,0.0,0.0,1,1,0,0,1,1,0,0
253046762,2162698,2162698,1114122,0,0,0.15890458,0.15890448,0.0,0.0,2162698,2162698,2228234,0,0,0.0046506976,0.004650697,0.0,0.0,1,1,0,0,1,1,0,0
253246941,2162698,2162698,1114122,0,0,0.1716581,0.17165808,0.0,0.0,2162698,2162698,2228234,0,0,0.0041997232,0.0041997232,0.0,0.0,1,1,0,0,1,1,0,0
253447010,2162698,2162698,1114122,0,0,0.17187555,0.17187554,0.0,0.0,2162698,2162698,2228234,0,0,0.004206314,0.0042063138,0.0,0.0,1,1,0,0,1,1,0,0
253647072,2162698,2162698,1114122,0,0,0.18017523,0.1801751,0.0,0.0,2162698,2162698,2228234,0,0,0.0051353397,0.0051353397,0.0,0.0,1,1,0,0,1,1,0,0
253847150,2162698,2162698,1114122,0,0,0.19123876,0.19123872,0.0,0.0,2162698,2162698,2228234,0,0,0.0036510385,0.0036510385,0.0,0.0,1,1,0,0,1,1,0,0
254047271,2162698,2162698,1114122,0,0,0.16899526,0.1689953,0.0,0.0,2162698,2162698,2228234,0,0,0.004424382,0.004424382,0.0,0.0,1,1,0,0,1,1,0,0
254247407,2162698,2162698,1114122,0,0,0.18947092,0.1894708,0.0,0.0,2162698,2162698,2228234,0,0,0.00318494,0.0031849402,0.0,0.0,1,1,0,0,1,1,0,0
254447506,2162698,2162698,1114122,0,0,0.1605474,0.16054735,0.0,0.0,2162698,2162698,2228234,0,0,0.0044856775,0.0044856775,0.0,0.0,1,1,0,0,1,1,0,0
254647642,2162698,2162698,1114122,0,0,0.17926535,0.17926534,0.0,0.0,2162698,2162698,2228234,0,0,0.0044344612,0.004434461,0.0,0.0,1,1,0,0,1,1,0,0
254847724,2162698,2162698,1114122,0,0,0.18521428,0.18521442,0.0,0.0,2162698,2162698,2228234,0,0,0.0037321716,0.0037321714,0.0,0.0,1,1,0,0,1,1,0,0
255047835,2162698,2162698,1114122,0,0,0.1567236,0.15672366,0.0,0.0,2162698,2162698,2228234,0,0,0.0043307976,0.004330797,0.0,0.0,1,1,0,0,1,1,0,0
255247927,2162698,2162698,1114122,0,0,0.1527241,0.15272424,0.0,0.0,2162698,2162698,2228234,0,0,0.0043564355,0.004356435,0.0,0.0,1,1,0,0,1,1,0,0
255447968,2162698,2162698,1114122,0,0,0.17130093,0.17130093,0.0,0.0,2162698,2162698,2228234,0,0,0.0043595755,0.0043595755,0.0,0.0,1,1,0,0,1,1,0,0
255643123,2162698,2162698,1114122,0,0,0.16825458,0.16825464,0.0,0.0,2162698,2162698,2228234,0,0,0.0050751,0.0050750994,0.0,0.0,1,1,0,0,1,1,0,0
255843178,2162698,2162698,1114122,0,0,0.1591541,0.15915419,0.0,0.0,2162698,2162698,2228234,0,0,0.0052079633,0.0052079633,0.0,0.0,1,1,0,0,1,1,0,0
256048339,2162698,2162698,1114122,0,0,0.17319906,0.17319903,0.0,0.0,2162698,2162698,2228234,0,0,0.0036582532,0.0036582532,0.0,0.0,1,1,0,0,1,1,0,0
256248418,2162698,2162698,1114122,0,0,0.16562307,0.16562289,0.0,0.0,2162698,2162698,2228234,0,0,0.004201359,0.004201359,0.0,0.0,1,1,0,0,1,1,0,0
256448556,2162698,2162698,1114122,0,0,0.1605295,0.16052942,0.0,0.0,2162698,2162698,2228234,0,0,0.004601878,0.0046018776,0.0,0.0,1,1,0,0,1,1,0,0
256648627,2162698,2162698,1114122,0,0,0.17671086,0.17671075,0.0,0.0,2162698,2162698,2228234,0,0,0.0035805295,0.0035805295,0.0,0.0,1,1,0,0,1,1,0,0
256843688,2162698,2162698,1114122,0,0,0.18022318,0.18022321,0.0,0.0,2162698,2162698,2228234,0,0,0.0032939212,0.003293921,0.0,0.0,1,1,0,0,1,1,0,0
257043829,2162698,2162698,1114122,0,0,0.1771779,0.17717803,0.0,0.0,2162698,2162698,2228234,0,0,0.003963343,0.003963343,0.0,0.0,1,1,0,0,1,1,0,0
257243914,2162698,2162698,1114122,0,0,0.17277196,0.17277178,0.0,0.0,2162698,2162698,2228234,0,0,0.004908454,0.0049084537,0.0,0.0,1,1,0,0,1,1,0,0
257449029,2162698,2162698,1114122,0,0,0.16940162,0.1694016,0.0,0.0,2162698,2162698,2228234,0,0,0.004595774,0.0045957747,0.0,0.0,1,1,0,0,1,1,0,0
257649130,2162698,2162698,1114122,0,0,0.17036216,0.17036211,0.0,0.0,2162698,2162698,2228234,0,0,0.0042807194,0.0042807194,0.0,0.0,1,1,0,0,1,1,0,0
257849258,2162698,2162698,1114122,0,0,0.17930475,0.17930476,0.0,0.0,2162698,2162698,2228234,0,0,0.004073727,0.004073727,0.0,0.0,1,1,0,0,1,1,0,0
258044474,2162698,2162698,1114122,0,0,0.16935812,0.16935827,0.0,0.0,2162698,2162698,2228234,0,0,0.0038461217,0.0038461217,0.0,0.0,1,1,0,0,1,1,0,0
258244396,2162698,2162698,1114122,0,0,0.17234387,0.17234385,0.0,0.0,2162698,2162698,2228234,0,0,0.0041856538,0.004185654,0.0,0.0,1,1,0,0,1,1,0,0
258444511,2162698,2162698,1114122,0,0,0.17404386,0.1740438,0.0,0.0,2162698,2162698,2228234,0,0,0.0032743048,0.0032743048,0.0,0.0,1,1,0,0,1,1,0,0
258644625,2162698,2162698,1114122,0,0,0.16783038,0.16783054,0.0,0.0,2162698,2162698,2228234,0,0,0.0040974473,0.004097447,0.0,0.0,1,1,0,0,1,1,0,0
258849744,2162698,2162698,1114122,0,0,0.19222318,0.19222328,0.0,0.0,2162698,2162698,2228234,0,0,0.004339492,0.004339492,0.0,0.0,1,1,0,0,1,1,0,0
259049864,2162698,2162698,1114122,0,0,0.18419206,0.18419226,0.0,0.0,2162698,2162698,2228234,0,0,0.004777189,0.004777189,0.0,0.0,1,1,0,0,1,1,0,0
259244940,2162698,2162698,1114122,0,0,0.18044816,0.18044816,0.0,0.0,2162698,2162698,2228234,0,0,0.003782817,0.0037828162,0.0,0.0,1,1,0,0,1,1,0,0
259445200,2162698,2162698,1114122,0,0,0.15110803,0.1511079,0.0,0.0,2162698,2162698,2228234,0,0,0.0043685986,0.0043685986,0.0,0.0,1,1,0,0,1,1,0,0
259645103,2162698,2162698,1114122,0,0,0.18256529,0.18256527,0.0,0.0,2162698,2162698,2228234,0,0,0.003941344,0.003941344,0.0,0.0,1,1,0,0,1,1,0,0
259845253,2162698,2162698,1114122,0,0,0.16910516,0.16910525,0.0,0.0,2162698,2162698,2228234,0,0,0.00463224,0.0046322406,0.0,0.0,1,1,0,0,1,1,0,0
260045328,2162698,2162698,1114122,0,0,0.17159054,0.17159048,0.0,0.0,2162698,2162698,2228234,0,0,0.004461877,0.004461877,0.0,0.0,1,1,0,0,1,1,0,0
260250552,2162698,2162698,1114122,0,0,0.18449578,0.18449585,0.0,0.0,2162698,2162698,2228234,0,0,0.0045490335,0.0045490335,0.0,0.0,1,1,0,0,1,1,0,0
260445550,2162698,2162698,1114122,0,0,0.17406787,0.17406781,0.0,0.0,2162698,2162698,2228234,0,0,0.004204111,0.004204111,0.0,0.0,1,1,0,0,1,1,0,0
260645684,2162698,2162698,1114122,0,0,0.16606034,0.16606033,0.0,0.0,2162698,2162698,2228234,0,0,0.0044804337,0.004480433,0.0,0.0,1,1,0,0,1,1,0,0
260845828,2162698,2162698,1114122,0,0,0.16665326,0.1666531,0.0,0.0,2162698,2162698,2228234,0,0,0.0036206164,0.0036206162,0.0,0.0,1,1,0,0,1,1,0,0
261045831,2162698,2162698,1114122,0,0,0.18053356,0.1805334,0.0,0.0,2162698,2162698,2228234,0,0,0.0036700799,0.0036700799,0.0,0.0,1,1,0,0,1,1,0,0
261245933,2162698,2162698,1114122,0,0,0.1425758,0.1425759,0.0,0.0,2162698,2162698,2228234,0,0,0.0040975814,0.0040975814,0.0,0.0,1,1,0,0,1,1,0,0
261446030,2162698,2162698,1114122,0,0,0.17120893,0.17120895,0.0,0.0,2162698,2162698,2228234,0,0,0.0042490256,0.004249025,0.0,0.0,1,1,0,0,1,1,0,0
261646152,2162698,2162698,1114122,0,0,0.18178593,0.18178582,0.0,0.0,2162698,2162698,2228234,0,0,0.0036930386,0.0036930381,0.0,0.0,1,1,0,0,1,1,0,0
261846259,2162698,2162698,1114122,0,0,0.17522812,0.17522825,0.0,0.0,2162698,2162698,2228234,0,0,0.005678529,0.0056785294,0.0,0.0,1,1,0,0,1,1,0,0
262046400,2162698,2162698,1114122,0,0,0.16795564,0.16795552,0.0,0.0,2162698,2162698,2228234,0,0,0.0058590905,0.00585909,0.0,0.0,1,1,0,0,1,1,0,0
262246580,2162698,2162698,1114122,0,0,0.20621276,0.20621265,0.0,0.0,2162698,2162698,2228234,0,0,0.0045366897,0.0045366893,0.0,0.0,1,1,0,0,1,1,0,0
262446675,2162698,2162698,1114122,0,0,0.25173262,0.25173262,0.0,0.0,2162698,2162698,2228234,0,0,0.0064763282,0.006476328,0.0,0.0,1,1,0,0,1,1,0,0
262646716,2162698,2162698,1114122,0,0,0.23737484,0.23737484,0.0,0.0,2162698,2162698,2228234,0,0,0.004651304,0.0046513053,0.0,0.0,1,1,0,0,1,1,0,0
262846747,2162698,2162698,1114122,0,0,0.17256618,0.17256616,0.0,0.0,2162698,2162698,2228234,0,0,0.010675988,0.01067599,0.0,0.0,1,1,0,0,1,1,0,0
263046889,2162698,2162698,1114122,0,0,0.09282176,0.0928217,0.0,0.0,2162698,2162698,2228234,0,0,0.010319886,0.010319887,0.0,0.0,1,1,0,0,1,1,0,0
263246972,2162698,2162698,1114122,0,0,0.2282187,0.2282187,0.0,0.0,2162698,2162698,2228234,0,0,0.0077608516,0.007760855,0.0,0.0,1,1,0,0,1,1,0,0
263447069,2162698,2162698,1114122,0,0,0.27267817,0.27267817,0.0,0.0,2162698,2162698,2228234,0,0,0.019483354,0.019483354,0.0,0.0,1,1,0,0,1,1,0,0
263647223,2162698,2162698,1114122,0,0,0.24392788,0.24392788,0.0,0.0,2162698,2162698,2228234,0,0,0.034166038,0.034166038,0.0,0.0,1,1,0,0,1,1,0,0
263847322,2162698,2162698,1114122,0,0,0.8519576,0.8519577,0.0,0.0,2162698,2162698,2228234,0,0,0.04527801,0.04527801,0.0,0.0,1,1,0,0,1,1,0,0
264047395,2162698,2162698,1114122,0,0,0.28145579,0.2814559,0.0,0.0,2162698,2162698,2228234,0,0,0.01953406,0.019534072,0.0,0.0,1,1,0,0,1,1,0,0
264247566,2162698,2162698,1114122,0,0,0.17111585,0.1711159,0.0,0.0,2162698,2162698,2228234,0,0,0.016388724,0.01638873,0.0,0.0,1,1,0,0,1,1,0,0
264447586,2162698,2162698,1114122,0,0,0.127966,0.12796609,0.0,0.0,2162698,2162698,2228234,0,0,0.034503937,0.034503933,0.0,0.0,1,1,0,0,1,1,0,0
264647695,2162698,2162698,1114122,0,0,0.22000222,0.22000226,0.0,0.0,2162698,2162698,2228234,0,0,0.023159688,0.023159686,0.0,0.0,1,1,0,0,1,1,0,0
264847792,2162698,2162698,1114122,0,0,0.23460008,0.23459995,0.0,0.0,2162698,2162698,2228234,0,0,0.015287168,0.015287171,0.0,0.0,1,1,0,0,1,1,0,0
265047949,2162698,2162698,1114122,0,0,0.28143936,0.28143936,0.0,0.0,2162698,2162698,2228234,0,0,0.010491606,0.010491614,0.0,0.0,1,1,0,0,1,1,0,0
265248041,2162698,2162698,1114122,0,0,0.16547416,0.16547415,0.0,0.0,2162698,2162698,2228234,0,0,0.005181292,0.0051812953,0.0,0.0,1,1,0,0,1,1,0,0
265443230,2162698,2162698,1114122,0,0,0.20035097,0.20035093,0.0,0.0,2162698,2162698,2228234,0,0,0.015502666,0.015502663,0.0,0.0,1,1,0,0,1,1,0,0
265643309,2162698,2162698,1114122,0,0,0.12885897,0.12885906,0.0,0.0,2162698,2162698,2228234,0,0,0.0141050955,0.014105093,0.0,0.0,1,1,0,0,1,1,0,0
265848295,2162698,2162698,1114122,0,0,0.23227969,0.23227973,0.0,0.0,2162698,2162698,2228234,0,0,0.012982702,0.012982712,0.0,0.0,1,1,0,0,1,1,0,0
266048413,2162698,2162698,1114122,0,0,0.20057543,0.20057535,0.0,0.0,2162698,2162698,2228234,0,0,0.016027031,0.016027033,0.0,0.0,1,1,0,0,1,1,0,0
266248524,2162698,2162698,1114122,0,0,0.1703404,0.17034045,0.0,0.0,2162698,2162698,2228234,0,0,0.017127369,0.01712736,0.0,0.0,1,1,0,0,1,1,0,0
266448670,2162698,2162698,1114122,0,0,0.24837226,0.24837223,0.0,0.0,2162698,2162698,2228234,0,0,0.008145156,0.008145152,0.0,0.0,1,1,0,0,1,1,0,0
266643820,2162698,2162698,1114122,0,0,0.1441748,0.14417477,0.0,0.0,2162698,2162698,2228234,0,0,0.019167587,0.019167583,0.0,0.0,1,1,0,0,1,1,0,0
266843821,2162698,2162698,1114122,0,0,0.10443618,0.10443615,0.0,0.0,2162698,2162698,2228234,0,0,0.0085588265,0.0085588265,0.0,0.0,1,1,0,0,1,1,0,0
267043972,2162698,2162698,1114122,0,0,0.18483841,0.18483825,0.0,0.0,2162698,2162698,2228234,0,0,0.0057845395,0.0057845395,0.0,0.0,1,1,0,0,1,1,0,0
267249017,2162698,2162698,1114122,0,0,0.14713886,0.14713867,0.0,0.0,2162698,2162698,2228234,0,0,0.008919177,0.008919179,0.0,0.0,1,1,0,0,1,1,0,0
267449199,2162698,2162698,1114122,0,0,0.15741993,0.15741976,0.0,0.0,2162698,2162698,2228234,0,0,0.011799858,0.011799861,0.0,0.0,1,1,0,0,1,1,0,0
267649238,2162698,2162698,1114122,0,0,0.13822176,0.13822179,0.0,0.0,2162698,2162698,2228234,0,0,0.016070435,0.016070427,0.0,0.0,1,1,0,0,1,1,0,0
267844312,2162698,2162698,1114122,0,0,0.22544704,0.22544715,0.0,0.0,2162698,2162698,2228234,0,0,0.01317348,0.01317348,0.0,0.0,1,1,0,0,1,1,0,0
268044534,2162698,2162698,1114122,0,0,0.22821115,0.22821116,0.0,0.0,2162698,2162698,2228234,0,0,0.008855075,0.008855073,0.0,0.0,1,1,0,0,1,1,0,0
268244597,2162698,2162698,1114122,0,0,0.20730789,0.20730795,0.0,0.0,2162698,2162698,2228234,0,0,0.006765689,0.0067656864,0.0,0.0,1,1,0,0,1,1,0,0
268444681,2162698,2162698,1114122,0,0,0.3640861,0.36408597,0.0,0.0,2162698,2162698,2228234,0,0,0.0107824,0.010782398,0.0,0.0,1,1,0,0,1,1,0,0
