timestamp,voltage_v,voltage_filtered_v,current_a,current_filtered_a,current_average_a,discharged_mah,remaining,scale,temperature,cell_count,voltage_cell_v[0],voltage_cell_v[1],voltage_cell_v[2],voltage_cell_v[3],voltage_cell_v[4],voltage_cell_v[5],voltage_cell_v[6],voltage_cell_v[7],voltage_cell_v[8],voltage_cell_v[9],voltage_cell_v[10],voltage_cell_v[11],voltage_cell_v[12],voltage_cell_v[13],max_cell_voltage_delta,average_power,available_energy,remaining_capacity,design_capacity,nominal_voltage,capacity,cycle_count,run_time_to_empty,average_time_to_empty,serial_number,manufacture_date,state_of_health,max_error,interface_error,average_time_to_full,over_discharge_count,connected,source,priority,id,is_powering_off,warning
186841972,15.678345,16.145254,0.0,3.5e-44,-1.0,8.164815,0.76616246,1.0405535,nan,4,4.0363135,4.0363135,4.0363135,4.0363135,0.0,0.0,0.0,0.0,0.0,0.0,0.0,0.0,0.0,0.0,0.0,0.0,0.0,0.0,0.0,0.0,0,0,0,0,0,0,0,0,0,0,0,1,0,0,1,0,0
186851879,15.593505,16.139791,0.0,3.5e-44,-1.0,8.164815,0.76421124,1.0409056,nan,4,4.034948,4.034948,4.034948,4.034948,0.0,0.0,0.0,0.0,0.0,0.0,0.0,0.0,0.0,0.0,0.0,0.0,0.0,0.0,0.0,0.0,0,0,0,0,0,0,0,0,0,0,0,1,0,0,1,0,0
187041802,16.33161,16.14363,0.0,3.5e-44,-1.0,8.164815,0.76558214,1.0406581,nan,4,4.0359073,4.0359073,4.0359073,4.0359073,0.0,0.0,0.0,0.0,0.0,0.0,0.0,0.0,0.0,0.0,0.0,0.0,0.0,0.0,0.0,0.0,0,0,0,0,0,0,0,0,0,0,0,1,0,0,1,0,0
187241551,16.170414,16.13993,0.0,3.5e-44,-1.0,8.164815,0.7642613,1.0408967,nan,4,4.0349827,4.0349827,4.0349827,4.0349827,0.0,0.0,0.0,0.0,0.0,0.0,0.0,0.0,0.0,0.0,0.0,0.0,0.0,0.0,0.0,0.0,0,0,0,0,0,0,0,0,0,0,0,1,0,0,1,0,0
187441539,16.238285,16.137403,0.0,3.5e-44,-1.0,8.164815,0.76335865,1.0410596,nan,4,4.034351,4.034351,4.034351,4.034351,0.0,0.0,0.0,0.0,0.0,0.0,0.0,0.0,0.0,0.0,0.0,0.0,0.0,0.0,0.0,0.0,0,0,0,0,0,0,0,0,0,0,0,1,0,0,1,0,0
187641535,15.780152,16.118086,0.0,3.5e-44,-1.0,8.164815,0.7564593,1.0423074,nan,4,4.0295215,4.0295215,4.0295215,4.0295215,0.0,0.0,0.0,0.0,0.0,0.0,0.0,0.0,0.0,0.0,0.0,0.0,0.0,0.0,0.0,0.0,0,0,0,0,0,0,0,0,0,0,0,1,0,0,1,0,0
187841502,16.212833,16.098505,0.0,3.5e-44,-1.0,8.164815,0.7494665,1.0435752,nan,4,4.0246263,4.0246263,4.0246263,4.0246263,0.0,0.0,0.0,0.0,0.0,0.0,0.0,0.0,0.0,0.0,0.0,0.0,0.0,0.0,0.0,0.0,0,0,0,0,0,0,0,0,0,0,0,1,0,0,1,0,0
188041549,16.246769,16.107,0.0,3.5e-44,-1.0,8.164815,0.7525001,1.0430247,nan,4,4.02675,4.02675,4.02675,4.02675,0.0,0.0,0.0,0.0,0.0,0.0,0.0,0.0,0.0,0.0,0.0,0.0,0.0,0.0,0.0,0.0,0,0,0,0,0,0,0,0,0,0,0,1,0,0,1,0,0
188241593,16.297672,16.109325,0.0,3.5e-44,-1.0,8.164815,0.75333077,1.0428742,nan,4,4.0273314,4.0273314,4.0273314,4.0273314,0.0,0.0,0.0,0.0,0.0,0.0,0.0,0.0,0.0,0.0,0.0,0.0,0.0,0.0,0.0,0.0,0,0,0,0,0,0,0,0,0,0,0,1,0,0,1,0,0
188441581,16.348577,16.105206,0.0,3.5e-44,-1.0,8.164815,0.75185925,1.0431409,nan,4,4.0263014,4.0263014,4.0263014,4.0263014,0.0,0.0,0.0,0.0,0.0,0.0,0.0,0.0,0.0,0.0,0.0,0.0,0.0,0.0,0.0,0.0,0,0,0,0,0,0,0,0,0,0,0,1,0,0,1,0,0
188641640,15.720764,16.108784,0.0,3.5e-44,-1.0,8.164815,0.7531372,1.0429093,nan,4,4.027196,4.027196,4.027196,4.027196,0.0,0.0,0.0,0.0,0.0,0.0,0.0,0.0,0.0,0.0,0.0,0.0,0.0,0.0,0.0,0.0,0,0,0,0,0,0,0,0,0,0,0,1,0,0,1,0,0
188851557,16.27222,16.115753,0.0,3.5e-44,-1.0,8.164815,0.75562626,1.0424582,nan,4,4.0289383,4.0289383,4.0289383,4.0289383,0.0,0.0,0.0,0.0,0.0,0.0,0.0,0.0,0.0,0.0,0.0,0.0,0.0,0.0,0.0,0.0,0,0,0,0,0,0,0,0,0,0,0,1,0,0,1,0,0
189041602,16.348577,16.10734,0.0,3.5e-44,-1.0,8.164815,0.7526217,1.0430027,nan,4,4.026835,4.026835,4.026835,4.026835,0.0,0.0,0.0,0.0,0.0,0.0,0.0,0.0,0.0,0.0,0.0,0.0,0.0,0.0,0.0,0.0,0,0,0,0,0,0,0,0,0,0,0,1,0,0,1,0,0
189241545,16.323124,16.113207,0.0,3.5e-44,-1.0,8.164815,0.75471693,1.0426229,nan,4,4.0283017,4.0283017,4.0283017,4.0283017,0.0,0.0,0.0,0.0,0.0,0.0,0.0,0.0,0.0,0.0,0.0,0.0,0.0,0.0,0.0,0.0,0,0,0,0,0,0,0,0,0,0,0,1,0,0,1,0,0
189441656,16.246769,16.12214,0.0,3.5e-44,-1.0,8.164815,0.75790745,1.0420452,nan,4,4.030535,4.030535,4.030535,4.030535,0.0,0.0,0.0,0.0,0.0,0.0,0.0,0.0,0.0,0.0,0.0,0.0,0.0,0.0,0.0,0.0,0,0,0,0,0,0,0,0,0,0,0,1,0,0,1,0,0
189642115,16.297672,16.1181,0.0,3.5e-44,-1.0,8.164815,0.75646406,1.0423064,nan,4,4.029525,4.029525,4.029525,4.029525,0.0,0.0,0.0,0.0,0.0,0.0,0.0,0.0,0.0,0.0,0.0,0.0,0.0,0.0,0.0,0.0,0,0,0,0,0,0,0,0,0,0,0,1,0,0,1,0,0
189841689,16.365543,16.099697,0.0,3.5e-44,-1.0,8.164815,0.7498918,1.0434978,nan,4,4.0249243,4.0249243,4.0249243,4.0249243,0.0,0.0,0.0,0.0,0.0,0.0,0.0,0.0,0.0,0.0,0.0,0.0,0.0,0.0,0.0,0.0,0,0,0,0,0,0,0,0,0,0,0,1,0,0,1,0,0
190042366,16.306158,16.106888,0.0,3.5e-44,-1.0,8.164815,0.75246006,1.0430319,nan,4,4.026722,4.026722,4.026722,4.026722,0.0,0.0,0.0,0.0,0.0,0.0,0.0,0.0,0.0,0.0,0.0,0.0,0.0,0.0,0.0,0.0,0,0,0,0,0,0,0,0,0,0,0,1,0,0,1,0,0
190241838,16.246769,16.111946,0.0,3.5e-44,-1.0,8.164815,0.7542668,1.0427046,nan,4,4.0279865,4.0279865,4.0279865,4.0279865,0.0,0.0,0.0,0.0,0.0,0.0,0.0,0.0,0.0,0.0,0.0,0.0,0.0,0.0,0.0,0.0,0,0,0,0,0,0,0,0,0,0,0,1,0,0,1,0,0
190442348,16.297672,16.11028,0.0,3.5e-44,-1.0,8.164815,0.7536712,1.0428125,nan,4,4.02757,4.02757,4.02757,4.02757,0.0,0.0,0.0,0.0,0.0,0.0,0.0,0.0,0.0,0.0,0.0,0.0,0.0,0.0,0.0,0.0,0,0,0,0,0,0,0,0,0,0,0,1,0,0,1,0,0
190641937,16.348577,16.112755,0.0,3.5e-44,-1.0,8.164815,0.7545553,1.0426522,nan,4,4.0281887,4.0281887,4.0281887,4.0281887,0.0,0.0,0.0,0.0,0.0,0.0,0.0,0.0,0.0,0.0,0.0,0.0,0.0,0.0,0.0,0.0,0,0,0,0,0,0,0,0,0,0,0,1,0,0,1,0,0
190842402,15.610473,16.111824,0.0,3.5e-44,-1.0,8.164815,0.7542229,1.0427125,nan,4,4.027956,4.027956,4.027956,4.027956,0.0,0.0,0.0,0.0,0.0,0.0,0.0,0.0,0.0,0.0,0.0,0.0,0.0,0.0,0.0,0.0,0,0,0,0,0,0,0,0,0,0,0,1,0,0,1,0,0
191042255,16.263739,16.123245,0.0,3.5e-44,-1.0,8.164815,0.7583023,1.0419738,nan,4,4.0308113,4.0308113,4.0308113,4.0308113,0.0,0.0,0.0,0.0,0.0,0.0,0.0,0.0,0.0,0.0,0.0,0.0,0.0,0.0,0.0,0.0,0,0,0,0,0,0,0,0,0,0,0,1,0,0,1,0,0
191242495,16.20435,16.134634,0.0,3.5e-44,-1.0,8.164815,0.7623697,1.0412383,nan,4,4.0336585,4.0336585,4.0336585,4.0336585,0.0,0.0,0.0,0.0,0.0,0.0,0.0,0.0,0.0,0.0,0.0,0.0,0.0,0.0,0.0,0.0,0,0,0,0,0,0,0,0,0,0,0,1,0,0,1,0,0
191442428,16.348577,16.127611,0.0,3.5e-44,-1.0,8.164815,0.7598615,1.0416918,nan,4,4.031903,4.031903,4.031903,4.031903,0.0,0.0,0.0,0.0,0.0,0.0,0.0,0.0,0.0,0.0,0.0,0.0,0.0,0.0,0.0,0.0,0,0,0,0,0,0,0,0,0,0,0,1,0,0,1,0,0
191642726,16.127995,16.120626,0.0,3.5e-44,-1.0,8.164815,0.7573667,1.0421431,nan,4,4.0301566,4.0301566,4.0301566,4.0301566,0.0,0.0,0.0,0.0,0.0,0.0,0.0,0.0,0.0,0.0,0.0,0.0,0.0,0.0,0.0,0.0,0,0,0,0,0,0,0,0,0,0,0,1,0,0,1,0,0
191842783,16.229801,16.136597,0.0,3.5e-44,-1.0,8.164815,0.76307064,1.0411117,nan,4,4.034149,4.034149,4.034149,4.034149,0.0,0.0,0.0,0.0,0.0,0.0,0.0,0.0,0.0,0.0,0.0,0.0,0.0,0.0,0.0,0.0,0,0,0,0,0,0,0,0,0,0,0,1,0,0,1,0,0
192042675,16.263739,16.123829,0.0,3.5e-44,-1.0,8.164815,0.75851065,1.041936,nan,4,4.030957,4.030957,4.030957,4.030957,0.0,0.0,0.0,0.0,0.0,0.0,0.0,0.0,0.0,0.0,0.0,0.0,0.0,0.0,0.0,0.0,0,0,0,0,0,0,0,0,0,0,0,1,0,0,1,0,0
192242677,16.178898,16.123892,0.0,3.5e-44,-1.0,8.164815,0.75853306,1.041932,nan,4,4.030973,4.030973,4.030973,4.030973,0.0,0.0,0.0,0.0,0.0,0.0,0.0,0.0,0.0,0.0,0.0,0.0,0.0,0.0,0.0,0.0,0,0,0,0,0,0,0,0,0,0,0,1,0,0,1,0,0
192441540,16.357061,16.128393,0.0,3.5e-44,-1.0,8.164815,0.7601405,1.0416412,nan,4,4.0320983,4.0320983,4.0320983,4.0320983,0.0,0.0,0.0,0.0,0.0,0.0,0.0,0.0,0.0,0.0,0.0,0.0,0.0,0.0,0.0,0.0,0,0,0,0,0,0,0,0,0,0,0,1,0,0,1,0,0
192641535,16.20435,16.126389,0.0,3.5e-44,-1.0,8.164815,0.75942475,1.0417707,nan,4,4.031597,4.031597,4.031597,4.031597,0.0,0.0,0.0,0.0,0.0,0.0,0.0,0.0,0.0,0.0,0.0,0.0,0.0,0.0,0.0,0.0,0,0,0,0,0,0,0,0,0,0,0,1,0,0,1,0,0
192841522,16.111025,16.104696,0.0,3.5e-44,-1.0,8.164815,0.7516776,1.0431739,nan,4,4.026174,4.026174,4.026174,4.026174,0.0,0.0,0.0,0.0,0.0,0.0,0.0,0.0,0.0,0.0,0.0,0.0,0.0,0.0,0.0,0.0,0,0,0,0,0,0,0,0,0,0,0,1,0,0,1,0,0
193041546,16.187382,16.111534,0.0,3.5e-44,-1.0,8.164815,0.75411946,1.0427312,nan,4,4.0278835,4.0278835,4.0278835,4.0278835,0.0,0.0,0.0,0.0,0.0,0.0,0.0,0.0,0.0,0.0,0.0,0.0,0.0,0.0,0.0,0.0,0,0,0,0,0,0,0,0,0,0,0,1,0,0,1,0,0
193241542,16.27222,16.118479,0.0,3.5e-44,-1.0,8.164815,0.75659996,1.042282,nan,4,4.0296197,4.0296197,4.0296197,4.0296197,0.0,0.0,0.0,0.0,0.0,0.0,0.0,0.0,0.0,0.0,0.0,0.0,0.0,0.0,0.0,0.0,0,0,0,0,0,0,0,0,0,0,0,1,0,0,1,0,0
193441538,16.31464,16.129417,0.0,3.5e-44,-1.0,8.164815,0.7605062,1.0415751,nan,4,4.0323544,4.0323544,4.0323544,4.0323544,0.0,0.0,0.0,0.0,0.0,0.0,0.0,0.0,0.0,0.0,0.0,0.0,0.0,0.0,0.0,0.0,0,0,0,0,0,0,0,0,0,0,0,1,0,0,1,0,0
193641570,16.212833,16.108635,0.0,3.5e-44,-1.0,8.164815,0.75308424,1.0429189,nan,4,4.0271587,4.0271587,4.0271587,4.0271587,0.0,0.0,0.0,0.0,0.0,0.0,0.0,0.0,0.0,0.0,0.0,0.0,0.0,0.0,0.0,0.0,0,0,0,0,0,0,0,0,0,0,0,1,0,0,1,0,0
193841593,15.652893,16.10669,0.0,3.5e-44,-1.0,8.164815,0.7523895,1.0430448,nan,4,4.0266724,4.0266724,4.0266724,4.0266724,0.0,0.0,0.0,0.0,0.0,0.0,0.0,0.0,0.0,0.0,0.0,0.0,0.0,0.0,0.0,0.0,0,0,0,0,0,0,0,0,0,0,0,1,0,0,1,0,0
194041588,16.297672,16.118673,0.0,3.5e-44,-1.0,8.164815,0.7566691,1.0422693,nan,4,4.0296683,4.0296683,4.0296683,4.0296683,0.0,0.0,0.0,0.0,0.0,0.0,0.0,0.0,0.0,0.0,0.0,0.0,0.0,0.0,0.0,0.0,0,0,0,0,0,0,0,0,0,0,0,1,0,0,1,0,0
194241538,16.33161,16.117514,0.0,3.5e-44,-1.0,8.164815,0.7562552,1.0423443,nan,4,4.0293784,4.0293784,4.0293784,4.0293784,0.0,0.0,0.0,0.0,0.0,0.0,0.0,0.0,0.0,0.0,0.0,0.0,0.0,0.0,0.0,0.0,0,0,0,0,0,0,0,0,0,0,0,1,0,0,1,0,0
194441644,16.111025,16.11071,0.0,3.5e-44,-1.0,8.164815,0.75382525,1.0427846,nan,4,4.0276775,4.0276775,4.0276775,4.0276775,0.0,0.0,0.0,0.0,0.0,0.0,0.0,0.0,0.0,0.0,0.0,0.0,0.0,0.0,0.0,0.0,0,0,0,0,0,0,0,0,0,0,0,1,0,0,1,0,0
194641539,15.585021,16.107965,0.0,3.5e-44,-1.0,8.164815,0.75284487,1.0429622,nan,4,4.0269914,4.0269914,4.0269914,4.0269914,0.0,0.0,0.0,0.0,0.0,0.0,0.0,0.0,0.0,0.0,0.0,0.0,0.0,0.0,0.0,0.0,0,0,0,0,0,0,0,0,0,0,0,1,0,0,1,0,0
194841542,16.229801,16.118948,0.0,3.5e-44,-1.0,8.164815,0.75676733,1.0422516,nan,4,4.029737,4.029737,4.029737,4.029737,0.0,0.0,0.0,0.0,0.0,0.0,0.0,0.0,0.0,0.0,0.0,0.0,0.0,0.0,0.0,0.0,0,0,0,0,0,0,0,0,0,0,0,1,0,0,1,0,0
195041582,16.195866,16.10496,0.0,3.5e-44,-1.0,8.164815,0.7517715,1.0431569,nan,4,4.02624,4.02624,4.02624,4.02624,0.0,0.0,0.0,0.0,0.0,0.0,0.0,0.0,0.0,0.0,0.0,0.0,0.0,0.0,0.0,0.0,0,0,0,0,0,0,0,0,0,0,0,1,0,0,1,0,0
195241556,15.6953125,16.098234,0.0,3.5e-44,-1.0,8.164815,0.7493697,1.0435927,nan,4,4.0245585,4.0245585,4.0245585,4.0245585,0.0,0.0,0.0,0.0,0.0,0.0,0.0,0.0,0.0,0.0,0.0,0.0,0.0,0.0,0.0,0.0,0,0,0,0,0,0,0,0,0,0,0,1,0,0,1,0,0
195441581,16.246769,16.113146,0.0,3.5e-44,-1.0,8.164815,0.754695,1.0426269,nan,4,4.0282865,4.0282865,4.0282865,4.0282865,0.0,0.0,0.0,0.0,0.0,0.0,0.0,0.0,0.0,0.0,0.0,0.0,0.0,0.0,0.0,0.0,0,0,0,0,0,0,0,0,0,0,0,1,0,0,1,0,0
195641539,16.195866,16.103004,0.0,3.5e-44,-1.0,8.164815,0.7510734,1.0432836,nan,4,4.025751,4.025751,4.025751,4.025751,0.0,0.0,0.0,0.0,0.0,0.0,0.0,0.0,0.0,0.0,0.0,0.0,0.0,0.0,0.0,0.0,0,0,0,0,0,0,0,0,0,0,0,1,0,0,1,0,0
195841589,16.20435,16.098166,0.0,3.5e-44,-1.0,8.164815,0.7493449,1.0435971,nan,4,4.0245414,4.0245414,4.0245414,4.0245414,0.0,0.0,0.0,0.0,0.0,0.0,0.0,0.0,0.0,0.0,0.0,0.0,0.0,0.0,0.0,0.0,0,0,0,0,0,0,0,0,0,0,0,1,0,0,1,0,0
196041546,15.508665,16.097006,0.0,3.5e-44,-1.0,8.164815,0.748931,1.0436723,nan,4,4.0242515,4.0242515,4.0242515,4.0242515,0.0,0.0,0.0,0.0,0.0,0.0,0.0,0.0,0.0,0.0,0.0,0.0,0.0,0.0,0.0,0.0,0,0,0,0,0,0,0,0,0,0,0,1,0,0,1,0,0
196241548,16.153446,16.106136,0.0,3.5e-44,-1.0,8.164815,0.7521916,1.0430807,nan,4,4.026534,4.026534,4.026534,4.026534,0.0,0.0,0.0,0.0,0.0,0.0,0.0,0.0,0.0,0.0,0.0,0.0,0.0,0.0,0.0,0.0,0,0,0,0,0,0,0,0,0,0,0,1,0,0,1,0,0
196441635,16.144962,16.108603,0.0,3.5e-44,-1.0,8.164815,0.7530723,1.042921,nan,4,4.0271506,4.0271506,4.0271506,4.0271506,0.0,0.0,0.0,0.0,0.0,0.0,0.0,0.0,0.0,0.0,0.0,0.0,0.0,0.0,0.0,0.0,0,0,0,0,0,0,0,0,0,0,0,1,0,0,1,0,0
196641657,16.246769,16.110725,0.0,3.5e-44,-1.0,8.164815,0.7538305,1.0427835,nan,4,4.0276814,4.0276814,4.0276814,4.0276814,0.0,0.0,0.0,0.0,0.0,0.0,0.0,0.0,0.0,0.0,0.0,0.0,0.0,0.0,0.0,0.0,0,0,0,0,0,0,0,0,0,0,0,1,0,0,1,0,0
196841582,15.618957,16.102602,0.0,3.5e-44,-1.0,8.164815,0.7509294,1.0433096,nan,4,4.0256505,4.0256505,4.0256505,4.0256505,0.0,0.0,0.0,0.0,0.0,0.0,0.0,0.0,0.0,0.0,0.0,0.0,0.0,0.0,0.0,0.0,0,0,0,0,0,0,0,0,0,0,0,1,0,0,1,0,0
197041727,16.212833,16.113686,0.0,3.5e-44,-1.0,8.164815,0.7548881,1.0425919,nan,4,4.0284214,4.0284214,4.0284214,4.0284214,0.0,0.0,0.0,0.0,0.0,0.0,0.0,0.0,0.0,0.0,0.0,0.0,0.0,0.0,0.0,0.0,0,0,0,0,0,0,0,0,0,0,0,1,0,0,1,0,0
197241795,16.280704,16.118137,0.0,3.5e-44,-1.0,8.164815,0.7564779,1.042304,nan,4,4.0295343,4.0295343,4.0295343,4.0295343,0.0,0.0,0.0,0.0,0.0,0.0,0.0,0.0,0.0,0.0,0.0,0.0,0.0,0.0,0.0,0.0,0,0,0,0,0,0,0,0,0,0,0,1,0,0,1,0,0
197441852,16.212833,16.115564,0.0,3.5e-44,-1.0,8.164815,0.755559,1.0424705,nan,4,4.028891,4.028891,4.028891,4.028891,0.0,0.0,0.0,0.0,0.0,0.0,0.0,0.0,0.0,0.0,0.0,0.0,0.0,0.0,0.0,0.0,0,0,0,0,0,0,0,0,0,0,0,1,0,0,1,0,0
197641541,15.763184,16.108465,0.0,3.5e-44,-1.0,8.164815,0.7530237,1.0429299,nan,4,4.0271163,4.0271163,4.0271163,4.0271163,0.0,0.0,0.0,0.0,0.0,0.0,0.0,0.0,0.0,0.0,0.0,0.0,0.0,0.0,0.0,0.0,0,0,0,0,0,0,0,0,0,0,0,1,0,0,1,0,0
197841560,16.238285,16.116085,0.0,3.5e-44,-1.0,8.164815,0.755745,1.0424367,nan,4,4.0290213,4.0290213,4.0290213,4.0290213,0.0,0.0,0.0,0.0,0.0,0.0,0.0,0.0,0.0,0.0,0.0,0.0,0.0,0.0,0.0,0.0,0,0,0,0,0,0,0,0,0,0,0,1,0,0,1,0,0
198041549,16.187382,16.109938,0.0,3.5e-44,-1.0,8.164815,0.75354916,1.0428345,nan,4,4.0274844,4.0274844,4.0274844,4.0274844,0.0,0.0,0.0,0.0,0.0,0.0,0.0,0.0,0.0,0.0,0.0,0.0,0.0,0.0,0.0,0.0,0,0,0,0,0,0,0,0,0,0,0,1,0,0,1,0,0
198241563,15.729248,16.100115,0.0,3.5e-44,-1.0,8.164815,0.75004107,1.0434707,nan,4,4.0250287,4.0250287,4.0250287,4.0250287,0.0,0.0,0.0,0.0,0.0,0.0,0.0,0.0,0.0,0.0,0.0,0.0,0.0,0.0,0.0,0.0,0,0,0,0,0,0,0,0,0,0,0,1,0,0,1,0,0
198441542,16.238285,16.10803,0.0,3.5e-44,-1.0,8.164815,0.75286824,1.042958,nan,4,4.0270076,4.0270076,4.0270076,4.0270076,0.0,0.0,0.0,0.0,0.0,0.0,0.0,0.0,0.0,0.0,0.0,0.0,0.0,0.0,0.0,0.0,0,0,0,0,0,0,0,0,0,0,0,1,0,0,1,0,0
198641545,16.195866,16.110851,0.0,3.5e-44,-1.0,8.164815,0.7538758,1.0427754,nan,4,4.027713,4.027713,4.027713,4.027713,0.0,0.0,0.0,0.0,0.0,0.0,0.0,0.0,0.0,0.0,0.0,0.0,0.0,0.0,0.0,0.0,0,0,0,0,0,0,0,0,0,0,0,1,0,0,1,0,0
198841540,16.340092,16.10436,0.0,3.5e-44,-1.0,8.164815,0.7515574,1.0431957,nan,4,4.02609,4.02609,4.02609,4.02609,0.0,0.0,0.0,0.0,0.0,0.0,0.0,0.0,0.0,0.0,0.0,0.0,0.0,0.0,0.0,0.0,0,0,0,0,0,0,0,0,0,0,0,1,0,0,1,0,0
199041610,15.958315,16.10483,0.0,3.5e-44,-1.0,8.164815,0.75172526,1.0431653,nan,4,4.0262074,4.0262074,4.0262074,4.0262074,0.0,0.0,0.0,0.0,0.0,0.0,0.0,0.0,0.0,0.0,0.0,0.0,0.0,0.0,0.0,0.0,0,0,0,0,0,0,0,0,0,0,0,1,0,0,1,0,0
199241538,16.238285,16.116713,0.0,3.5e-44,-1.0,8.164815,0.7559691,1.0423962,nan,4,4.029178,4.029178,4.029178,4.029178,0.0,0.0,0.0,0.0,0.0,0.0,0.0,0.0,0.0,0.0,0.0,0.0,0.0,0.0,0.0,0.0,0,0,0,0,0,0,0,0,0,0,0,1,0,0,1,0,0
199441589,16.306158,16.119263,0.0,3.5e-44,-1.0,8.164815,0.75687987,1.0422312,nan,4,4.0298157,4.0298157,4.0298157,4.0298157,0.0,0.0,0.0,0.0,0.0,0.0,0.0,0.0,0.0,0.0,0.0,0.0,0.0,0.0,0.0,0.0,0,0,0,0,0,0,0,0,0,0,0,1,0,0,1,0,0
199641575,15.805604,16.101288,0.0,3.5e-44,-1.0,8.164815,0.7504602,1.0433948,nan,4,4.025322,4.025322,4.025322,4.025322,0.0,0.0,0.0,0.0,0.0,0.0,0.0,0.0,0.0,0.0,0.0,0.0,0.0,0.0,0.0,0.0,0,0,0,0,0,0,0,0,0,0,0,1,0,0,1,0,0
199841554,16.229801,16.096188,0.0,3.5e-44,-1.0,8.164815,0.7486387,1.0437254,nan,4,4.024047,4.024047,4.024047,4.024047,0.0,0.0,0.0,0.0,0.0,0.0,0.0,0.0,0.0,0.0,0.0,0.0,0.0,0.0,0.0,0.0,0,0,0,0,0,0,0,0,0,0,0,1,0,0,1,0,0
200041587,16.178898,16.103779,0.0,3.5e-44,-1.0,8.164815,0.75135,1.0432334,nan,4,4.0259447,4.0259447,4.0259447,4.0259447,0.0,0.0,0.0,0.0,0.0,0.0,0.0,0.0,0.0,0.0,0.0,0.0,0.0,0.0,0.0,0.0,0,0,0,0,0,0,0,0,0,0,0,1,0,0,1,0,0
200241536,16.187382,16.107634,0.0,3.5e-44,-1.0,8.164815,0.7527266,1.0429837,nan,4,4.0269084,4.0269084,4.0269084,4.0269084,0.0,0.0,0.0,0.0,0.0,0.0,0.0,0.0,0.0,0.0,0.0,0.0,0.0,0.0,0.0,0.0,0,0,0,0,0,0,0,0,0,0,0,1,0,0,1,0,0
200441553,16.153446,16.111208,0.0,3.5e-44,-1.0,8.164815,0.7540031,1.0427523,nan,4,4.027802,4.027802,4.027802,4.027802,0.0,0.0,0.0,0.0,0.0,0.0,0.0,0.0,0.0,0.0,0.0,0.0,0.0,0.0,0.0,0.0,0,0,0,0,0,0,0,0,0,0,0,1,0,0,1,0,0
200641538,16.238285,16.124067,0.0,3.5e-44,-1.0,8.164815,0.7585955,1.0419207,nan,4,4.031017,4.031017,4.031017,4.031017,0.0,0.0,0.0,0.0,0.0,0.0,0.0,0.0,0.0,0.0,0.0,0.0,0.0,0.0,0.0,0.0,0,0,0,0,0,0,0,0,0,0,0,1,0,0,1,0,0
200841677,16.212833,16.108768,0.0,3.5e-44,-1.0,8.164815,0.7531319,1.0429102,nan,4,4.027192,4.027192,4.027192,4.027192,0.0,0.0,0.0,0.0,0.0,0.0,0.0,0.0,0.0,0.0,0.0,0.0,0.0,0.0,0.0,0.0,0,0,0,0,0,0,0,0,0,0,0,1,0,0,1,0,0
201041559,16.348577,16.128147,0.0,3.5e-44,-1.0,8.164815,0.76005274,1.0416571,nan,4,4.032037,4.032037,4.032037,4.032037,0.0,0.0,0.0,0.0,0.0,0.0,0.0,0.0,0.0,0.0,0.0,0.0,0.0,0.0,0.0,0.0,0,0,0,0,0,0,0,0,0,0,0,1,0,0,1,0,0
201241610,15.652893,16.124065,0.0,3.5e-44,-1.0,8.164815,0.75859505,1.0419208,nan,4,4.0310163,4.0310163,4.0310163,4.0310163,0.0,0.0,0.0,0.0,0.0,0.0,0.0,0.0,0.0,0.0,0.0,0.0,0.0,0.0,0.0,0.0,0,0,0,0,0,0,0,0,0,0,0,1,0,0,1,0,0
201441587,16.212833,16.127922,0.0,3.5e-44,-1.0,8.164815,0.75997216,1.0416716,nan,4,4.0319805,4.0319805,4.0319805,4.0319805,0.0,0.0,0.0,0.0,0.0,0.0,0.0,0.0,0.0,0.0,0.0,0.0,0.0,0.0,0.0,0.0,0,0,0,0,0,0,0,0,0,0,0,1,0,0,1,0,0
201641852,16.246769,16.117458,0.0,3.5e-44,-1.0,8.164815,0.7562352,1.0423479,nan,4,4.0293646,4.0293646,4.0293646,4.0293646,0.0,0.0,0.0,0.0,0.0,0.0,0.0,0.0,0.0,0.0,0.0,0.0,0.0,0.0,0.0,0.0,0,0,0,0,0,0,0,0,0,0,0,1,0,0,1,0,0
201841881,16.212833,16.103886,0.0,3.5e-44,-1.0,8.164815,0.75138813,1.0432265,nan,4,4.0259714,4.0259714,4.0259714,4.0259714,0.0,0.0,0.0,0.0,0.0,0.0,0.0,0.0,0.0,0.0,0.0,0.0,0.0,0.0,0.0,0.0,0,0,0,0,0,0,0,0,0,0,0,1,0,0,1,0,0
202041944,15.949831,16.11441,0.0,3.5e-44,-1.0,8.164815,0.75514656,1.0425451,nan,4,4.0286026,4.0286026,4.0286026,4.0286026,0.0,0.0,0.0,0.0,0.0,0.0,0.0,0.0,0.0,0.0,0.0,0.0,0.0,0.0,0.0,0.0,0,0,0,0,0,0,0,0,0,0,0,1,0,0,1,0,0
202241944,16.229801,16.124546,0.0,3.5e-44,-1.0,8.164815,0.7587667,1.0418898,nan,4,4.0311365,4.0311365,4.0311365,4.0311365,0.0,0.0,0.0,0.0,0.0,0.0,0.0,0.0,0.0,0.0,0.0,0.0,0.0,0.0,0.0,0.0,0,0,0,0,0,0,0,0,0,0,0,1,0,0,1,0,0
202442011,16.20435,16.126778,0.0,3.5e-44,-1.0,8.164815,0.7595635,1.0417455,nan,4,4.0316944,4.0316944,4.0316944,4.0316944,0.0,0.0,0.0,0.0,0.0,0.0,0.0,0.0,0.0,0.0,0.0,0.0,0.0,0.0,0.0,0.0,0,0,0,0,0,0,0,0,0,0,0,1,0,0,1,0,0
202642148,16.170414,16.122534,0.0,3.5e-44,-1.0,8.164815,0.7580481,1.0420198,nan,4,4.0306334,4.0306334,4.0306334,4.0306334,0.0,0.0,0.0,0.0,0.0,0.0,0.0,0.0,0.0,0.0,0.0,0.0,0.0,0.0,0.0,0.0,0,0,0,0,0,0,0,0,0,0,0,1,0,0,1,0,0
202841544,16.212833,16.113008,0.0,3.5e-44,-1.0,8.164815,0.7546459,1.0426358,nan,4,4.028252,4.028252,4.028252,4.028252,0.0,0.0,0.0,0.0,0.0,0.0,0.0,0.0,0.0,0.0,0.0,0.0,0.0,0.0,0.0,0.0,0,0,0,0,0,0,0,0,0,0,0,1,0,0,1,0,0
203041544,16.289188,16.123894,0.0,3.5e-44,-1.0,8.164815,0.75853354,1.0419319,nan,4,4.0309734,4.0309734,4.0309734,4.0309734,0.0,0.0,0.0,0.0,0.0,0.0,0.0,0.0,0.0,0.0,0.0,0.0,0.0,0.0,0.0,0.0,0,0,0,0,0,0,0,0,0,0,0,1,0,0,1,0,0
203241543,16.246769,16.129324,0.0,3.5e-44,-1.0,8.164815,0.76047283,1.0415812,nan,4,4.032331,4.032331,4.032331,4.032331,0.0,0.0,0.0,0.0,0.0,0.0,0.0,0.0,0.0,0.0,0.0,0.0,0.0,0.0,0.0,0.0,0,0,0,0,0,0,0,0,0,0,0,1,0,0,1,0,0
203441538,16.212833,16.12724,0.0,3.5e-44,-1.0,8.164815,0.7597285,1.0417157,nan,4,4.03181,4.03181,4.03181,4.03181,0.0,0.0,0.0,0.0,0.0,0.0,0.0,0.0,0.0,0.0,0.0,0.0,0.0,0.0,0.0,0.0,0,0,0,0,0,0,0,0,0,0,0,1,0,0,1,0,0
203641543,16.357061,16.13503,0.0,3.5e-44,-1.0,8.164815,0.7625113,1.0412127,nan,4,4.0337577,4.0337577,4.0337577,4.0337577,0.0,0.0,0.0,0.0,0.0,0.0,0.0,0.0,0.0,0.0,0.0,0.0,0.0,0.0,0.0,0.0,0,0,0,0,0,0,0,0,0,0,0,1,0,0,1,0,0
203841538,16.221317,16.10446,0.0,3.5e-44,-1.0,8.164815,0.7515932,1.0431893,nan,4,4.026115,4.026115,4.026115,4.026115,0.0,0.0,0.0,0.0,0.0,0.0,0.0,0.0,0.0,0.0,0.0,0.0,0.0,0.0,0.0,0.0,0,0,0,0,0,0,0,0,0,0,0,1,0,0,1,0,0
204041560,16.340092,16.11479,0.0,3.5e-44,-1.0,8.164815,0.75528246,1.0425205,nan,4,4.0286975,4.0286975,4.0286975,4.0286975,0.0,0.0,0.0,0.0,0.0,0.0,0.0,0.0,0.0,0.0,0.0,0.0,0.0,0.0,0.0,0.0,0,0,0,0,0,0,0,0,0,0,0,1,0,0,1,0,0
204241590,15.88196,16.117582,0.0,3.5e-44,-1.0,8.164815,0.7562795,1.0423399,nan,4,4.0293956,4.0293956,4.0293956,4.0293956,0.0,0.0,0.0,0.0,0.0,0.0,0.0,0.0,0.0,0.0,0.0,0.0,0.0,0.0,0.0,0.0,0,0,0,0,0,0,0,0,0,0,0,1,0,0,1,0,0
204441639,16.263739,16.119818,0.0,3.5e-44,-1.0,8.164815,0.75707775,1.0421953,nan,4,4.0299544,4.0299544,4.0299544,4.0299544,0.0,0.0,0.0,0.0,0.0,0.0,0.0,0.0,0.0,0.0,0.0,0.0,0.0,0.0,0.0,0.0,0,0,0,0,0,0,0,0,0,0,0,1,0,0,1,0,0
204641535,16.20435,16.111753,0.0,3.5e-44,-1.0,8.164815,0.75419766,1.042717,nan,4,4.0279384,4.0279384,4.0279384,4.0279384,0.0,0.0,0.0,0.0,0.0,0.0,0.0,0.0,0.0,0.0,0.0,0.0,0.0,0.0,0.0,0.0,0,0,0,0,0,0,0,0,0,0,0,1,0,0,1,0,0
204841545,16.229801,16.095531,0.0,3.5e-44,-1.0,8.164815,0.7484041,1.0437679,nan,4,4.023883,4.023883,4.023883,4.023883,0.0,0.0,0.0,0.0,0.0,0.0,0.0,0.0,0.0,0.0,0.0,0.0,0.0,0.0,0.0,0.0,0,0,0,0,0,0,0,0,0,0,0,1,0,0,1,0,0
205041556,15.805604,16.117973,0.0,3.5e-44,-1.0,8.164815,0.75641924,1.0423146,nan,4,4.0294933,4.0294933,4.0294933,4.0294933,0.0,0.0,0.0,0.0,0.0,0.0,0.0,0.0,0.0,0.0,0.0,0.0,0.0,0.0,0.0,0.0,0,0,0,0,0,0,0,0,0,0,0,1,0,0,1,0,0
205241539,16.238285,16.125559,0.0,3.5e-44,-1.0,8.164815,0.75912815,1.0418243,nan,4,4.0313897,4.0313897,4.0313897,4.0313897,0.0,0.0,0.0,0.0,0.0,0.0,0.0,0.0,0.0,0.0,0.0,0.0,0.0,0.0,0.0,0.0,0,0,0,0,0,0,0,0,0,0,0,1,0,0,1,0,0
205441535,16.357061,16.130396,0.0,3.5e-44,-1.0,8.164815,0.76085573,1.0415119,nan,4,4.032599,4.032599,4.032599,4.032599,0.0,0.0,0.0,0.0,0.0,0.0,0.0,0.0,0.0,0.0,0.0,0.0,0.0,0.0,0.0,0.0,0,0,0,0,0,0,0,0,0,0,0,1,0,0,1,0,0
205641581,16.000734,16.124805,0.0,3.5e-44,-1.0,8.164815,0.7588592,1.041873,nan,4,4.0312014,4.0312014,4.0312014,4.0312014,0.0,0.0,0.0,0.0,0.0,0.0,0.0,0.0,0.0,0.0,0.0,0.0,0.0,0.0,0.0,0.0,0,0,0,0,0,0,0,0,0,0,0,1,0,0,1,0,0
205841669,16.306158,16.131487,0.0,3.5e-44,-1.0,8.164815,0.7612453,1.0414414,nan,4,4.0328717,4.0328717,4.0328717,4.0328717,0.0,0.0,0.0,0.0,0.0,0.0,0.0,0.0,0.0,0.0,0.0,0.0,0.0,0.0,0.0,0.0,0,0,0,0,0,0,0,0,0,0,0,1,0,0,1,0,0
206041538,16.238285,16.121353,0.0,3.5e-44,-1.0,8.164815,0.7576261,1.0420961,nan,4,4.0303383,4.0303383,4.0303383,4.0303383,0.0,0.0,0.0,0.0,0.0,0.0,0.0,0.0,0.0,0.0,0.0,0.0,0.0,0.0,0.0,0.0,0,0,0,0,0,0,0,0,0,0,0,1,0,0,1,0,0
206241603,16.27222,16.128588,0.0,3.5e-44,-1.0,8.164815,0.7602101,1.0416287,nan,4,4.032147,4.032147,4.032147,4.032147,0.0,0.0,0.0,0.0,0.0,0.0,0.0,0.0,0.0,0.0,0.0,0.0,0.0,0.0,0.0,0.0,0,0,0,0,0,0,0,0,0,0,0,1,0,0,1,0,0
206441530,16.195866,16.123783,0.0,3.5e-44,-1.0,8.164815,0.75849396,1.041939,nan,4,4.030946,4.030946,4.030946,4.030946,0.0,0.0,0.0,0.0,0.0,0.0,0.0,0.0,0.0,0.0,0.0,0.0,0.0,0.0,0.0,0.0,0,0,0,0,0,0,0,0,0,0,0,1,0,0,1,0,0
206641642,16.246769,16.12526,0.0,3.5e-44,-1.0,8.164815,0.75902134,1.0418437,nan,4,4.031315,4.031315,4.031315,4.031315,0.0,0.0,0.0,0.0,0.0,0.0,0.0,0.0,0.0,0.0,0.0,0.0,0.0,0.0,0.0,0.0,0,0,0,0,0,0,0,0,0,0,0,1,0,0,1,0,0
206841546,16.27222,16.116913,0.0,3.5e-44,-1.0,8.164815,0.75604063,1.0423832,nan,4,4.029228,4.029228,4.029228,4.029228,0.0,0.0,0.0,0.0,0.0,0.0,0.0,0.0,0.0,0.0,0.0,0.0,0.0,0.0,0.0,0.0,0,0,0,0,0,0,0,0,0,0,0,1,0,0,1,0,0
207041734,16.27222,16.112272,0.0,3.5e-44,-1.0,8.164815,0.75438315,1.0426835,nan,4,4.028068,4.028068,4.028068,4.028068,0.0,0.0,0.0,0.0,0.0,0.0,0.0,0.0,0.0,0.0,0.0,0.0,0.0,0.0,0.0,0.0,0,0,0,0,0,0,0,0,0,0,0,1,0,0,1,0,0
207241658,15.627441,16.107513,0.0,3.5e-44,-1.0,8.164815,0.7526837,1.0429915,nan,4,4.0268784,4.0268784,4.0268784,4.0268784,0.0,0.0,0.0,0.0,0.0,0.0,0.0,0.0,0.0,0.0,0.0,0.0,0.0,0.0,0.0,0.0,0,0,0,0,0,0,0,0,0,0,0,1,0,0,1,0,0
207441743,16.323124,16.12153,0.0,3.5e-44,-1.0,8.164815,0.75768954,1.0420846,nan,4,4.0303826,4.0303826,4.0303826,4.0303826,0.0,0.0,0.0,0.0,0.0,0.0,0.0,0.0,0.0,0.0,0.0,0.0,0.0,0.0,0.0,0.0,0,0,0,0,0,0,0,0,0,0,0,1,0,0,1,0,0
207641819,16.27222,16.109304,0.0,3.5e-44,-1.0,8.164815,0.75332314,1.0428755,nan,4,4.027326,4.027326,4.027326,4.027326,0.0,0.0,0.0,0.0,0.0,0.0,0.0,0.0,0.0,0.0,0.0,0.0,0.0,0.0,0.0,0.0,0,0,0,0,0,0,0,0,0,0,0,1,0,0,1,0,0
207841815,15.9158945,16.101278,0.0,3.5e-44,-1.0,8.164815,0.75045687,1.0433954,nan,4,4.0253196,4.0253196,4.0253196,4.0253196,0.0,0.0,0.0,0.0,0.0,0.0,0.0,0.0,0.0,0.0,0.0,0.0,0.0,0.0,0.0,0.0,0,0,0,0,0,0,0,0,0,0,0,1,0,0,1,0,0
208041547,15.610473,16.104618,0.0,3.5e-44,-1.0,8.164815,0.75164944,1.043179,nan,4,4.0261545,4.0261545,4.0261545,4.0261545,0.0,0.0,0.0,0.0,0.0,0.0,0.0,0.0,0.0,0.0,0.0,0.0,0.0,0.0,0.0,0.0,0,0,0,0,0,0,0,0,0,0,0,1,0,0,1,0,0
208241543,16.33161,16.115553,0.0,3.5e-44,-1.0,8.164815,0.75555474,1.0424712,nan,4,4.028888,4.028888,4.028888,4.028888,0.0,0.0,0.0,0.0,0.0,0.0,0.0,0.0,0.0,0.0,0.0,0.0,0.0,0.0,0.0,0.0,0,0,0,0,0,0,0,0,0,0,0,1,0,0,1,0,0
208441543,16.187382,16.114368,0.0,3.5e-44,-1.0,8.164815,0.7551318,1.0425478,nan,4,4.028592,4.028592,4.028592,4.028592,0.0,0.0,0.0,0.0,0.0,0.0,0.0,0.0,0.0,0.0,0.0,0.0,0.0,0.0,0.0,0.0,0,0,0,0,0,0,0,0,0,0,0,1,0,0,1,0,0
208641542,16.229801,16.11538,0.0,3.5e-44,-1.0,8.164815,0.75549275,1.0424824,nan,4,4.028845,4.028845,4.028845,4.028845,0.0,0.0,0.0,0.0,0.0,0.0,0.0,0.0,0.0,0.0,0.0,0.0,0.0,0.0,0.0,0.0,0,0,0,0,0,0,0,0,0,0,0,1,0,0,1,0,0
208841545,16.127995,16.117018,0.0,3.5e-44,-1.0,8.164815,0.7560778,1.0423764,nan,4,4.0292544,4.0292544,4.0292544,4.0292544,0.0,0.0,0.0,0.0,0.0,0.0,0.0,0.0,0.0,0.0,0.0,0.0,0.0,0.0,0.0,0.0,0,0,0,0,0,0,0,0,0,0,0,1,0,0,1,0,0
209041568,16.323124,16.116127,0.0,3.5e-44,-1.0,8.164815,0.7557598,1.042434,nan,4,4.0290318,4.0290318,4.0290318,4.0290318,0.0,0.0,0.0,0.0,0.0,0.0,0.0,0.0,0.0,0.0,0.0,0.0,0.0,0.0,0.0,0.0,0,0,0,0,0,0,0,0,0,0,0,1,0,0,1,0,0
209241547,16.306158,16.117416,0.0,3.5e-44,-1.0,8.164815,0.7562204,1.0423506,nan,4,4.029354,4.029354,4.029354,4.029354,0.0,0.0,0.0,0.0,0.0,0.0,0.0,0.0,0.0,0.0,0.0,0.0,0.0,0.0,0.0,0.0,0,0,0,0,0,0,0,0,0,0,0,1,0,0,1,0,0
209441600,16.357061,16.119293,0.0,3.5e-44,-1.0,8.164815,0.75689083,1.0422293,nan,4,4.0298233,4.0298233,4.0298233,4.0298233,0.0,0.0,0.0,0.0,0.0,0.0,0.0,0.0,0.0,0.0,0.0,0.0,0.0,0.0,0.0,0.0,0,0,0,0,0,0,0,0,0,0,0,1,0,0,1,0,0
209641543,16.238285,16.133387,0.0,3.5e-44,-1.0,8.164815,0.76192385,1.0413188,nan,4,4.0333467,4.0333467,4.0333467,4.0333467,0.0,0.0,0.0,0.0,0.0,0.0,0.0,0.0,0.0,0.0,0.0,0.0,0.0,0.0,0.0,0.0,0,0,0,0,0,0,0,0,0,0,0,1,0,0,1,0,0
209851546,16.323124,16.121784,0.0,3.5e-44,-1.0,8.164815,0.75778013,1.0420682,nan,4,4.030446,4.030446,4.030446,4.030446,0.0,0.0,0.0,0.0,0.0,0.0,0.0,0.0,0.0,0.0,0.0,0.0,0.0,0.0,0.0,0.0,0,0,0,0,0,0,0,0,0,0,0,1,0,0,1,0,0
210041689,16.238285,16.12982,0.0,3.5e-44,-1.0,8.164815,0.7606502,1.0415491,nan,4,4.032455,4.032455,4.032455,4.032455,0.0,0.0,0.0,0.0,0.0,0.0,0.0,0.0,0.0,0.0,0.0,0.0,0.0,0.0,0.0,0.0,0,0,0,0,0,0,0,0,0,0,0,1,0,0,1,0,0
210241541,15.635924,16.13665,0.0,3.5e-44,-1.0,8.164815,0.7630897,1.0411083,nan,4,4.0341625,4.0341625,4.0341625,4.0341625,0.0,0.0,0.0,0.0,0.0,0.0,0.0,0.0,0.0,0.0,0.0,0.0,0.0,0.0,0.0,0.0,0,0,0,0,0,0,0,0,0,0,0,1,0,0,1,0,0
210442088,16.20435,16.13808,0.0,3.5e-44,-1.0,8.164815,0.7636004,1.041016,nan,4,4.03452,4.03452,4.03452,4.03452,0.0,0.0,0.0,0.0,0.0,0.0,0.0,0.0,0.0,0.0,0.0,0.0,0.0,0.0,0.0,0.0,0,0,0,0,0,0,0,0,0,0,0,1,0,0,1,0,0
210641601,16.127995,16.132215,0.0,3.5e-44,-1.0,8.164815,0.76150566,1.0413945,nan,4,4.033054,4.033054,4.033054,4.033054,0.0,0.0,0.0,0.0,0.0,0.0,0.0,0.0,0.0,0.0,0.0,0.0,0.0,0.0,0.0,0.0,0,0,0,0,0,0,0,0,0,0,0,1,0,0,1,0,0
210842058,16.127995,16.119696,0.0,3.5e-44,-1.0,8.164815,0.75703436,1.0422033,nan,4,4.029924,4.029924,4.029924,4.029924,0.0,0.0,0.0,0.0,0.0,0.0,0.0,0.0,0.0,0.0,0.0,0.0,0.0,0.0,0.0,0.0,0,0,0,0,0,0,0,0,0,0,0,1,0,0,1,0,0
211041816,15.635924,16.118608,0.0,3.5e-44,-1.0,8.164815,0.7566462,1.0422735,nan,4,4.029652,4.029652,4.029652,4.029652,0.0,0.0,0.0,0.0,0.0,0.0,0.0,0.0,0.0,0.0,0.0,0.0,0.0,0.0,0.0,0.0,0,0,0,0,0,0,0,0,0,0,0,1,0,0,1,0,0
211242238,16.31464,16.122414,0.0,3.5e-44,-1.0,8.164815,0.7580052,1.0420276,nan,4,4.0306034,4.0306034,4.0306034,4.0306034,0.0,0.0,0.0,0.0,0.0,0.0,0.0,0.0,0.0,0.0,0.0,0.0,0.0,0.0,0.0,0.0,0,0,0,0,0,0,0,0,0,0,0,1,0,0,1,0,0
211441862,16.136478,16.117563,0.0,3.5e-44,-1.0,8.164815,0.75627285,1.0423411,nan,4,4.029391,4.029391,4.029391,4.029391,0.0,0.0,0.0,0.0,0.0,0.0,0.0,0.0,0.0,0.0,0.0,0.0,0.0,0.0,0.0,0.0,0,0,0,0,0,0,0,0,0,0,0,1,0,0,1,0,0
211642214,16.297672,16.099873,0.0,3.5e-44,-1.0,8.164815,0.74995476,1.0434865,nan,4,4.024968,4.024968,4.024968,4.024968,0.0,0.0,0.0,0.0,0.0,0.0,0.0,0.0,0.0,0.0,0.0,0.0,0.0,0.0,0.0,0.0,0,0,0,0,0,0,0,0,0,0,0,1,0,0,1,0,0
211842104,16.229801,16.103666,0.0,3.5e-44,-1.0,8.164815,0.75130945,1.0432407,nan,4,4.0259166,4.0259166,4.0259166,4.0259166,0.0,0.0,0.0,0.0,0.0,0.0,0.0,0.0,0.0,0.0,0.0,0.0,0.0,0.0,0.0,0.0,0,0,0,0,0,0,0,0,0,0,0,1,0,0,1,0,0
212042368,16.365543,16.099855,0.0,3.5e-44,-1.0,8.164815,0.74994856,1.0434875,nan,4,4.024964,4.024964,4.024964,4.024964,0.0,0.0,0.0,0.0,0.0,0.0,0.0,0.0,0.0,0.0,0.0,0.0,0.0,0.0,0.0,0.0,0,0,0,0,0,0,0,0,0,0,0,1,0,0,1,0,0
212242369,16.221317,16.10812,0.0,3.5e-44,-1.0,8.164815,0.7529002,1.0429522,nan,4,4.02703,4.02703,4.02703,4.02703,0.0,0.0,0.0,0.0,0.0,0.0,0.0,0.0,0.0,0.0,0.0,0.0,0.0,0.0,0.0,0.0,0,0,0,0,0,0,0,0,0,0,0,1,0,0,1,0,0
212442248,15.652893,16.109749,0.0,3.5e-44,-1.0,8.164815,0.7534819,1.0428468,nan,4,4.027437,4.027437,4.027437,4.027437,0.0,0.0,0.0,0.0,0.0,0.0,0.0,0.0,0.0,0.0,0.0,0.0,0.0,0.0,0.0,0.0,0,0,0,0,0,0,0,0,0,0,0,1,0,0,1,0,0
212642511,16.33161,16.128933,0.0,3.5e-44,-1.0,8.164815,0.7603336,1.0416063,nan,4,4.032233,4.032233,4.032233,4.032233,0.0,0.0,0.0,0.0,0.0,0.0,0.0,0.0,0.0,0.0,0.0,0.0,0.0,0.0,0.0,0.0,0,0,0,0,0,0,0,0,0,0,0,1,0,0,1,0,0
212842464,16.297672,16.122446,0.0,3.5e-44,-1.0,8.164815,0.75801665,1.0420254,nan,4,4.0306115,4.0306115,4.0306115,4.0306115,0.0,0.0,0.0,0.0,0.0,0.0,0.0,0.0,0.0,0.0,0.0,0.0,0.0,0.0,0.0,0.0,0,0,0,0,0,0,0,0,0,0,0,1,0,0,1,0,0
213042755,16.263739,16.122408,0.0,3.5e-44,-1.0,8.164815,0.7580028,1.042028,nan,4,4.030602,4.030602,4.030602,4.030602,0.0,0.0,0.0,0.0,0.0,0.0,0.0,0.0,0.0,0.0,0.0,0.0,0.0,0.0,0.0,0.0,0,0,0,0,0,0,0,0,0,0,0,1,0,0,1,0,0
213241543,15.517149,16.118618,0.0,3.5e-44,-1.0,8.164815,0.75664955,1.0422729,nan,4,4.0296545,4.0296545,4.0296545,4.0296545,0.0,0.0,0.0,0.0,0.0,0.0,0.0,0.0,0.0,0.0,0.0,0.0,0.0,0.0,0.0,0.0,0,0,0,0,0,0,0,0,0,0,0,1,0,0,1,0,0
213441537,16.136478,16.130438,0.0,3.5e-44,-1.0,8.164815,0.760871,1.0415092,nan,4,4.0326095,4.0326095,4.0326095,4.0326095,0.0,0.0,0.0,0.0,0.0,0.0,0.0,0.0,0.0,0.0,0.0,0.0,0.0,0.0,0.0,0.0,0,0,0,0,0,0,0,0,0,0,0,1,0,0,1,0,0
213641545,16.178898,16.11028,0.0,3.5e-44,-1.0,8.164815,0.7536712,1.0428125,nan,4,4.02757,4.02757,4.02757,4.02757,0.0,0.0,0.0,0.0,0.0,0.0,0.0,0.0,0.0,0.0,0.0,0.0,0.0,0.0,0.0,0.0,0,0,0,0,0,0,0,0,0,0,0,1,0,0,1,0,0
213841532,16.246769,16.103527,0.0,3.5e-44,-1.0,8.164815,0.75125986,1.0432496,nan,4,4.025882,4.025882,4.025882,4.025882,0.0,0.0,0.0,0.0,0.0,0.0,0.0,0.0,0.0,0.0,0.0,0.0,0.0,0.0,0.0,0.0,0,0,0,0,0,0,0,0,0,0,0,1,0,0,1,0,0
214041538,15.551085,16.109484,0.0,3.5e-44,-1.0,8.164815,0.75338703,1.042864,nan,4,4.027371,4.027371,4.027371,4.027371,0.0,0.0,0.0,0.0,0.0,0.0,0.0,0.0,0.0,0.0,0.0,0.0,0.0,0.0,0.0,0.0,0,0,0,0,0,0,0,0,0,0,0,1,0,0,1,0,0
214241543,16.263739,16.120356,0.0,3.5e-44,-1.0,8.164815,0.7572699,1.0421606,nan,4,4.030089,4.030089,4.030089,4.030089,0.0,0.0,0.0,0.0,0.0,0.0,0.0,0.0,0.0,0.0,0.0,0.0,0.0,0.0,0.0,0.0,0,0,0,0,0,0,0,0,0,0,0,1,0,0,1,0,0
214441582,16.297672,16.119904,0.0,3.5e-44,-1.0,8.164815,0.75710875,1.0421898,nan,4,4.029976,4.029976,4.029976,4.029976,0.0,0.0,0.0,0.0,0.0,0.0,0.0,0.0,0.0,0.0,0.0,0.0,0.0,0.0,0.0,0.0,0,0,0,0,0,0,0,0,0,0,0,1,0,0,1,0,0
214641715,16.323124,16.124058,0.0,3.5e-44,-1.0,8.164815,0.7585922,1.0419213,nan,4,4.0310144,4.0310144,4.0310144,4.0310144,0.0,0.0,0.0,0.0,0.0,0.0,0.0,0.0,0.0,0.0,0.0,0.0,0.0,0.0,0.0,0.0,0,0,0,0,0,0,0,0,0,0,0,1,0,0,1,0,0
214841546,16.195866,16.13049,0.0,3.5e-44,-1.0,8.164815,0.7608891,1.0415058,nan,4,4.0326223,4.0326223,4.0326223,4.0326223,0.0,0.0,0.0,0.0,0.0,0.0,0.0,0.0,0.0,0.0,0.0,0.0,0.0,0.0,0.0,0.0,0,0,0,0,0,0,0,0,0,0,0,1,0,0,1,0,0
215041596,16.255253,16.130014,0.0,3.5e-44,-1.0,8.164815,0.76071984,1.0415366,nan,4,4.0325036,4.0325036,4.0325036,4.0325036,0.0,0.0,0.0,0.0,0.0,0.0,0.0,0.0,0.0,0.0,0.0,0.0,0.0,0.0,0.0,0.0,0,0,0,0,0,0,0,0,0,0,0,1,0,0,1,0,0
215241538,16.20435,16.128069,0.0,3.5e-44,-1.0,8.164815,0.7600246,1.0416622,nan,4,4.032017,4.032017,4.032017,4.032017,0.0,0.0,0.0,0.0,0.0,0.0,0.0,0.0,0.0,0.0,0.0,0.0,0.0,0.0,0.0,0.0,0,0,0,0,0,0,0,0,0,0,0,1,0,0,1,0,0
215441540,15.712281,16.123163,0.0,3.5e-44,-1.0,8.164815,0.7582727,1.0419791,nan,4,4.030791,4.030791,4.030791,4.030791,0.0,0.0,0.0,0.0,0.0,0.0,0.0,0.0,0.0,0.0,0.0,0.0,0.0,0.0,0.0,0.0,0,0,0,0,0,0,0,0,0,0,0,1,0,0,1,0,0
215641538,16.306158,16.136938,0.0,3.5e-44,-1.0,8.164815,0.76319224,1.0410897,nan,4,4.0342345,4.0342345,4.0342345,4.0342345,0.0,0.0,0.0,0.0,0.0,0.0,0.0,0.0,0.0,0.0,0.0,0.0,0.0,0.0,0.0,0.0,0,0,0,0,0,0,0,0,0,0,0,1,0,0,1,0,0
215841701,16.348577,16.121693,0.0,3.5e-44,-1.0,8.164815,0.7577477,1.0420742,nan,4,4.030423,4.030423,4.030423,4.030423,0.0,0.0,0.0,0.0,0.0,0.0,0.0,0.0,0.0,0.0,0.0,0.0,0.0,0.0,0.0,0.0,0,0,0,0,0,0,0,0,0,0,0,1,0,0,1,0,0
216041538,16.20435,16.115921,0.0,3.5e-44,-1.0,8.164815,0.75568634,1.0424473,nan,4,4.0289803,4.0289803,4.0289803,4.0289803,0.0,0.0,0.0,0.0,0.0,0.0,0.0,0.0,0.0,0.0,0.0,0.0,0.0,0.0,0.0,0.0,0,0,0,0,0,0,0,0,0,0,0,1,0,0,1,0,0
216241540,15.737732,16.111914,0.0,3.5e-44,-1.0,8.164815,0.7542549,1.0427066,nan,4,4.0279784,4.0279784,4.0279784,4.0279784,0.0,0.0,0.0,0.0,0.0,0.0,0.0,0.0,0.0,0.0,0.0,0.0,0.0,0.0,0.0,0.0,0,0,0,0,0,0,0,0,0,0,0,1,0,0,1,0,0
216441509,16.255253,16.120304,0.0,3.5e-44,-1.0,8.164815,0.7572518,1.042164,nan,4,4.030076,4.030076,4.030076,4.030076,0.0,0.0,0.0,0.0,0.0,0.0,0.0,0.0,0.0,0.0,0.0,0.0,0.0,0.0,0.0,0.0,0,0,0,0,0,0,0,0,0,0,0,1,0,0,1,0,0
216641593,16.31464,16.114523,0.0,3.5e-44,-1.0,8.164815,0.7551871,1.0425378,nan,4,4.0286307,4.0286307,4.0286307,4.0286307,0.0,0.0,0.0,0.0,0.0,0.0,0.0,0.0,0.0,0.0,0.0,0.0,0.0,0.0,0.0,0.0,0,0,0,0,0,0,0,0,0,0,0,1,0,0,1,0,0
216841563,15.635924,16.10981,0.0,3.5e-44,-1.0,8.164815,0.75350386,1.0428427,nan,4,4.0274525,4.0274525,4.0274525,4.0274525,0.0,0.0,0.0,0.0,0.0,0.0,0.0,0.0,0.0,0.0,0.0,0.0,0.0,0.0,0.0,0.0,0,0,0,0,0,0,0,0,0,0,0,1,0,0,1,0,0
217041538,16.238285,16.121286,0.0,3.5e-44,-1.0,8.164815,0.7576023,1.0421004,nan,4,4.0303216,4.0303216,4.0303216,4.0303216,0.0,0.0,0.0,0.0,0.0,0.0,0.0,0.0,0.0,0.0,0.0,0.0,0.0,0.0,0.0,0.0,0,0,0,0,0,0,0,0,0,0,0,1,0,0,1,0,0
217241617,16.348577,16.1292,0.0,3.5e-44,-1.0,8.164815,0.76042897,1.0415891,nan,4,4.0323,4.0323,4.0323,4.0323,0.0,0.0,0.0,0.0,0.0,0.0,0.0,0.0,0.0,0.0,0.0,0.0,0.0,0.0,0.0,0.0,0,0,0,0,0,0,0,0,0,0,0,1,0,0,1,0,0
217441721,16.111025,16.122,0.0,3.5e-44,-1.0,8.164815,0.7578574,1.0420543,nan,4,4.0305,4.0305,4.0305,4.0305,0.0,0.0,0.0,0.0,0.0,0.0,0.0,0.0,0.0,0.0,0.0,0.0,0.0,0.0,0.0,0.0,0,0,0,0,0,0,0,0,0,0,0,1,0,0,1,0,0
217641627,16.195866,16.109566,0.0,3.5e-44,-1.0,8.164815,0.7534166,1.0428586,nan,4,4.0273914,4.0273914,4.0273914,4.0273914,0.0,0.0,0.0,0.0,0.0,0.0,0.0,0.0,0.0,0.0,0.0,0.0,0.0,0.0,0.0,0.0,0,0,0,0,0,0,0,0,0,0,0,1,0,0,1,0,0
217841727,16.280704,16.109104,0.0,3.5e-44,-1.0,8.164815,0.7532516,1.0428885,nan,4,4.027276,4.027276,4.027276,4.027276,0.0,0.0,0.0,0.0,0.0,0.0,0.0,0.0,0.0,0.0,0.0,0.0,0.0,0.0,0.0,0.0,0,0,0,0,0,0,0,0,0,0,0,1,0,0,1,0,0
218041856,16.263739,16.12048,0.0,3.5e-44,-1.0,8.164815,0.75731426,1.0421525,nan,4,4.03012,4.03012,4.03012,4.03012,0.0,0.0,0.0,0.0,0.0,0.0,0.0,0.0,0.0,0.0,0.0,0.0,0.0,0.0,0.0,0.0,0,0,0,0,0,0,0,0,0,0,0,1,0,0,1,0,0
218241539,16.229801,16.110126,0.0,3.5e-44,-1.0,8.164815,0.75361687,1.0428224,nan,4,4.0275316,4.0275316,4.0275316,4.0275316,0.0,0.0,0.0,0.0,0.0,0.0,0.0,0.0,0.0,0.0,0.0,0.0,0.0,0.0,0.0,0.0,0,0,0,0,0,0,0,0,0,0,0,1,0,0,1,0,0
218441540,15.559568,16.103016,0.0,3.5e-44,-1.0,8.164815,0.75107723,1.0432827,nan,4,4.025754,4.025754,4.025754,4.025754,0.0,0.0,0.0,0.0,0.0,0.0,0.0,0.0,0.0,0.0,0.0,0.0,0.0,0.0,0.0,0.0,0,0,0,0,0,0,0,0,0,0,0,1,0,0,1,0,0
218641542,16.33161,16.109732,0.0,3.5e-44,-1.0,8.164815,0.7534757,1.0428479,nan,4,4.027433,4.027433,4.027433,4.027433,0.0,0.0,0.0,0.0,0.0,0.0,0.0,0.0,0.0,0.0,0.0,0.0,0.0,0.0,0.0,0.0,0,0,0,0,0,0,0,0,0,0,0,1,0,0,1,0,0
218841547,16.255253,16.093554,0.0,3.5e-44,-1.0,8.164815,0.7476979,1.0438962,nan,4,4.0233884,4.0233884,4.0233884,4.0233884,0.0,0.0,0.0,0.0,0.0,0.0,0.0,0.0,0.0,0.0,0.0,0.0,0.0,0.0,0.0,0.0,0,0,0,0,0,0,0,0,0,0,0,1,0,0,1,0,0
219041536,16.357061,16.101204,0.0,3.5e-44,-1.0,8.164815,0.75043017,1.0434002,nan,4,4.025301,4.025301,4.025301,4.025301,0.0,0.0,0.0,0.0,0.0,0.0,0.0,0.0,0.0,0.0,0.0,0.0,0.0,0.0,0.0,0.0,0,0,0,0,0,0,0,0,0,0,0,1,0,0,1,0,0
219241547,15.618957,16.113358,0.0,3.5e-44,-1.0,8.164815,0.7547708,1.0426131,nan,4,4.0283394,4.0283394,4.0283394,4.0283394,0.0,0.0,0.0,0.0,0.0,0.0,0.0,0.0,0.0,0.0,0.0,0.0,0.0,0.0,0.0,0.0,0,0,0,0,0,0,0,0,0,0,0,1,0,0,1,0,0
219441546,16.263739,16.110558,0.0,3.5e-44,-1.0,8.164815,0.7537709,1.0427943,nan,4,4.0276394,4.0276394,4.0276394,4.0276394,0.0,0.0,0.0,0.0,0.0,0.0,0.0,0.0,0.0,0.0,0.0,0.0,0.0,0.0,0.0,0.0,0,0,0,0,0,0,0,0,0,0,0,1,0,0,1,0,0
219641597,16.111025,16.099142,0.0,3.5e-44,-1.0,8.164815,0.74969393,1.0435338,nan,4,4.0247855,4.0247855,4.0247855,4.0247855,0.0,0.0,0.0,0.0,0.0,0.0,0.0,0.0,0.0,0.0,0.0,0.0,0.0,0.0,0.0,0.0,0,0,0,0,0,0,0,0,0,0,0,1,0,0,1,0,0
219841538,16.212833,16.085213,0.0,3.5e-44,-1.0,8.164815,0.7447191,1.0444375,nan,4,4.021303,4.021303,4.021303,4.021303,0.0,0.0,0.0,0.0,0.0,0.0,0.0,0.0,0.0,0.0,0.0,0.0,0.0,0.0,0.0,0.0,0,0,0,0,0,0,0,0,0,0,0,1,0,0,1,0,0
220041571,16.280704,16.105062,0.0,3.5e-44,-1.0,8.164815,0.7518082,1.0431502,nan,4,4.0262656,4.0262656,4.0262656,4.0262656,0.0,0.0,0.0,0.0,0.0,0.0,0.0,0.0,0.0,0.0,0.0,0.0,0.0,0.0,0.0,0.0,0,0,0,0,0,0,0,0,0,0,0,1,0,0,1,0,0
220241539,16.144962,16.11049,0.0,3.5e-44,-1.0,8.164815,0.75374705,1.0427988,nan,4,4.0276227,4.0276227,4.0276227,4.0276227,0.0,0.0,0.0,0.0,0.0,0.0,0.0,0.0,0.0,0.0,0.0,0.0,0.0,0.0,0.0,0.0,0,0,0,0,0,0,0,0,0,0,0,1,0,0,1,0,0
220441539,16.357061,16.110003,0.0,3.5e-44,-1.0,8.164815,0.7535725,1.0428303,nan,4,4.0275006,4.0275006,4.0275006,4.0275006,0.0,0.0,0.0,0.0,0.0,0.0,0.0,0.0,0.0,0.0,0.0,0.0,0.0,0.0,0.0,0.0,0,0,0,0,0,0,0,0,0,0,0,1,0,0,1,0,0
220641538,15.601989,16.108591,0.0,3.5e-44,-1.0,8.164815,0.7530685,1.0429217,nan,4,4.027148,4.027148,4.027148,4.027148,0.0,0.0,0.0,0.0,0.0,0.0,0.0,0.0,0.0,0.0,0.0,0.0,0.0,0.0,0.0,0.0,0,0,0,0,0,0,0,0,0,0,0,1,0,0,1,0,0
220841589,16.111025,16.099335,0.0,3.5e-44,-1.0,8.164815,0.7497626,1.0435213,nan,4,4.0248337,4.0248337,4.0248337,4.0248337,0.0,0.0,0.0,0.0,0.0,0.0,0.0,0.0,0.0,0.0,0.0,0.0,0.0,0.0,0.0,0.0,0,0,0,0,0,0,0,0,0,0,0,1,0,0,1,0,0
221041546,16.280704,16.101875,0.0,3.5e-44,-1.0,8.164815,0.75067,1.0433567,nan,4,4.025469,4.025469,4.025469,4.025469,0.0,0.0,0.0,0.0,0.0,0.0,0.0,0.0,0.0,0.0,0.0,0.0,0.0,0.0,0.0,0.0,0,0,0,0,0,0,0,0,0,0,0,1,0,0,1,0,0
221241547,16.348577,16.090105,0.0,3.5e-44,-1.0,8.164815,0.7464662,1.04412,nan,4,4.0225263,4.0225263,4.0225263,4.0225263,0.0,0.0,0.0,0.0,0.0,0.0,0.0,0.0,0.0,0.0,0.0,0.0,0.0,0.0,0.0,0.0,0,0,0,0,0,0,0,0,0,0,0,1,0,0,1,0,0
221441528,15.627441,16.097113,0.0,3.5e-44,-1.0,8.164815,0.74896914,1.0436654,nan,4,4.024278,4.024278,4.024278,4.024278,0.0,0.0,0.0,0.0,0.0,0.0,0.0,0.0,0.0,0.0,0.0,0.0,0.0,0.0,0.0,0.0,0,0,0,0,0,0,0,0,0,0,0,1,0,0,1,0,0
221641611,16.238285,16.103615,0.0,3.5e-44,-1.0,8.164815,0.75129133,1.043244,nan,4,4.0259037,4.0259037,4.0259037,4.0259037,0.0,0.0,0.0,0.0,0.0,0.0,0.0,0.0,0.0,0.0,0.0,0.0,0.0,0.0,0.0,0.0,0,0,0,0,0,0,0,0,0,0,0,1,0,0,1,0,0
221841615,16.246769,16.101648,0.0,3.5e-44,-1.0,8.164815,0.75058895,1.0433714,nan,4,4.025412,4.025412,4.025412,4.025412,0.0,0.0,0.0,0.0,0.0,0.0,0.0,0.0,0.0,0.0,0.0,0.0,0.0,0.0,0.0,0.0,0,0,0,0,0,0,0,0,0,0,0,1,0,0,1,0,0
222041616,16.263739,16.110735,0.0,3.5e-44,-1.0,8.164815,0.7538343,1.0427829,nan,4,4.0276837,4.0276837,4.0276837,4.0276837,0.0,0.0,0.0,0.0,0.0,0.0,0.0,0.0,0.0,0.0,0.0,0.0,0.0,0.0,0.0,0.0,0,0,0,0,0,0,0,0,0,0,0,1,0,0,1,0,0
222241750,16.16193,16.121525,0.0,3.5e-44,-1.0,8.164815,0.7576876,1.042085,nan,4,4.030381,4.030381,4.030381,4.030381,0.0,0.0,0.0,0.0,0.0,0.0,0.0,0.0,0.0,0.0,0.0,0.0,0.0,0.0,0.0,0.0,0,0,0,0,0,0,0,0,0,0,0,1,0,0,1,0,0
222441800,16.289188,16.123516,0.0,3.5e-44,-1.0,8.164815,0.7583986,1.0419563,nan,4,4.030879,4.030879,4.030879,4.030879,0.0,0.0,0.0,0.0,0.0,0.0,0.0,0.0,0.0,0.0,0.0,0.0,0.0,0.0,0.0,0.0,0,0,0,0,0,0,0,0,0,0,0,1,0,0,1,0,0
222641896,16.348577,16.119762,0.0,3.5e-44,-1.0,8.164815,0.7570582,1.0421989,nan,4,4.0299406,4.0299406,4.0299406,4.0299406,0.0,0.0,0.0,0.0,0.0,0.0,0.0,0.0,0.0,0.0,0.0,0.0,0.0,0.0,0.0,0.0,0,0,0,0,0,0,0,0,0,0,0,1,0,0,1,0,0
222842166,16.348577,16.112402,0.0,3.5e-44,-1.0,8.164815,0.7544294,1.042675,nan,4,4.0281005,4.0281005,4.0281005,4.0281005,0.0,0.0,0.0,0.0,0.0,0.0,0.0,0.0,0.0,0.0,0.0,0.0,0.0,0.0,0.0,0.0,0,0,0,0,0,0,0,0,0,0,0,1,0,0,1,0,0
223042088,16.255253,16.123762,0.0,3.5e-44,-1.0,8.164815,0.7584868,1.0419405,nan,4,4.0309405,4.0309405,4.0309405,4.0309405,0.0,0.0,0.0,0.0,0.0,0.0,0.0,0.0,0.0,0.0,0.0,0.0,0.0,0.0,0.0,0.0,0,0,0,0,0,0,0,0,0,0,0,1,0,0,1,0,0
223242167,16.323124,16.128948,0.0,3.5e-44,-1.0,8.164815,0.76033884,1.0416054,nan,4,4.032237,4.032237,4.032237,4.032237,0.0,0.0,0.0,0.0,0.0,0.0,0.0,0.0,0.0,0.0,0.0,0.0,0.0,0.0,0.0,0.0,0,0,0,0,0,0,0,0,0,0,0,1,0,0,1,0,0
223441547,16.178898,16.121662,0.0,3.5e-44,-1.0,8.164815,0.75773674,1.0420761,nan,4,4.0304155,4.0304155,4.0304155,4.0304155,0.0,0.0,0.0,0.0,0.0,0.0,0.0,0.0,0.0,0.0,0.0,0.0,0.0,0.0,0.0,0.0,0,0,0,0,0,0,0,0,0,0,0,1,0,0,1,0,0
223641541,16.195866,16.118065,0.0,3.5e-44,-1.0,8.164815,0.75645214,1.0423087,nan,4,4.029516,4.029516,4.029516,4.029516,0.0,0.0,0.0,0.0,0.0,0.0,0.0,0.0,0.0,0.0,0.0,0.0,0.0,0.0,0.0,0.0,0,0,0,0,0,0,0,0,0,0,0,1,0,0,1,0,0
223841538,16.221317,16.122675,0.0,3.5e-44,-1.0,8.164815,0.7580982,1.0420107,nan,4,4.0306687,4.0306687,4.0306687,4.0306687,0.0,0.0,0.0,0.0,0.0,0.0,0.0,0.0,0.0,0.0,0.0,0.0,0.0,0.0,0.0,0.0,0,0,0,0,0,0,0,0,0,0,0,1,0,0,1,0,0
224041544,16.144962,16.122837,0.0,3.5e-44,-1.0,8.164815,0.75815636,1.0420002,nan,4,4.0307093,4.0307093,4.0307093,4.0307093,0.0,0.0,0.0,0.0,0.0,0.0,0.0,0.0,0.0,0.0,0.0,0.0,0.0,0.0,0.0,0.0,0,0,0,0,0,0,0,0,0,0,0,1,0,0,1,0,0
224241542,16.221317,16.128246,0.0,3.5e-44,-1.0,8.164815,0.760088,1.0416507,nan,4,4.0320616,4.0320616,4.0320616,4.0320616,0.0,0.0,0.0,0.0,0.0,0.0,0.0,0.0,0.0,0.0,0.0,0.0,0.0,0.0,0.0,0.0,0,0,0,0,0,0,0,0,0,0,0,1,0,0,1,0,0
224441546,15.6953125,16.125736,0.0,3.5e-44,-1.0,8.164815,0.7591916,1.0418129,nan,4,4.031434,4.031434,4.031434,4.031434,0.0,0.0,0.0,0.0,0.0,0.0,0.0,0.0,0.0,0.0,0.0,0.0,0.0,0.0,0.0,0.0,0,0,0,0,0,0,0,0,0,0,0,1,0,0,1,0,0
224641579,16.195866,16.126532,0.0,3.5e-44,-1.0,8.164815,0.75947577,1.0417615,nan,4,4.031633,4.031633,4.031633,4.031633,0.0,0.0,0.0,0.0,0.0,0.0,0.0,0.0,0.0,0.0,0.0,0.0,0.0,0.0,0.0,0.0,0,0,0,0,0,0,0,0,0,0,0,1,0,0,1,0,0
224841584,16.255253,16.125257,0.0,3.5e-44,-1.0,8.164815,0.75902086,1.0418438,nan,4,4.0313144,4.0313144,4.0313144,4.0313144,0.0,0.0,0.0,0.0,0.0,0.0,0.0,0.0,0.0,0.0,0.0,0.0,0.0,0.0,0.0,0.0,0,0,0,0,0,0,0,0,0,0,0,1,0,0,1,0,0
225041533,16.31464,16.124832,0.0,3.5e-44,-1.0,8.164815,0.75886875,1.0418713,nan,4,4.031208,4.031208,4.031208,4.031208,0.0,0.0,0.0,0.0,0.0,0.0,0.0,0.0,0.0,0.0,0.0,0.0,0.0,0.0,0.0,0.0,0,0,0,0,0,0,0,0,0,0,0,1,0,0,1,0,0
225241538,16.212833,16.132643,0.0,3.5e-44,-1.0,8.164815,0.76165825,1.0413668,nan,4,4.0331607,4.0331607,4.0331607,4.0331607,0.0,0.0,0.0,0.0,0.0,0.0,0.0,0.0,0.0,0.0,0.0,0.0,0.0,0.0,0.0,0.0,0,0,0,0,0,0,0,0,0,0,0,1,0,0,1,0,0
225441599,16.238285,16.129234,0.0,3.5e-44,-1.0,8.164815,0.7604409,1.0415869,nan,4,4.0323086,4.0323086,4.0323086,4.0323086,0.0,0.0,0.0,0.0,0.0,0.0,0.0,0.0,0.0,0.0,0.0,0.0,0.0,0.0,0.0,0.0,0,0,0,0,0,0,0,0,0,0,0,1,0,0,1,0,0
225641535,16.306158,16.118992,0.0,3.5e-44,-1.0,8.164815,0.75678307,1.0422487,nan,4,4.029748,4.029748,4.029748,4.029748,0.0,0.0,0.0,0.0,0.0,0.0,0.0,0.0,0.0,0.0,0.0,0.0,0.0,0.0,0.0,0.0,0,0,0,0,0,0,0,0,0,0,0,1,0,0,1,0,0
225841604,16.212833,16.105057,0.0,3.5e-44,-1.0,8.164815,0.7518063,1.0431505,nan,4,4.026264,4.026264,4.026264,4.026264,0.0,0.0,0.0,0.0,0.0,0.0,0.0,0.0,0.0,0.0,0.0,0.0,0.0,0.0,0.0,0.0,0,0,0,0,0,0,0,0,0,0,0,1,0,0,1,0,0
226041545,16.153446,16.118607,0.0,3.5e-44,-1.0,8.164815,0.75664526,1.0422736,nan,4,4.0296516,4.0296516,4.0296516,4.0296516,0.0,0.0,0.0,0.0,0.0,0.0,0.0,0.0,0.0,0.0,0.0,0.0,0.0,0.0,0.0,0.0,0,0,0,0,0,0,0,0,0,0,0,1,0,0,1,0,0
226241550,16.127995,16.116816,0.0,3.5e-44,-1.0,8.164815,0.7560058,1.0423895,nan,4,4.029204,4.029204,4.029204,4.029204,0.0,0.0,0.0,0.0,0.0,0.0,0.0,0.0,0.0,0.0,0.0,0.0,0.0,0.0,0.0,0.0,0,0,0,0,0,0,0,0,0,0,0,1,0,0,1,0,0
226441547,16.348577,16.122282,0.0,3.5e-44,-1.0,8.164815,0.757958,1.042036,nan,4,4.0305705,4.0305705,4.0305705,4.0305705,0.0,0.0,0.0,0.0,0.0,0.0,0.0,0.0,0.0,0.0,0.0,0.0,0.0,0.0,0.0,0.0,0,0,0,0,0,0,0,0,0,0,0,1,0,0,1,0,0
226641585,15.618957,16.119455,0.0,3.5e-44,-1.0,8.164815,0.75694853,1.0422188,nan,4,4.029864,4.029864,4.029864,4.029864,0.0,0.0,0.0,0.0,0.0,0.0,0.0,0.0,0.0,0.0,0.0,0.0,0.0,0.0,0.0,0.0,0,0,0,0,0,0,0,0,0,0,0,1,0,0,1,0,0
226841587,16.153446,16.124016,0.0,3.5e-44,-1.0,8.164815,0.7585774,1.041924,nan,4,4.031004,4.031004,4.031004,4.031004,0.0,0.0,0.0,0.0,0.0,0.0,0.0,0.0,0.0,0.0,0.0,0.0,0.0,0.0,0.0,0.0,0,0,0,0,0,0,0,0,0,0,0,1,0,0,1,0,0
227041541,16.348577,16.124256,0.0,3.5e-44,-1.0,8.164815,0.75866324,1.0419085,nan,4,4.031064,4.031064,4.031064,4.031064,0.0,0.0,0.0,0.0,0.0,0.0,0.0,0.0,0.0,0.0,0.0,0.0,0.0,0.0,0.0,0.0,0,0,0,0,0,0,0,0,0,0,0,1,0,0,1,0,0
227241662,16.16193,16.119612,0.0,3.5e-44,-1.0,8.164815,0.7570043,1.0422087,nan,4,4.029903,4.029903,4.029903,4.029903,0.0,0.0,0.0,0.0,0.0,0.0,0.0,0.0,0.0,0.0,0.0,0.0,0.0,0.0,0.0,0.0,0,0,0,0,0,0,0,0,0,0,0,1,0,0,1,0,0
227441542,15.6953125,16.118534,0.0,3.5e-44,-1.0,8.164815,0.7566195,1.0422784,nan,4,4.0296335,4.0296335,4.0296335,4.0296335,0.0,0.0,0.0,0.0,0.0,0.0,0.0,0.0,0.0,0.0,0.0,0.0,0.0,0.0,0.0,0.0,0,0,0,0,0,0,0,0,0,0,0,1,0,0,1,0,0
227641628,16.212833,16.109892,0.0,3.5e-44,-1.0,8.164815,0.75353295,1.0428375,nan,4,4.027473,4.027473,4.027473,4.027473,0.0,0.0,0.0,0.0,0.0,0.0,0.0,0.0,0.0,0.0,0.0,0.0,0.0,0.0,0.0,0.0,0,0,0,0,0,0,0,0,0,0,0,1,0,0,1,0,0
227841780,16.31464,16.10126,0.0,3.5e-44,-1.0,8.164815,0.7504497,1.0433966,nan,4,4.025315,4.025315,4.025315,4.025315,0.0,0.0,0.0,0.0,0.0,0.0,0.0,0.0,0.0,0.0,0.0,0.0,0.0,0.0,0.0,0.0,0,0,0,0,0,0,0,0,0,0,0,1,0,0,1,0,0
228041741,15.703796,16.095896,0.0,3.5e-44,-1.0,8.164815,0.74853426,1.0437443,nan,4,4.023974,4.023974,4.023974,4.023974,0.0,0.0,0.0,0.0,0.0,0.0,0.0,0.0,0.0,0.0,0.0,0.0,0.0,0.0,0.0,0.0,0,0,0,0,0,0,0,0,0,0,0,1,0,0,1,0,0
228241914,16.37403,16.106632,0.0,3.5e-44,-1.0,8.164815,0.752369,1.0430485,nan,4,4.026658,4.026658,4.026658,4.026658,0.0,0.0,0.0,0.0,0.0,0.0,0.0,0.0,0.0,0.0,0.0,0.0,0.0,0.0,0.0,0.0,0,0,0,0,0,0,0,0,0,0,0,1,0,0,1,0,0
228441544,16.263739,16.111252,0.0,3.5e-44,-1.0,8.164815,0.75401884,1.0427495,nan,4,4.027813,4.027813,4.027813,4.027813,0.0,0.0,0.0,0.0,0.0,0.0,0.0,0.0,0.0,0.0,0.0,0.0,0.0,0.0,0.0,0.0,0,0,0,0,0,0,0,0,0,0,0,1,0,0,1,0,0
228641540,16.229801,16.111275,0.0,3.5e-44,-1.0,8.164815,0.75402695,1.042748,nan,4,4.0278187,4.0278187,4.0278187,4.0278187,0.0,0.0,0.0,0.0,0.0,0.0,0.0,0.0,0.0,0.0,0.0,0.0,0.0,0.0,0.0,0.0,0,0,0,0,0,0,0,0,0,0,0,1,0,0,1,0,0
228841539,16.20435,16.108793,0.0,3.5e-44,-1.0,8.164815,0.7531405,1.0429087,nan,4,4.0271983,4.0271983,4.0271983,4.0271983,0.0,0.0,0.0,0.0,0.0,0.0,0.0,0.0,0.0,0.0,0.0,0.0,0.0,0.0,0.0,0.0,0,0,0,0,0,0,0,0,0,0,0,1,0,0,1,0,0
229041539,16.153446,16.124584,0.0,3.5e-44,-1.0,8.164815,0.75878006,1.0418873,nan,4,4.031146,4.031146,4.031146,4.031146,0.0,0.0,0.0,0.0,0.0,0.0,0.0,0.0,0.0,0.0,0.0,0.0,0.0,0.0,0.0,0.0,0,0,0,0,0,0,0,0,0,0,0,1,0,0,1,0,0
229241540,16.297672,16.126204,0.0,3.5e-44,-1.0,8.164815,0.75935847,1.0417826,nan,4,4.031551,4.031551,4.031551,4.031551,0.0,0.0,0.0,0.0,0.0,0.0,0.0,0.0,0.0,0.0,0.0,0.0,0.0,0.0,0.0,0.0,0,0,0,0,0,0,0,0,0,0,0,1,0,0,1,0,0
229441554,16.39948,16.118973,0.0,3.5e-44,-1.0,8.164815,0.7567764,1.04225,nan,4,4.029743,4.029743,4.029743,4.029743,0.0,0.0,0.0,0.0,0.0,0.0,0.0,0.0,0.0,0.0,0.0,0.0,0.0,0.0,0.0,0.0,0,0,0,0,0,0,0,0,0,0,0,1,0,0,1,0,0
229641640,15.686828,16.109846,0.0,3.5e-44,-1.0,8.164815,0.75351673,1.0428405,nan,4,4.0274615,4.0274615,4.0274615,4.0274615,0.0,0.0,0.0,0.0,0.0,0.0,0.0,0.0,0.0,0.0,0.0,0.0,0.0,0.0,0.0,0.0,0,0,0,0,0,0,0,0,0,0,0,1,0,0,1,0,0
229841599,16.178898,16.115597,0.0,3.5e-44,-1.0,8.164815,0.7555705,1.0424683,nan,4,4.028899,4.028899,4.028899,4.028899,0.0,0.0,0.0,0.0,0.0,0.0,0.0,0.0,0.0,0.0,0.0,0.0,0.0,0.0,0.0,0.0,0,0,0,0,0,0,0,0,0,0,0,1,0,0,1,0,0
230041561,16.246769,16.120646,0.0,3.5e-44,-1.0,8.164815,0.7573734,1.0421418,nan,4,4.0301614,4.0301614,4.0301614,4.0301614,0.0,0.0,0.0,0.0,0.0,0.0,0.0,0.0,0.0,0.0,0.0,0.0,0.0,0.0,0.0,0.0,0,0,0,0,0,0,0,0,0,0,0,1,0,0,1,0,0
230241922,16.153446,16.111221,0.0,3.5e-44,-1.0,8.164815,0.7540079,1.0427514,nan,4,4.0278053,4.0278053,4.0278053,4.0278053,0.0,0.0,0.0,0.0,0.0,0.0,0.0,0.0,0.0,0.0,0.0,0.0,0.0,0.0,0.0,0.0,0,0,0,0,0,0,0,0,0,0,0,1,0,0,1,0,0
230441684,15.652893,16.111673,0.0,3.5e-44,-1.0,8.164815,0.75416905,1.0427222,nan,4,4.0279183,4.0279183,4.0279183,4.0279183,0.0,0.0,0.0,0.0,0.0,0.0,0.0,0.0,0.0,0.0,0.0,0.0,0.0,0.0,0.0,0.0,0,0,0,0,0,0,0,0,0,0,0,1,0,0,1,0,0
230642398,16.246769,16.120823,0.0,3.5e-44,-1.0,8.164815,0.7574368,1.0421304,nan,4,4.0302057,4.0302057,4.0302057,4.0302057,0.0,0.0,0.0,0.0,0.0,0.0,0.0,0.0,0.0,0.0,0.0,0.0,0.0,0.0,0.0,0.0,0,0,0,0,0,0,0,0,0,0,0,1,0,0,1,0,0
230842274,16.178898,16.114357,0.0,3.5e-44,-1.0,8.164815,0.7551275,1.0425485,nan,4,4.0285892,4.0285892,4.0285892,4.0285892,0.0,0.0,0.0,0.0,0.0,0.0,0.0,0.0,0.0,0.0,0.0,0.0,0.0,0.0,0.0,0.0,0,0,0,0,0,0,0,0,0,0,0,1,0,0,1,0,0
231041993,15.525634,16.112068,0.0,3.5e-44,-1.0,8.164815,0.7543102,1.0426966,nan,4,4.028017,4.028017,4.028017,4.028017,0.0,0.0,0.0,0.0,0.0,0.0,0.0,0.0,0.0,0.0,0.0,0.0,0.0,0.0,0.0,0.0,0,0,0,0,0,0,0,0,0,0,0,1,0,0,1,0,0
231242623,16.263739,16.122257,0.0,3.5e-44,-1.0,8.164815,0.7579494,1.0420376,nan,4,4.0305643,4.0305643,4.0305643,4.0305643,0.0,0.0,0.0,0.0,0.0,0.0,0.0,0.0,0.0,0.0,0.0,0.0,0.0,0.0,0.0,0.0,0,0,0,0,0,0,0,0,0,0,0,1,0,0,1,0,0
231442386,16.127995,16.12153,0.0,3.5e-44,-1.0,8.164815,0.75768954,1.0420846,nan,4,4.0303826,4.0303826,4.0303826,4.0303826,0.0,0.0,0.0,0.0,0.0,0.0,0.0,0.0,0.0,0.0,0.0,0.0,0.0,0.0,0.0,0.0,0,0,0,0,0,0,0,0,0,0,0,1,0,0,1,0,0
231642699,16.246769,16.105953,0.0,3.5e-44,-1.0,8.164815,0.7521263,1.0430925,nan,4,4.0264883,4.0264883,4.0264883,4.0264883,0.0,0.0,0.0,0.0,0.0,0.0,0.0,0.0,0.0,0.0,0.0,0.0,0.0,0.0,0.0,0.0,0,0,0,0,0,0,0,0,0,0,0,1,0,0,1,0,0
231842388,15.669861,16.10813,0.0,3.5e-44,-1.0,8.164815,0.7529035,1.0429516,nan,4,4.0270324,4.0270324,4.0270324,4.0270324,0.0,0.0,0.0,0.0,0.0,0.0,0.0,0.0,0.0,0.0,0.0,0.0,0.0,0.0,0.0,0.0,0,0,0,0,0,0,0,0,0,0,0,1,0,0,1,0,0
232042976,16.31464,16.119053,0.0,3.5e-44,-1.0,8.164815,0.756805,1.0422448,nan,4,4.029763,4.029763,4.029763,4.029763,0.0,0.0,0.0,0.0,0.0,0.0,0.0,0.0,0.0,0.0,0.0,0.0,0.0,0.0,0.0,0.0,0,0,0,0,0,0,0,0,0,0,0,1,0,0,1,0,0
232242461,16.229801,16.121284,0.0,3.5e-44,-1.0,8.164815,0.7576018,1.0421005,nan,4,4.030321,4.030321,4.030321,4.030321,0.0,0.0,0.0,0.0,0.0,0.0,0.0,0.0,0.0,0.0,0.0,0.0,0.0,0.0,0.0,0.0,0,0,0,0,0,0,0,0,0,0,0,1,0,0,1,0,0
232442930,16.297672,16.118755,0.0,3.5e-44,-1.0,8.164815,0.75669867,1.0422641,nan,4,4.029689,4.029689,4.029689,4.029689,0.0,0.0,0.0,0.0,0.0,0.0,0.0,0.0,0.0,0.0,0.0,0.0,0.0,0.0,0.0,0.0,0,0,0,0,0,0,0,0,0,0,0,1,0,0,1,0,0
232642642,15.754701,16.120192,0.0,3.5e-44,-1.0,8.164815,0.75721127,1.0421712,nan,4,4.030048,4.030048,4.030048,4.030048,0.0,0.0,0.0,0.0,0.0,0.0,0.0,0.0,0.0,0.0,0.0,0.0,0.0,0.0,0.0,0.0,0,0,0,0,0,0,0,0,0,0,0,1,0,0,1,0,0
232843046,16.365543,16.120298,0.0,3.5e-44,-1.0,8.164815,0.7572494,1.0421643,nan,4,4.0300746,4.0300746,4.0300746,4.0300746,0.0,0.0,0.0,0.0,0.0,0.0,0.0,0.0,0.0,0.0,0.0,0.0,0.0,0.0,0.0,0.0,0,0,0,0,0,0,0,0,0,0,0,1,0,0,1,0,0
233042904,16.263739,16.118916,0.0,3.5e-44,-1.0,8.164815,0.7567559,1.0422537,nan,4,4.029729,4.029729,4.029729,4.029729,0.0,0.0,0.0,0.0,0.0,0.0,0.0,0.0,0.0,0.0,0.0,0.0,0.0,0.0,0.0,0.0,0,0,0,0,0,0,0,0,0,0,0,1,0,0,1,0,0
233243419,16.297672,16.115332,0.0,3.5e-44,-1.0,8.164815,0.7554756,1.0424855,nan,4,4.028833,4.028833,4.028833,4.028833,0.0,0.0,0.0,0.0,0.0,0.0,0.0,0.0,0.0,0.0,0.0,0.0,0.0,0.0,0.0,0.0,0,0,0,0,0,0,0,0,0,0,0,1,0,0,1,0,0
233441540,16.27222,16.119436,0.0,3.5e-44,-1.0,8.164815,0.75694185,1.04222,nan,4,4.029859,4.029859,4.029859,4.029859,0.0,0.0,0.0,0.0,0.0,0.0,0.0,0.0,0.0,0.0,0.0,0.0,0.0,0.0,0.0,0.0,0,0,0,0,0,0,0,0,0,0,0,1,0,0,1,0,0
233641538,16.20435,16.118965,0.0,3.5e-44,-1.0,8.164815,0.75677353,1.0422505,nan,4,4.0297413,4.0297413,4.0297413,4.0297413,0.0,0.0,0.0,0.0,0.0,0.0,0.0,0.0,0.0,0.0,0.0,0.0,0.0,0.0,0.0,0.0,0,0,0,0,0,0,0,0,0,0,0,1,0,0,1,0,0
233841543,16.16193,16.101976,0.0,3.5e-44,-1.0,8.164815,0.75070626,1.0433501,nan,4,4.025494,4.025494,4.025494,4.025494,0.0,0.0,0.0,0.0,0.0,0.0,0.0,0.0,0.0,0.0,0.0,0.0,0.0,0.0,0.0,0.0,0,0,0,0,0,0,0,0,0,0,0,1,0,0,1,0,0
234041542,15.576537,16.102985,0.0,3.5e-44,-1.0,8.164815,0.75106627,1.0432848,nan,4,4.0257463,4.0257463,4.0257463,4.0257463,0.0,0.0,0.0,0.0,0.0,0.0,0.0,0.0,0.0,0.0,0.0,0.0,0.0,0.0,0.0,0.0,0,0,0,0,0,0,0,0,0,0,0,1,0,0,1,0,0
234241521,16.246769,16.112835,0.0,3.5e-44,-1.0,8.164815,0.7545839,1.042647,nan,4,4.0282087,4.0282087,4.0282087,4.0282087,0.0,0.0,0.0,0.0,0.0,0.0,0.0,0.0,0.0,0.0,0.0,0.0,0.0,0.0,0.0,0.0,0,0,0,0,0,0,0,0,0,0,0,1,0,0,1,0,0
234441549,16.229801,16.114206,0.0,3.5e-44,-1.0,8.164815,0.7550741,1.0425583,nan,4,4.0285516,4.0285516,4.0285516,4.0285516,0.0,0.0,0.0,0.0,0.0,0.0,0.0,0.0,0.0,0.0,0.0,0.0,0.0,0.0,0.0,0.0,0,0,0,0,0,0,0,0,0,0,0,1,0,0,1,0,0
234641550,16.212833,16.111197,0.0,3.5e-44,-1.0,8.164815,0.7539988,1.0427531,nan,4,4.027799,4.027799,4.027799,4.027799,0.0,0.0,0.0,0.0,0.0,0.0,0.0,0.0,0.0,0.0,0.0,0.0,0.0,0.0,0.0,0.0,0,0,0,0,0,0,0,0,0,0,0,1,0,0,1,0,0
234841589,15.729248,16.111248,0.0,3.5e-44,-1.0,8.164815,0.7540174,1.0427498,nan,4,4.027812,4.027812,4.027812,4.027812,0.0,0.0,0.0,0.0,0.0,0.0,0.0,0.0,0.0,0.0,0.0,0.0,0.0,0.0,0.0,0.0,0,0,0,0,0,0,0,0,0,0,0,1,0,0,1,0,0
235041523,16.33161,16.116627,0.0,3.5e-44,-1.0,8.164815,0.7559381,1.0424017,nan,4,4.0291567,4.0291567,4.0291567,4.0291567,0.0,0.0,0.0,0.0,0.0,0.0,0.0,0.0,0.0,0.0,0.0,0.0,0.0,0.0,0.0,0.0,0,0,0,0,0,0,0,0,0,0,0,1,0,0,1,0,0
235241760,16.229801,16.119858,0.0,3.5e-44,-1.0,8.164815,0.75709206,1.0421928,nan,4,4.0299644,4.0299644,4.0299644,4.0299644,0.0,0.0,0.0,0.0,0.0,0.0,0.0,0.0,0.0,0.0,0.0,0.0,0.0,0.0,0.0,0.0,0,0,0,0,0,0,0,0,0,0,0,1,0,0,1,0,0
235441541,16.297672,16.110418,0.0,3.5e-44,-1.0,8.164815,0.7537208,1.0428034,nan,4,4.0276046,4.0276046,4.0276046,4.0276046,0.0,0.0,0.0,0.0,0.0,0.0,0.0,0.0,0.0,0.0,0.0,0.0,0.0,0.0,0.0,0.0,0,0,0,0,0,0,0,0,0,0,0,1,0,0,1,0,0
235641707,16.238285,16.119257,0.0,3.5e-44,-1.0,8.164815,0.7568775,1.0422316,nan,4,4.0298142,4.0298142,4.0298142,4.0298142,0.0,0.0,0.0,0.0,0.0,0.0,0.0,0.0,0.0,0.0,0.0,0.0,0.0,0.0,0.0,0.0,0,0,0,0,0,0,0,0,0,0,0,1,0,0,1,0,0
235841588,16.11951,16.100119,0.0,3.5e-44,-1.0,8.164815,0.7500425,1.0434705,nan,4,4.0250297,4.0250297,4.0250297,4.0250297,0.0,0.0,0.0,0.0,0.0,0.0,0.0,0.0,0.0,0.0,0.0,0.0,0.0,0.0,0.0,0.0,0,0,0,0,0,0,0,0,0,0,0,1,0,0,1,0,0
236041596,16.20435,16.111467,0.0,3.5e-44,-1.0,8.164815,0.7540956,1.0427355,nan,4,4.027867,4.027867,4.027867,4.027867,0.0,0.0,0.0,0.0,0.0,0.0,0.0,0.0,0.0,0.0,0.0,0.0,0.0,0.0,0.0,0.0,0,0,0,0,0,0,0,0,0,0,0,1,0,0,1,0,0
236241535,16.31464,16.111643,0.0,3.5e-44,-1.0,8.164815,0.75415856,1.0427241,nan,4,4.0279107,4.0279107,4.0279107,4.0279107,0.0,0.0,0.0,0.0,0.0,0.0,0.0,0.0,0.0,0.0,0.0,0.0,0.0,0.0,0.0,0.0,0,0,0,0,0,0,0,0,0,0,0,1,0,0,1,0,0
236441544,16.16193,16.115557,0.0,3.5e-44,-1.0,8.164815,0.75555617,1.0424709,nan,4,4.028889,4.028889,4.028889,4.028889,0.0,0.0,0.0,0.0,0.0,0.0,0.0,0.0,0.0,0.0,0.0,0.0,0.0,0.0,0.0,0.0,0,0,0,0,0,0,0,0,0,0,0,1,0,0,1,0,0
236641585,16.323124,16.120602,0.0,3.5e-44,-1.0,8.164815,0.75735813,1.0421447,nan,4,4.0301504,4.0301504,4.0301504,4.0301504,0.0,0.0,0.0,0.0,0.0,0.0,0.0,0.0,0.0,0.0,0.0,0.0,0.0,0.0,0.0,0.0,0,0,0,0,0,0,0,0,0,0,0,1,0,0,1,0,0
236841538,16.263739,16.104986,0.0,3.5e-44,-1.0,8.164815,0.75178105,1.0431552,nan,4,4.0262465,4.0262465,4.0262465,4.0262465,0.0,0.0,0.0,0.0,0.0,0.0,0.0,0.0,0.0,0.0,0.0,0.0,0.0,0.0,0.0,0.0,0,0,0,0,0,0,0,0,0,0,0,1,0,0,1,0,0
237041538,16.144962,16.114326,0.0,3.5e-44,-1.0,8.164815,0.755117,1.0425506,nan,4,4.0285816,4.0285816,4.0285816,4.0285816,0.0,0.0,0.0,0.0,0.0,0.0,0.0,0.0,0.0,0.0,0.0,0.0,0.0,0.0,0.0,0.0,0,0,0,0,0,0,0,0,0,0,0,1,0,0,1,0,0
237241593,16.246769,16.121021,0.0,3.5e-44,-1.0,8.164815,0.75750786,1.0421176,nan,4,4.0302553,4.0302553,4.0302553,4.0302553,0.0,0.0,0.0,0.0,0.0,0.0,0.0,0.0,0.0,0.0,0.0,0.0,0.0,0.0,0.0,0.0,0,0,0,0,0,0,0,0,0,0,0,1,0,0,1,0,0
237441544,16.357061,16.129644,0.0,3.5e-44,-1.0,8.164815,0.7605873,1.0415604,nan,4,4.032411,4.032411,4.032411,4.032411,0.0,0.0,0.0,0.0,0.0,0.0,0.0,0.0,0.0,0.0,0.0,0.0,0.0,0.0,0.0,0.0,0,0,0,0,0,0,0,0,0,0,0,1,0,0,1,0,0
237641647,16.27222,16.113878,0.0,3.5e-44,-1.0,8.164815,0.7549568,1.0425795,nan,4,4.0284696,4.0284696,4.0284696,4.0284696,0.0,0.0,0.0,0.0,0.0,0.0,0.0,0.0,0.0,0.0,0.0,0.0,0.0,0.0,0.0,0.0,0,0,0,0,0,0,0,0,0,0,0,1,0,0,1,0,0
237841628,15.703796,16.123285,0.0,3.5e-44,-1.0,8.164815,0.7583166,1.0419712,nan,4,4.0308213,4.0308213,4.0308213,4.0308213,0.0,0.0,0.0,0.0,0.0,0.0,0.0,0.0,0.0,0.0,0.0,0.0,0.0,0.0,0.0,0.0,0,0,0,0,0,0,0,0,0,0,0,1,0,0,1,0,0
238041839,16.263739,16.11951,0.0,3.5e-44,-1.0,8.164815,0.7569681,1.0422152,nan,4,4.0298777,4.0298777,4.0298777,4.0298777,0.0,0.0,0.0,0.0,0.0,0.0,0.0,0.0,0.0,0.0,0.0,0.0,0.0,0.0,0.0,0.0,0,0,0,0,0,0,0,0,0,0,0,1,0,0,1,0,0
238241908,16.195866,16.131145,0.0,3.5e-44,-1.0,8.164815,0.7611237,1.0414635,nan,4,4.0327864,4.0327864,4.0327864,4.0327864,0.0,0.0,0.0,0.0,0.0,0.0,0.0,0.0,0.0,0.0,0.0,0.0,0.0,0.0,0.0,0.0,0,0,0,0,0,0,0,0,0,0,0,1,0,0,1,0,0
238441538,16.33161,16.130188,0.0,3.5e-44,-1.0,8.164815,0.7607818,1.0415254,nan,4,4.032547,4.032547,4.032547,4.032547,0.0,0.0,0.0,0.0,0.0,0.0,0.0,0.0,0.0,0.0,0.0,0.0,0.0,0.0,0.0,0.0,0,0,0,0,0,0,0,0,0,0,0,1,0,0,1,0,0
238641540,16.263739,16.133394,0.0,3.5e-44,-1.0,8.164815,0.7619267,1.0413183,nan,4,4.0333486,4.0333486,4.0333486,4.0333486,0.0,0.0,0.0,0.0,0.0,0.0,0.0,0.0,0.0,0.0,0.0,0.0,0.0,0.0,0.0,0.0,0,0,0,0,0,0,0,0,0,0,0,1,0,0,1,0,0
238841539,16.255253,16.11779,0.0,3.5e-44,-1.0,8.164815,0.7563539,1.0423265,nan,4,4.0294476,4.0294476,4.0294476,4.0294476,0.0,0.0,0.0,0.0,0.0,0.0,0.0,0.0,0.0,0.0,0.0,0.0,0.0,0.0,0.0,0.0,0,0,0,0,0,0,0,0,0,0,0,1,0,0,1,0,0
239041533,16.323124,16.126198,0.0,3.5e-44,-1.0,8.164815,0.75935656,1.041783,nan,4,4.0315495,4.0315495,4.0315495,4.0315495,0.0,0.0,0.0,0.0,0.0,0.0,0.0,0.0,0.0,0.0,0.0,0.0,0.0,0.0,0.0,0.0,0,0,0,0,0,0,0,0,0,0,0,1,0,0,1,0,0
239241628,15.644408,16.120317,0.0,3.5e-44,-1.0,8.164815,0.75725657,1.042163,nan,4,4.0300794,4.0300794,4.0300794,4.0300794,0.0,0.0,0.0,0.0,0.0,0.0,0.0,0.0,0.0,0.0,0.0,0.0,0.0,0.0,0.0,0.0,0,0,0,0,0,0,0,0,0,0,0,1,0,0,1,0,0
239441559,16.187382,16.127989,0.0,3.5e-44,-1.0,8.164815,0.759996,1.0416673,nan,4,4.031997,4.031997,4.031997,4.031997,0.0,0.0,0.0,0.0,0.0,0.0,0.0,0.0,0.0,0.0,0.0,0.0,0.0,0.0,0.0,0.0,0,0,0,0,0,0,0,0,0,0,0,1,0,0,1,0,0
239641539,16.263739,16.123133,0.0,3.5e-44,-1.0,8.164815,0.75826174,1.0419811,nan,4,4.030783,4.030783,4.030783,4.030783,0.0,0.0,0.0,0.0,0.0,0.0,0.0,0.0,0.0,0.0,0.0,0.0,0.0,0.0,0.0,0.0,0,0,0,0,0,0,0,0,0,0,0,1,0,0,1,0,0
239841604,16.229801,16.106384,0.0,3.5e-44,-1.0,8.164815,0.7522803,1.0430646,nan,4,4.026596,4.026596,4.026596,4.026596,0.0,0.0,0.0,0.0,0.0,0.0,0.0,0.0,0.0,0.0,0.0,0.0,0.0,0.0,0.0,0.0,0,0,0,0,0,0,0,0,0,0,0,1,0,0,1,0,0
240041635,16.170414,16.11547,0.0,3.5e-44,-1.0,8.164815,0.75552565,1.0424764,nan,4,4.0288677,4.0288677,4.0288677,4.0288677,0.0,0.0,0.0,0.0,0.0,0.0,0.0,0.0,0.0,0.0,0.0,0.0,0.0,0.0,0.0,0.0,0,0,0,0,0,0,0,0,0,0,0,1,0,0,1,0,0
240241637,15.9668,16.124203,0.0,3.5e-44,-1.0,8.164815,0.75864416,1.041912,nan,4,4.0310507,4.0310507,4.0310507,4.0310507,0.0,0.0,0.0,0.0,0.0,0.0,0.0,0.0,0.0,0.0,0.0,0.0,0.0,0.0,0.0,0.0,0,0,0,0,0,0,0,0,0,0,0,1,0,0,1,0,0
240441542,16.33161,16.129028,0.0,3.5e-44,-1.0,8.164815,0.76036745,1.0416002,nan,4,4.032257,4.032257,4.032257,4.032257,0.0,0.0,0.0,0.0,0.0,0.0,0.0,0.0,0.0,0.0,0.0,0.0,0.0,0.0,0.0,0.0,0,0,0,0,0,0,0,0,0,0,0,1,0,0,1,0,0
240641543,16.280704,16.130548,0.0,3.5e-44,-1.0,8.164815,0.7609106,1.041502,nan,4,4.032637,4.032637,4.032637,4.032637,0.0,0.0,0.0,0.0,0.0,0.0,0.0,0.0,0.0,0.0,0.0,0.0,0.0,0.0,0.0,0.0,0,0,0,0,0,0,0,0,0,0,0,1,0,0,1,0,0
