timestamp,timestamp_sample,accel_device_id,gyro_device_id,delta_angle[0],delta_angle[1],delta_angle[2],delta_velocity[0],delta_velocity[1],delta_velocity[2],delta_angle_dt,delta_velocity_dt,delta_velocity_clipping,calibration_count
186841864,186841613,1114122,2228234,-8.281504e-05,-1.936535e-06,-5.6015873e-05,0.0024905913,-0.0034550095,-0.05132383,5004,5043,0,3
186849404,186846636,1114122,2228234,-1.932585e-05,2.1408085e-05,-6.4722466e-05,0.0022957758,-0.003033641,-0.04988785,5023,4919,0,3
187344695,187339336,1114122,2228234,7.925046e-05,3.5890076e-05,-0.00024648308,0.0014145913,-0.001640472,-0.051828247,4994,5013,0,3
187848605,187847070,1114122,2228234,-2.7712042e-06,3.0408355e-05,0.0001187318,0.0019463614,-0.0023807606,-0.050667685,4949,5024,0,3
188350212,188349824,1114122,2228234,-0.00011718734,6.1323684e-05,7.139579e-05,0.0016503601,-0.0018255113,-0.05170306,5014,5013,0,3
188847721,188847551,1114122,2228234,0.00015993053,-0.00012667554,-0.00013621416,0.00012271237,-0.0065788636,-0.07541683,7505,7509,0,3
189342984,189342793,1114122,2228234,-2.9580746e-05,2.0976966e-05,0.000117036325,0.0010877014,-0.0019042112,-0.049614925,5018,5018,0,3
189847027,189845572,1114122,2228234,-6.6979854e-05,-6.75369e-05,8.234876e-05,0.0015343582,-0.00035446297,-0.05041864,5035,4976,0,3
190346112,190340782,1114122,2228234,8.804362e-06,-6.6918896e-05,-0.00025750854,-0.00013402358,-0.001249021,-0.062841676,4956,6131,0,3
190848727,190848508,1114122,2228234,9.688132e-05,0.00016392928,0.00017722661,0.0018733304,-0.0021668046,-0.048820097,5006,5006,0,3
191346592,191346244,1114122,2228234,-6.251196e-05,1.7284103e-05,9.404041e-05,0.0010054836,-0.0021940311,-0.050196998,5004,5004,0,3
191844154,191841556,1114122,2228234,-1.653879e-05,-3.347779e-05,9.288235e-05,0.0027215066,-0.0019467131,-0.051545992,4770,5027,0,3
192341987,192341709,1114122,2228234,-5.4082022e-05,-9.817714e-05,-3.8129776e-05,0.0014694941,-0.0011296127,-0.04868913,5003,4999,0,3
192847296,192846953,1114122,2228234,-0.00024125201,1.3748222e-05,-0.00022029749,0.00051143486,0.0014962954,-0.051576067,5010,5013,0,3
193344885,193344689,1114122,2228234,0.00020933393,0.00015048028,0.00036002978,0.00019664886,-0.004055181,-0.05141995,5005,5006,0,3
193847713,193842433,1114122,2228234,0.00019473974,0.00027452828,0.00041429303,-0.0017386698,-0.0028759697,-0.048384223,4987,4965,0,3
194345332,194342741,1114122,2228234,3.0902745e-05,-1.6381277e-05,-6.6592206e-06,0.0018163632,-0.002829882,-0.049546972,5079,4986,0,3
194845634,194845442,1114122,2228234,0.00017140915,2.7408736e-05,-8.347152e-05,0.0003024337,-0.0022781994,-0.048780814,4991,4995,0,3
195348969,195348860,1114122,2228234,2.4481067e-05,4.023317e-05,9.793256e-05,0.0009854905,-0.003550936,-0.050623786,5005,4999,0,3
195848700,195843396,1114122,2228234,-3.4448036e-05,-2.9175288e-05,-0.00010068145,-0.0016055348,0.00018180771,-0.051841874,5018,5001,0,3
196344499,196343635,1114122,2228234,3.4838024e-05,-2.4809056e-05,3.4185137e-05,-0.0016574141,-0.003433203,-0.050683223,5925,5011,0,3
196844232,196843880,1114122,2228234,0.0001187594,-7.715539e-05,1.8916166e-05,0.0008715863,-0.003045282,-0.051065225,5022,5093,0,3
197341776,197339462,1114122,2228234,1.0182453e-05,0.00010808014,1.7663831e-05,0.003435328,-0.0018426782,-0.054918256,5007,5245,0,3
197845793,197844343,1114122,2228234,0.00010553608,-3.3569846e-05,6.484532e-05,0.0022397838,-0.0028542886,-0.049175847,5006,5001,0,3
198344865,198339571,1114122,2228234,-7.331382e-05,-2.639421e-06,0.00024233884,0.0024173337,-0.0025021068,-0.049700115,4978,4985,0,3
198848877,198847324,1114122,2228234,9.671817e-05,-9.0826925e-06,-1.868419e-05,0.003123938,-0.00219943,-0.049489826,5003,5054,0,3
199350407,199350104,1114122,2228234,-4.782017e-05,8.581523e-05,2.272563e-06,0.0013991883,-0.0028224343,-0.04911319,5046,4966,0,3
199845629,199845302,1114122,2228234,0.00040194383,-0.00024822156,8.315243e-05,-0.001108173,-0.004185594,-0.07518428,6242,7483,0,3
200343234,200343028,1114122,2228234,1.6399288e-05,-9.1004795e-06,-6.9498287e-06,0.0026736492,-0.0033756336,-0.051169347,4958,5027,0,3
200846059,200845777,1114122,2228234,7.966906e-05,-0.00011999749,4.6402867e-05,0.0019705545,-0.0034317537,-0.050255362,5007,5011,0,3
201348707,201348537,1114122,2228234,-6.6680426e-05,0.00022690916,0.00010318062,0.0015999932,-0.0040021595,-0.05035576,5013,5017,0,3
201848863,201843788,1114122,2228234,7.423845e-05,8.390788e-05,6.825419e-05,0.0026783075,-0.0021436403,-0.03831194,5030,3839,0,3
202345242,202345135,1114122,2228234,-0.00023947404,5.0320792e-05,-0.00024787305,0.001368422,-0.0023149904,-0.053493045,5005,5250,0,3
202844414,202844231,1114122,2228234,-0.00012716911,-3.5592413e-05,7.3950534e-05,0.00049084384,-0.0029241631,-0.05129589,4974,5039,0,3
203344653,203344485,1114122,2228234,0.00044963727,-3.922313e-05,0.00040767775,0.0025260265,-0.0017065394,-0.04997661,5006,5014,0,3
203845309,203845205,1114122,2228234,9.74835e-05,1.1581365e-05,0.00015098996,0.0013628082,-0.0029501342,-0.050434407,5005,5006,0,3
204345140,204344982,1114122,2228234,-4.4046737e-05,9.558533e-06,3.6219066e-05,0.0010654312,-0.0028877333,-0.049346372,5032,4955,0,3
204845362,204845203,1114122,2228234,5.3937092e-05,-3.360297e-05,-2.3247869e-05,0.0010854328,-0.002999602,-0.05112613,4984,5049,0,3
205345647,205342928,1114122,2228234,-2.894897e-05,-4.2230977e-06,3.201751e-05,0.0018956054,-0.0025730326,-0.050740283,4998,4998,0,3
205845888,205845675,1114122,2228234,3.3901575e-05,5.0528197e-06,2.9220831e-05,0.0016588082,-0.0031447385,-0.050754923,5007,5007,0,3
206346399,206346275,1114122,2228234,1.1158107e-05,5.0920728e-05,6.69352e-06,0.0015444149,-0.0025831296,-0.050590474,5301,5003,0,3
206844060,206843700,1114122,2228234,-2.2386363e-05,5.1524275e-05,4.555126e-05,0.0016723848,-0.0034236377,-0.049970496,5017,5017,0,3
207347378,207346406,1114122,2228234,-5.2082072e-05,4.164679e-05,7.753512e-05,0.00091322645,-0.0013907703,-0.050378796,4962,5032,0,3
207844412,207839141,1114122,2228234,0.00010398729,2.1674381e-05,7.582954e-05,0.0012635004,-0.0028824192,-0.050788347,4960,5025,0,3
208344768,208344420,1114122,2228234,-6.985856e-06,5.5402e-05,-2.2813747e-05,0.0017415555,-0.0038109364,-0.05936659,5029,6045,0,3
208846012,208844626,1114122,2228234,0.00019166427,7.050355e-05,-0.00016162322,0.0014506473,-0.0021052177,-0.050290562,5007,5004,0,3
209350274,209349869,1114122,2228234,4.289486e-05,1.557822e-05,0.0001534103,0.0018230188,-0.003170651,-0.052487507,4974,5039,0,3
209849158,209847606,1114122,2228234,-0.00020215077,5.0371764e-06,5.5752906e-05,0.0007295181,-0.0005755943,-0.05080168,4991,4991,0,3
210342982,210337849,1114122,2228234,0.00028882042,-4.7926776e-05,0.00035374323,0.0014801471,-0.0028200573,-0.050270945,4967,4911,0,3
210848253,210845629,1114122,2228234,0.00014632232,-6.922609e-05,-8.362461e-05,0.001320974,-0.00032263904,-0.051706232,5020,5102,0,3
211348560,211348368,1114122,2228234,-3.1874653e-05,-1.0079191e-05,0.00011945281,0.0015874064,-0.003525555,-0.05900348,5033,5948,0,3
211848979,211843913,1114122,2228234,6.997184e-06,9.3165276e-05,-1.1852978e-05,0.00227994,-0.0021331366,-0.05086398,5296,4948,0,3
212346616,212341332,1114122,2228234,0.00053935766,-1.7530434e-05,-0.00016221785,0.0034875115,-0.005948885,-0.050172847,4971,5001,0,3
212849308,212849064,1114122,2228234,2.4648576e-05,4.946956e-05,0.00010005779,0.003670034,-0.003218598,-0.050380085,4991,5026,0,3
213344480,213344337,1114122,2228234,1.2450164e-05,-1.1706862e-05,-0.00015411421,0.0016763083,-0.003963414,-0.050381064,4998,4998,0,3
213842368,213842090,1114122,2228234,7.9717545e-05,8.2500155e-06,-0.00039850618,0.0018386921,-0.0028757232,-0.04896245,5014,4876,0,3
214347699,214344804,1114122,2228234,3.362581e-05,1.4457502e-05,1.792471e-07,0.0008005049,-0.002793905,-0.05117343,4978,5037,0,3
214847856,214847542,1114122,2228234,-2.2655282e-05,-1.3372063e-05,6.150886e-05,0.00010034323,-0.0034905444,-0.04973273,5006,5006,0,3
215346797,215345301,1114122,2228234,7.152822e-05,-2.576309e-05,8.4750085e-05,0.0013344538,-0.0020866476,-0.049813915,5002,4997,0,3
215845666,215840533,1114122,2228234,0.00013255586,1.9537094e-06,9.9750265e-05,0.0028091953,-0.0046977,-0.049410414,5000,5007,0,3
216348610,216348278,1114122,2228234,3.262123e-06,1.2800768e-05,-9.048902e-05,-0.0005802685,-0.0022603686,-0.05226215,4936,4995,0,3
216846206,216844620,1114122,2228234,-9.088936e-05,-0.0001745781,0.00013556333,0.0021681632,-0.0033051257,-0.04906676,4997,5039,0,3
217344808,217343767,1114122,2228234,3.731122e-05,-2.1952614e-05,7.3323456e-05,0.0024959731,-0.0027973205,-0.05033832,4969,5029,0,3
217844457,217844012,1114122,2228234,-2.6209236e-05,-5.026259e-07,-4.672183e-05,0.003140708,-0.0036973995,-0.051263105,5005,5005,0,3
218347001,218346795,1114122,2228234,-7.525946e-05,7.844777e-05,0.00015373818,0.0027038767,-0.0020075252,-0.051489156,5044,4979,0,3
218847108,218842024,1114122,2228234,2.066025e-05,2.0717971e-05,6.0444174e-05,0.0029159398,-0.0033262186,-0.051656187,5004,5104,0,3
219345783,219344740,1114122,2228234,3.3330783e-05,8.2661325e-05,0.00010771955,0.00079487957,-0.001481767,-0.050524525,4972,5031,0,3
219847752,219847503,1114122,2228234,-0.0001421672,-0.0001144971,-0.00012878209,-0.0011577414,-0.0032083394,-0.050100718,5008,5008,0,3
220350562,220350238,1114122,2228234,0.00013394824,-8.6438195e-06,-3.3668246e-05,0.001554209,-0.0018761748,-0.039695952,5012,4021,0,3
220840928,220840518,1114122,2228234,0.00017723386,-9.425927e-05,0.00015004967,7.176052e-05,-0.002119804,-0.050486866,5035,4973,0,3
221343350,221338254,1114122,2228234,0.00032060928,6.3283323e-06,9.7553375e-06,-0.0011750374,-0.0017615289,-0.05189403,5030,5014,0,3
221842622,221840990,1114122,2228234,1.1892615e-05,2.7890937e-05,0.00017309279,0.0021410047,-0.0019053674,-0.043184035,5017,4210,0,3
222348982,222348733,1114122,2228234,-6.540892e-05,4.2107255e-05,-1.0194659e-05,0.0009219696,-0.0031388337,-0.048022233,5018,5018,0,3
222849083,222843985,1114122,2228234,-0.00011033181,0.00016599512,0.0003649083,0.004898062,-0.00014950782,-0.050696902,5018,4991,0,3
223347003,223346729,1114122,2228234,0.0001008016,-4.7703277e-05,0.00014637617,0.0019216052,-0.0025282656,-0.04819617,5022,4912,0,3
223849599,223844534,1114122,2228234,0.00015701159,-1.9034913e-05,-5.858605e-05,0.00317068,-0.0024889407,-0.050984126,5069,5042,0,3
224344873,224344708,1114122,2228234,-8.130775e-05,-0.00020138352,-0.00012222794,0.0008564835,0.004238738,-0.05175321,4998,4994,0,3
224847873,224847448,1114122,2228234,-0.00014818339,7.5396616e-05,-0.0002824765,0.0011109149,-0.0014426992,-0.050431147,4998,5003,0,3
225345401,225345194,1114122,2228234,-0.00033820863,-0.0010007147,0.00082044984,0.0007400814,0.00018389586,-0.047582846,5005,5005,0,3
225848360,225842945,1114122,2228234,4.3307802e-05,-1.2534431e-05,0.00029146057,0.0018268125,-0.004726223,-0.050881352,4996,4998,0,3
226347077,226346969,1114122,2228234,5.5967557e-05,3.2951248e-05,0.00016038275,0.002133759,-0.002621832,-0.062192738,6267,6147,0,3
226846211,226845925,1114122,2228234,-4.800413e-05,-0.00022047608,-8.606928e-05,0.0016999993,-0.001976091,-0.05188512,5002,5002,0,3
227349796,227348689,1114122,2228234,0.00014460419,2.5503603e-05,-2.1950274e-05,0.0011560211,-0.0033673851,-0.050669737,5012,5015,0,3
227846599,227846434,1114122,2228234,0.000107478874,0.00013834328,0.00032494168,0.0021980663,-0.0045630476,-0.05136674,4975,4977,0,3
228343392,228341699,1114122,2228234,-9.947325e-06,-1.4107289e-05,-0.0003153774,0.001419604,-0.0036194937,-0.042716764,5023,4192,0,3
228844887,228844430,1114122,2228234,6.8289104e-05,-0.00010251693,-0.00043403864,0.0018395153,-0.003541748,-0.050312888,4964,5037,0,3
229342922,229342170,1114122,2228234,-2.7254804e-05,-1.7649314e-06,0.00030241674,0.0016455437,-0.0035924853,-0.04155451,4988,4200,0,3
229847551,229842431,1114122,2228234,-8.218725e-05,4.7086083e-05,-9.678008e-05,0.0014253956,-0.0029038733,-0.05004565,5009,4997,0,3
230345534,230345176,1114122,2228234,-0.00012355577,0.00012647246,-0.000111780435,0.00092380756,-0.0028118559,-0.051850792,5013,5114,0,3
230849456,230847923,1114122,2228234,0.00017074561,3.3008313e-05,6.245952e-05,-0.00078483595,-0.0060375114,-0.04929215,5008,4965,0,3
231346054,231345661,1114122,2228234,-2.50214e-05,7.9425205e-05,-8.477713e-05,0.0020222669,-0.0039408486,-0.050274525,4991,4990,0,3
231846173,231840903,1114122,2228234,5.241132e-07,-6.808344e-06,-0.0001635526,0.0020834932,-0.0025523948,-0.050154082,4974,4977,0,3
232343844,232343672,1114122,2228234,3.6817903e-05,8.824055e-05,0.00026633666,0.0022430334,-0.0037021392,-0.052287735,5011,5011,0,3
232849285,232849181,1114122,2228234,-0.00020245346,-5.4100324e-06,-7.082707e-05,0.003329156,-0.0004654113,-0.05454652,5243,5031,0,3
233347056,233346658,1114122,2228234,-0.00018811935,3.3881228e-05,-2.8053717e-05,0.0016735236,-0.0010469396,-0.052312072,4979,5041,0,3
233849622,233849416,1114122,2228234,8.045753e-05,-1.0536279e-05,9.4638286e-05,0.00085822906,-0.0021289939,-0.05076884,4999,5004,0,3
234349830,234349690,1114122,2228234,-0.00014126657,7.857963e-05,2.5260999e-05,0.001937227,-0.004011484,-0.049069706,5035,4910,0,3
234845068,234842405,1114122,2228234,0.0001149533,2.2905137e-06,6.57229e-05,0.0013873975,-0.0028981273,-0.049514152,4804,5007,0,3
235345441,235345188,1114122,2228234,0.00038466955,5.1671836e-05,0.00046573282,-0.00054660055,-0.002042724,-0.04945187,5037,4972,0,3
235848168,235842965,1114122,2228234,-3.4159064e-05,4.9985807e-05,4.682797e-05,0.0021043054,-0.002612256,-0.05087777,5056,5035,0,3
236347055,236345652,1114122,2228234,-2.0998265e-05,1.5828013e-05,0.000103082384,0.0018491151,-0.0027518286,-0.04950995,4974,4897,0,3
236846120,236845906,1114122,2228234,6.3460655e-05,-1.211127e-05,-1.425785e-05,0.0014391107,-0.0032286446,-0.050271843,5011,5011,0,3
237343932,237343666,1114122,2228234,-4.0652462e-06,6.303401e-06,-1.5441594e-05,0.0025268944,-0.002539483,-0.05036237,5016,5016,0,3
237849212,237848900,1114122,2228234,3.1248175e-05,2.607977e-05,4.1728814e-05,0.0017491193,-0.002774126,-0.05181477,4974,5036,0,3
238346912,238346656,1114122,2228234,2.128757e-05,-1.702786e-05,-3.2296725e-06,0.0010021708,-0.002359009,-0.05088793,4981,5040,0,3
238844778,238844458,1114122,2228234,3.971349e-05,-1.27299845e-05,5.8559915e-05,0.0012821995,-0.002656061,-0.05096374,5018,5092,0,3
239347316,239347155,1114122,2228234,3.66789e-06,-6.9897274e-06,5.791276e-05,0.0019094147,-0.0029902686,-0.049893957,4998,5004,0,3
239847530,239842443,1114122,2228234,2.0889514e-05,8.5373654e-07,6.869177e-05,0.0023255737,-0.0027701142,-0.050673407,5026,5014,0,3
240345630,240345181,1114122,2228234,-7.31661e-06,6.8767827e-06,-1.9270332e-05,0.002332382,-0.0031170934,-0.059382457,5032,5967,0,3
240845698,240845424,1114122,2228234,4.0427785e-05,4.4043703e-05,4.9500004e-06,0.0022223666,-0.0023048492,-0.050087444,5008,5004,0,3
241348292,241343166,1114122,2228234,-5.5729157e-07,1.3097624e-05,5.22974e-05,0.0017416525,-0.0020129075,-0.051378112,5012,4999,0,3
241846219,241845906,1114122,2228234,6.029967e-05,6.0070846e-07,4.5981502e-05,0.0015317274,-0.0029904423,-0.049600847,5003,5008,0,3
242343898,242343664,1114122,2228234,3.9420578e-05,-2.039335e-05,2.282212e-06,0.00051208487,-0.0031431126,-0.049608495,5002,5004,0,3
242846724,242843936,1114122,2228234,2.2317665e-06,-2.7718512e-05,-6.3817747e-06,0.0019077361,-0.0022727237,-0.050414015,4998,4999,0,3
243347012,243346668,1114122,2228234,3.4558063e-05,9.223015e-06,0.0002659527,-0.0008700185,-0.00352772,-0.05152669,4999,4999,0,3
243845981,243844449,1114122,2228234,4.7611135e-05,-6.6465873e-06,9.222505e-05,-0.0014070148,-0.0022568954,-0.05057824,5028,5023,0,3
244349801,244344692,1114122,2228234,-1.5353639e-06,8.571156e-06,-7.413251e-05,0.0022446702,-0.0028471723,-0.05051624,5022,4996,0,3
244847749,244847455,1114122,2228234,4.7704656e-05,-9.630191e-06,-1.8158953e-05,0.002811507,-0.003301911,-0.050106708,5000,5001,0,3
245345370,245345173,1114122,2228234,9.219812e-06,4.0827403e-05,6.321951e-05,0.0022624133,-0.0028213398,-0.050005596,4943,5013,0,3
245845868,245845446,1114122,2228234,1.3865136e-05,-2.1021704e-05,5.693573e-06,0.0020865994,-0.0034487355,-0.050361186,4712,5014,0,3
246348555,246348223,1114122,2228234,4.234308e-05,-2.4681735e-06,4.3051055e-05,0.002312738,-0.002230066,-0.050464716,5045,4983,0,3
246846160,246845933,1114122,2228234,1.8488865e-05,2.604008e-05,6.598774e-05,0.0017197372,-0.0026148139,-0.040859584,5009,4025,0,3
247346346,247346183,1114122,2228234,3.836825e-05,9.733023e-06,1.2720333e-05,0.0014165853,-0.003373858,-0.050391927,4964,5033,0,3
247849214,247843931,1114122,2228234,6.2546074e-05,6.527198e-07,-2.6149728e-05,0.001870786,-0.0036468713,-0.05997677,4972,6083,0,3
248347005,248346696,1114122,2228234,-3.3337168e-05,1.6232674e-05,6.228981e-05,0.002298892,-0.0031616874,-0.04982376,5013,5017,0,3
248844739,248844456,1114122,2228234,6.1548e-05,-8.181562e-06,5.725303e-05,0.0014572096,-0.0031039855,-0.04976217,4957,4953,0,3
249347359,249344751,1114122,2228234,0.00010298166,-3.724524e-06,1.3471314e-05,0.00023110048,-0.0022074447,-0.04201965,5057,4203,0,3
249847664,249847457,1114122,2228234,-2.8936122e-06,-1.296959e-05,6.667658e-05,0.0014916338,-0.0030471433,-0.05009051,4973,5038,0,3
250341765,250340238,1114122,2228234,4.6736466e-05,-6.4324568e-06,2.8144947e-05,0.0023937959,-0.0022870144,-0.042195883,5039,4224,0,3
250849360,250844300,1114122,2228234,3.1320586e-05,9.564743e-06,3.690655e-05,0.0018114431,-0.0026445652,-0.053261228,5000,5264,0,3
251348467,251348236,1114122,2228234,-0.00018735243,6.446233e-07,6.873244e-05,0.0020354036,-0.0008318461,-0.04866854,5017,4952,0,3
251846326,251846006,1114122,2228234,6.297852e-05,4.3818276e-05,4.546284e-05,0.0004934378,-0.003607879,-0.049652826,5043,4970,0,3
252343942,252343756,1114122,2228234,3.529449e-06,1.3583651e-05,9.167376e-06,0.0025097493,-0.003124614,-0.051335394,5031,5074,0,3
252846723,252843973,1114122,2228234,0.0005012271,-6.252799e-05,-6.508924e-05,0.0010434631,-0.00436283,-0.05541774,4980,5039,0,3
253346991,253341720,1114122,2228234,-1.1328764e-05,-4.3682667e-05,8.8687215e-05,0.00060726365,-0.0025662368,-0.04864798,5003,4966,0,3
253845966,253844493,1114122,2228234,0.00022561057,-1.5138479e-05,-1.6087475e-06,0.0028084847,-0.0022141295,-0.050821118,5001,4992,0,3
254344856,254339776,1114122,2228234,-3.4538316e-05,2.583589e-05,1.7514947e-06,0.0017436683,-0.0013722738,-0.052595668,5038,5010,0,3
254847819,254847494,1114122,2228234,-6.878109e-06,-1.988073e-05,2.556583e-05,0.0014744075,-0.0038855963,-0.048829515,4968,5028,0,3
255350436,255350261,1114122,2228234,-9.037568e-06,3.6741374e-05,-4.0688747e-06,0.00018048564,-0.0031795271,-0.048639666,5006,5002,0,3
255843842,255843001,1114122,2228234,-3.8598708e-05,4.8357007e-05,-2.4011239e-05,0.0011625243,-0.0027195115,-0.05004371,5005,5005,0,3
256343637,256343251,1114122,2228234,4.501218e-05,3.2274952e-06,3.4280756e-06,0.0010342892,-0.0020343966,-0.03922164,5005,3956,0,3
256846173,256846046,1114122,2228234,8.757625e-05,-5.4715647e-06,5.133491e-05,0.0022491876,-0.0028289629,-0.049535032,5022,4953,0,3
257344176,257343806,1114122,2228234,0.00012114694,-1.6233816e-05,1.5838627e-06,0.0015501194,-0.0024541917,-0.050018888,5036,4973,0,3
257849348,257849021,1114122,2228234,2.1008012e-05,2.460224e-05,4.33022e-05,0.001437204,-0.0023712597,-0.050814014,5008,5008,0,3
258346971,258346781,1114122,2228234,-5.2204716e-05,2.712257e-06,-1.2550862e-06,0.002366938,-0.0025270705,-0.05108826,5013,5011,0,3
258847189,258847058,1114122,2228234,2.2190277e-05,1.6143238e-05,3.5832425e-05,0.0025367902,-0.0029284183,-0.050527524,4974,5002,0,3
259347493,259347319,1114122,2228234,2.3907844e-05,4.785716e-05,0.0001723082,0.001492189,-0.0019424745,-0.050328176,5000,5000,0,3
259847749,259847541,1114122,2228234,8.3616134e-05,1.6637206e-05,8.183314e-05,0.0016065247,-0.002404756,-0.050305523,5006,5006,0,3
260346290,260345310,1114122,2228234,-5.2266874e-05,2.751062e-05,3.9388062e-05,0.0020148745,-0.0033871364,-0.05094728,5006,5003,0,3
260845917,260845580,1114122,2228234,6.288309e-05,-4.517512e-06,-7.989145e-05,0.0019783608,-0.0034568731,-0.051642638,5024,5101,0,3
261348497,261348357,1114122,2228234,-0.00012180793,7.068982e-05,8.211904e-05,0.002144951,-0.0034798218,-0.048231445,5049,4899,0,3
261843719,261843560,1114122,2228234,2.1130856e-05,-6.716973e-05,-0.00012655441,0.0024090721,-0.003569419,-0.04914615,4940,5032,0,3
262346606,262341327,1114122,2228234,-0.00047397127,-0.00024293641,-6.47083e-05,0.0073013855,0.0011701941,-0.052795887,4981,4979,0,3
262844269,262844073,1114122,2228234,0.00011889364,0.00017307146,0.0019887341,0.015607663,-0.00398378,-0.04159335,4992,4992,0,3
263347120,263346846,1114122,2228234,0.0020235837,-0.0012405586,-0.0057836617,0.028183497,-0.009998163,-0.009301674,5012,5011,0,3
263844763,263842135,1114122,2228234,0.005430182,-0.0031495693,-0.0023014746,0.10136835,-0.02645465,0.020694321,5043,6021,0,3
264345052,264344844,1114122,2228234,0.004996189,0.0026065633,0.0041734152,0.04731432,0.003442428,-0.07477313,4973,5038,0,3
264847891,264845102,1114122,2228234,-0.0055726008,-0.0021223992,0.00039290643,0.040874448,-0.0018948723,-0.03201683,5003,5007,0,3
265348283,265347921,1114122,2228234,0.001265423,0.0021437309,0.0019193836,0.03355634,0.015527794,-0.10056648,5037,6077,0,3
265852653,265850649,1114122,2228234,-0.0013458692,-0.00045247516,-0.0009062119,0.016289517,-0.005087533,-0.040902644,4993,4996,0,3
266343725,266341925,1114122,2228234,0.006352553,-0.0011236927,-0.0019362196,0.012814017,0.007841432,-0.054660674,5005,5070,0,3
266844068,266843643,1114122,2228234,0.00052662403,-7.588264e-05,0.0011043968,0.013858652,0.0034348695,-0.057362568,4970,5034,0,3
267346665,267346401,1114122,2228234,-0.00051578716,0.00097131333,0.0020129764,0.012599072,0.004292,-0.041125298,4991,4986,0,3
267846805,267844154,1114122,2228234,0.0010029172,-0.00071490667,0.0020404141,0.0010753097,0.0060599144,-0.070555046,4999,5256,0,3
268344811,268344470,1114122,2228234,-0.0009643082,-0.0010052709,0.00061569654,0.0019287468,0.0024550175,-0.06257764,5028,4907,0,3
268854962,268854718,1114122,2228234,-0.0012206333,-0.0008584359,0.0011711245,0.0042955414,-0.009618882,-0.030729003,5003,4996,0,3
269354121,269349933,1114122,2228234,0.0011794023,-0.0003355871,-0.0003494396,0.0010051373,0.010646579,-0.06245568,5003,5000,0,3
269847858,269847701,1114122,2228234,0.00033516382,-0.00047554827,-0.00092926365,0.010538784,-0.0045037405,-0.04499147,5010,5007,0,3
270343124,270337938,1114122,2228234,0.00019395976,0.0003922495,0.001868862,0.0061312285,0.00012067966,-0.033171512,4999,5009,0,3
270846112,270845787,1114122,2228234,0.0014797143,0.0014018744,0.0015452506,0.006722768,0.003472107,-0.07296527,5077,6139,0,3
271348652,271346210,1114122,2228234,-0.00042615866,0.0025413116,0.0009511486,0.009521606,0.0015092024,-0.09393715,5193,5036,0,3
271845620,271842450,1114122,2228234,-0.00030555628,7.323741e-05,0.0015166786,0.007265537,0.00084540335,-0.05324638,5002,6083,0,3
272346781,272346501,1114122,2228234,-0.0031462086,-0.00123168,0.0015100385,0.012381714,0.008017086,-0.030339016,4996,4999,0,3
272847080,272846785,1114122,2228234,-0.0012850424,0.00044214938,0.00094478606,0.009277712,0.009753066,-0.057955105,5016,5017,0,3
273344726,273344549,1114122,2228234,0.0014122948,0.0004894568,0.0007856425,0.0077798045,-0.0011389878,-0.06024002,4992,4861,0,3
273847606,273847270,1114122,2228234,0.0024511432,0.00016682841,0.0024030614,0.006112258,0.0022033101,-0.04699442,4968,5034,0,3
274347845,274342527,1114122,2228234,0.0007142302,0.000687762,-0.00017733837,0.007623215,0.004464118,-0.063835636,4997,4995,0,3
274845515,274845296,1114122,2228234,0.0036477994,0.00070311566,0.0020502775,0.0066913418,0.0059755333,-0.05021804,5014,5019,0,3
275348383,275348076,1114122,2228234,-0.0004792471,0.0006838393,0.0016519745,0.003551866,0.006749346,-0.054411396,5036,6053,0,3
275846133,275843333,1114122,2228234,-8.317873e-05,0.00048428305,0.0027941328,0.004719141,0.0029707367,-0.06053571,4994,5001,0,3
276347749,276346056,1114122,2228234,-0.0014901563,0.0009972081,0.0013336814,0.0023949782,0.00071470725,-0.064422585,5002,4997,0,3
276844201,276843822,1114122,2228234,-0.001845451,0.00094424526,0.00087252975,0.0020335584,0.00023851992,-0.06993042,4989,4991,0,3
277344521,277344127,1114122,2228234,-0.0030113389,0.0005764333,0.0018240253,0.0024620546,0.0150252525,-0.06384572,5041,4967,0,3
277842130,277841864,1114122,2228234,-0.00025389617,-0.000680519,0.00028746293,-0.0014670492,-0.0017389961,-0.037968837,5027,4212,0,3
278346290,278344601,1114122,2228234,0.0032136294,-0.00018441989,0.0002481939,-0.00079685776,0.0036551578,-0.05014635,4973,4898,0,3
278847535,278847365,1114122,2228234,-0.001533851,7.744165e-05,0.00080138684,0.0002090927,-0.002450468,-0.07022345,4972,4980,0,3
279349343,279349210,1114122,2228234,-0.00029677994,0.00034888124,-0.0005453101,0.00011295203,0.0036736913,-0.05981006,5005,5069,0,3
279850828,279850435,1114122,2228234,-0.00014754491,-0.00026414357,0.00083530525,-0.0018526999,-0.0027443515,-0.034248747,5029,4921,0,3
280349845,280345640,1114122,2228234,0.0024572012,-0.00041179708,0.00026192248,-0.0006776363,0.005886076,-0.04712787,4958,4956,0,3
280843621,280843413,1114122,2228234,-0.00065455964,0.00025151233,0.0015747363,0.0018375164,0.0071938206,-0.034558702,4970,5035,0,3
281347733,281346166,1114122,2228234,0.002327066,0.00014539446,0.0012349447,0.0005134279,0.0024211286,-0.05074714,4978,4980,0,3
281847569,281847449,1114122,2228234,-0.0042779143,0.00069644215,0.00025172695,-0.0007961232,-0.019302845,-0.12453469,9998,9463,0,3
282345904,282345775,1114122,2228234,-0.0033598873,-4.9019138e-05,5.783465e-05,-0.0069911173,0.012462134,-0.035334278,5005,5257,0,3
282852361,282851965,1114122,2228234,-0.0048595346,0.00091974094,-0.0006127341,-0.0067717363,0.0054632695,-0.07208063,5011,5011,0,3
283347635,283347220,1114122,2228234,-0.0005045348,0.0015645396,0.0004650214,-0.004805964,0.0005628179,-0.06942361,4741,5012,0,3
283845183,283844980,1114122,2228234,0.0039117895,0.00029259644,-0.0007151832,-0.00165612,-0.0048737577,-0.05885898,5015,3834,0,3
284353038,284352773,1114122,2228234,-0.00032920687,-0.00025835124,0.00093439483,0.001177094,0.012649779,-0.041969623,5030,4901,0,3
284852288,284850510,1114122,2228234,-0.008361912,-0.0009013869,0.00064603356,0.0039081955,-0.00080224057,-0.042050283,4979,4971,0,3
285346730,285346625,1114122,2228234,0.0010380588,0.0005576045,-0.0018791719,0.0031218594,0.006213313,-0.03765139,4960,4206,0,3
285852976,285848539,1114122,2228234,-0.0011827076,0.00063167803,-0.0007517748,0.005695953,0.0005304736,-0.061219204,5017,5010,0,3
286349105,286348810,1114122,2228234,0.0003745685,0.0016583636,-0.0020599812,-0.00018371266,0.0052878577,-0.07172973,5031,5946,0,3
286848258,286846573,1114122,2228234,0.0029112916,0.00083306123,0.00021146193,0.0011673679,-0.003252508,-0.06663242,5024,4954,0,3
287344642,287344341,1114122,2228234,0.0007950733,0.0007795829,0.00019959813,0.0010730166,0.0023102814,-0.075126536,5030,6072,0,3
287847233,287844835,1114122,2228234,0.00088033505,0.00036048776,-0.0037601306,0.0021215596,0.007836999,-0.05604733,5247,5028,0,3
288347598,288347335,1114122,2228234,-0.00033427292,-0.0006581226,0.0017558683,0.0034171336,0.002523267,-0.04074881,4999,5021,0,3
288845424,288845102,1114122,2228234,0.002064534,-0.00024761647,0.00015521557,0.0035086414,0.0024716533,-0.038164165,5019,5017,0,3
289344668,289340390,1114122,2228234,0.0004846402,-0.00064375007,2.0085023e-05,0.0070914184,0.0010507677,-0.027178258,5041,5003,0,3
289848324,289848111,1114122,2228234,0.0013217989,0.00015374886,0.0010222255,0.008333257,0.0031284564,-0.053465918,4966,5035,0,3
290346255,290345873,1114122,2228234,0.00090806215,0.0013793726,0.00089793623,0.008367713,0.002819114,-0.072973184,4959,5028,0,3
290846507,290846172,1114122,2228234,0.0017891761,0.000889837,0.0008065521,0.008301072,0.00021936385,-0.06642531,5033,4963,0,3
291346714,291346467,1114122,2228234,0.0012176689,0.001553906,0.0008292418,0.00845058,0.0015016329,-0.057740387,4998,4999,0,3
291845974,291841659,1114122,2228234,0.0018139791,0.0013353175,0.0041762954,0.0090841735,-0.0010966138,-0.039280877,4990,5004,0,3
292346289,292341921,1114122,2228234,-0.0018243239,0.0019618815,0.0036811875,0.010423515,0.0040542698,-0.049863573,4973,5033,0,3
292844894,292844688,1114122,2228234,-0.0061452244,0.0023505697,0.0017384624,0.009283446,0.004203084,-0.050411057,5002,5008,0,3
293347761,293347463,1114122,2228234,0.0028209891,0.0010385739,0.0020631338,0.008044269,0.0029640442,-0.05678496,4998,4314,0,3
293848052,293847753,1114122,2228234,0.0014486786,-0.0003439789,0.0007764559,0.011497957,-0.005698735,-0.054243326,4984,5014,0,3
294347418,294345515,1114122,2228234,0.0007079825,-7.702889e-05,0.0022821848,0.014130761,0.0034271532,-0.04303042,4999,4995,0,3
294843554,294843246,1114122,2228234,0.003995445,4.7023175e-05,0.001345632,0.008174466,0.004366508,-0.036081813,4964,5026,0,3
295346166,295346005,1114122,2228234,0.00091915793,0.0024903722,0.0033601967,0.006161212,-0.0008755029,-0.050754245,5001,5001,0,3
295847989,295847829,1114122,2228234,-0.00077328115,0.0029210937,0.0028998756,0.003774552,-0.0014386122,-0.08513772,5004,5263,0,3
296348350,296347617,1114122,2228234,0.0005419506,0.0028714538,0.0024502957,-0.0007689374,0.0023506812,-0.059780676,5005,4988,0,3
296848502,296844300,1114122,2228234,-0.00032366204,0.0022714434,0.0026557716,-0.0034651335,-0.004143527,-0.07477085,4966,5029,0,3
297347257,297347054,1114122,2228234,-0.0005452067,0.0019218902,0.001911796,-0.0017944663,0.004037252,-0.08357634,4992,4991,0,3
297845104,297842349,1114122,2228234,0.00049737137,0.001917581,0.0014297968,-0.0023516787,0.0014517362,-0.06971239,5033,5010,0,3
298345349,298340090,1114122,2228234,0.00046420732,0.001133684,0.0022157177,-0.004066505,0.0015501158,-0.06459884,5012,4992,0,3
298849566,298849435,1114122,2228234,0.0009113339,0.00064848235,0.0014965868,-0.0050221574,0.002457665,-0.086151734,5028,5267,0,3
299345874,299345613,1114122,2228234,-0.0035941363,-3.4015327e-05,0.0022576568,-0.004645037,-0.0014216789,-0.037515033,4965,5027,0,3
299848551,299848390,1114122,2228234,-0.004000107,0.0007530592,-0.00081029965,-0.0086356,0.0057202447,-0.04461079,4997,4998,0,3
300351425,300351172,1114122,2228234,0.00273436,0.0003009327,0.0003119848,-0.008269177,-0.00027214125,-0.046394788,4993,4993,0,3
300846713,300846415,1114122,2228234,0.002963938,0.00019514492,-0.0013090027,-0.010036368,0.0023312275,-0.04520374,5012,5037,0,3
301350945,301346669,1114122,2228234,-0.00078576105,0.00039403248,0.0015658042,-0.009746438,-0.00015727815,-0.04862654,4976,5036,0,3
301851396,301844432,1114122,2228234,-0.0017858527,0.0005937336,0.0004190262,-0.0063323416,-0.0037846803,-0.11969271,4969,5250,0,3
302347466,302344732,1114122,2228234,-0.0019708273,0.00081117125,0.00010669793,-0.0077633727,-9.040909e-05,-0.08176916,5038,4973,0,3
302852879,302852475,1114122,2228234,-0.00029787657,-0.00013708654,0.00015734942,-0.004849388,0.009654181,-0.0701198,4978,5042,0,3
303346892,303345253,1114122,2228234,-0.0037638717,0.0006827093,0.0009922391,-0.006605099,0.008864724,-0.04118155,5029,4202,0,3
303848254,303847988,1114122,2228234,-0.004819275,0.0012786282,-0.00021462081,-0.0102748675,-0.0022216986,-0.03915977,4959,5022,0,3
304353717,304353283,1114122,2228234,0.0055058524,-0.00070491026,-0.0028224732,-0.0069722137,-0.001725427,-0.04294731,5026,4963,0,3
304846270,304846015,1114122,2228234,-0.0017498083,-0.0006032529,0.0010417413,-0.0067889355,-0.0018624141,-0.04515169,4990,4998,0,3
305344048,305341603,1114122,2228234,-0.006497094,0.00031791185,0.0005019742,-0.006707079,0.010660618,-0.0547555,5002,5006,0,3
305843358,305842814,1114122,2228234,-0.0028507663,0.0010819308,-0.0012498406,-0.008371604,-0.0010568099,-0.11400337,7864,7355,0,3
306343919,306341832,1114122,2228234,2.6914307e-05,0.000595224,-0.0011127794,-0.004504267,0.0159969,-0.098586045,4986,5278,0,3
306844909,306844570,1114122,2228234,0.0045609376,-0.0002362743,-0.0009878589,-0.007606557,-0.00067100464,-0.035306152,4997,4998,0,3
307350219,307349879,1114122,2228234,0.0019093376,0.00028872144,0.0035995343,-0.00636681,0.0019077626,-0.07807163,5038,4911,0,3
307854540,307852601,1114122,2228234,-0.0005574636,0.000507502,-0.0022588759,-0.0028401306,0.0015669256,-0.055885363,4973,5032,0,3
308346126,308346030,1114122,2228234,-0.0065601687,-0.00013405115,0.0011984702,0.0037158022,0.016018499,-0.04638567,10660,7510,0,3
308843404,308840632,1114122,2228234,0.00039165444,0.0010124533,-0.00041414247,-0.0033308368,-0.00579128,-0.05910903,4983,5042,0,3
309348642,309348422,1114122,2228234,0.0013106364,0.00012125675,-0.00064155884,-0.005166901,0.0021437465,-0.037960123,5017,5020,0,3
309849050,309848697,1114122,2228234,0.0008521319,0.0018655217,0.00034956067,-0.0008922444,0.0015711912,-0.062156092,4700,5014,0,3
310349113,310348932,1114122,2228234,-0.003997825,0.0015255912,-0.0014785952,0.0037851788,0.0006767716,-0.07660818,5010,5025,0,3
310849400,310849186,1114122,2228234,-0.0018588806,-0.000588102,0.0009628143,0.0063872,-0.0017177731,-0.03507866,5003,4997,0,3
311349668,311349496,1114122,2228234,0.0019748237,-0.0006530122,-0.00061139534,0.007493024,0.009023882,-0.039959,5024,4958,0,3
311847691,311847240,1114122,2228234,0.0025222662,-0.00037916706,-0.00088537566,0.011651827,-0.018742107,-0.036699645,5026,5087,0,3
312345180,312344985,1114122,2228234,0.006359736,0.0013351167,0.0010147126,0.0067167375,0.0082784835,-0.06682376,5013,3968,0,3
312845362,312840270,1114122,2228234,-0.00062734156,0.00068351737,-0.0002248435,0.012316944,-0.0071307523,-0.10473804,4990,6295,0,3
313343315,313343003,1114122,2228234,-0.0018307026,-5.4088385e-05,0.0015737774,0.009369417,0.008901252,-0.014758492,4969,5035,0,3
313847430,313845768,1114122,2228234,-0.002532262,0.00069711683,0.0012405138,0.0122157335,0.00517194,-0.06221612,4991,4987,0,3
314346509,314346310,1114122,2228234,-0.0037897427,0.0012220088,-0.0010222475,0.008195061,-0.0024494254,-0.046078566,5274,4941,0,3
314849109,314848829,1114122,2228234,0.0028957452,-0.00021028808,0.0009120349,0.007952033,0.0062773423,-0.041897345,5003,5003,0,3
315348282,315344449,1114122,2228234,0.002236163,8.988712e-05,0.00035353153,0.0054013534,0.002191218,-0.044505857,5001,5022,0,3
315847005,315846839,1114122,2228234,-0.0017197969,1.3553011e-05,0.00048135917,0.007911351,0.0040162345,-0.040271115,5010,5001,0,3
316348948,316344613,1114122,2228234,-0.00095132826,0.0002933605,0.0013962007,0.0061531593,0.0023322469,-0.04601456,5004,4973,0,3
316847558,316847375,1114122,2228234,-0.0022379877,-0.00018128873,0.001403075,0.004087393,-0.0025447244,-0.06341237,4989,5003,0,3
317349541,317347622,1114122,2228234,0.002477273,-0.0002446041,-3.5605284e-05,0.009082422,0.0046906276,-0.055096086,4960,5025,0,3
317845723,317845400,1114122,2228234,0.0015276084,0.00028405723,0.003052182,0.0031955384,0.0024142638,-0.030945119,4933,5033,0,3
318348322,318346742,1114122,2228234,0.00068607525,0.0006118537,0.00037037532,0.0049257446,-0.0011730158,-0.03758955,5010,4998,0,3
318851253,318848480,1114122,2228234,-0.0013335885,0.0014735262,0.0033844318,0.0039453916,0.006999844,-0.050209902,5049,4963,0,3
319346668,319346223,1114122,2228234,0.00018655566,0.00085404416,0.0006383834,0.0045088944,-0.003957849,-0.06605063,5025,4963,0,3
319847360,319841495,1114122,2228234,-0.005383141,4.6023022e-05,7.112669e-05,0.005208888,-0.010602515,-0.057704434,4981,5024,0,3
320346987,320346722,1114122,2228234,-0.00051298115,1.2976969e-06,0.002120342,0.0027008096,0.008812632,-0.030578801,4980,4921,0,3
320851222,320846991,1114122,2228234,-0.004665707,0.0020922995,0.0015339006,0.0012079299,0.0052991197,-0.07735875,5015,5000,0,3
321347547,321347301,1114122,2228234,-0.00023822475,0.0020427492,-0.00041288283,0.009834012,0.0055113407,-0.07727988,5027,5027,0,3
321850189,321850014,1114122,2228234,0.0033167638,-1.3703749e-06,-7.020554e-05,0.008126518,0.003931495,-0.028158298,4950,5042,0,3
322346564,322346448,1114122,2228234,-0.001082061,-7.1835435e-05,-0.0010008898,0.002200776,-0.008923963,-0.03847711,4993,6005,0,3
322852483,322851234,1114122,2228234,0.0005663342,0.0014278778,0.0005367859,0.0075482796,0.00042921503,-0.0801066,5005,4995,0,3
323353585,323350835,1114122,2228234,0.0021135523,-1.8552402e-05,0.00028534824,0.0026312054,0.0036310845,-0.048582375,5017,4203,0,3
323848935,323848612,1114122,2228234,0.003492807,-0.0014389143,-0.0014577116,0.0017381902,0.0071617593,-0.033468433,5031,4958,0,3
324346670,324343876,1114122,2228234,0.0005623846,-0.000990883,0.00019461128,0.0029633867,0.0029085649,-0.01716161,5012,5008,0,3
324846842,324846606,1114122,2228234,-0.00067827414,0.0003243831,0.0021860795,-3.1479838e-05,-0.010251378,-0.061337776,5000,5005,0,3
325349651,325344364,1114122,2228234,0.0004910832,0.001558469,-0.0009814331,0.0035751632,0.00796788,-0.06349788,5002,4922,0,3
325845097,325844693,1114122,2228234,0.0005588586,0.0007424679,0.0030772628,0.0069497433,0.009890272,-0.058850244,5056,4964,0,3
326342699,326342456,1114122,2228234,0.00041522254,-0.00011994614,0.0007212822,0.008897334,0.0044693043,-0.041413166,5041,4982,0,3
326845506,326840177,1114122,2228234,-4.927879e-05,0.0002696095,-0.0012499532,0.00694187,0.0048568514,-0.04215976,5010,5029,0,3
327348193,327347937,1114122,2228234,0.002472165,-0.00015343074,0.0041911597,0.0077569997,0.014916701,-0.032407176,5008,5022,0,3
327848461,327846940,1114122,2228234,0.0008928048,-0.00018995107,-0.0010233604,0.005520092,-0.0022870412,-0.00753981,5006,5101,0,3
328346285,328345957,1114122,2228234,-0.001778345,0.00013902417,0.0026604696,0.006494863,0.010533397,-0.052656375,4992,4991,0,3
328849008,328846255,1114122,2228234,0.0008997734,-0.00018484508,0.00010503779,0.004123248,0.011300834,-0.07174971,4987,4987,0,3
329345995,329343998,1114122,2228234,-0.0025966458,0.0013922068,0.0005476988,0.003057569,-0.0011688867,-0.091018796,4982,5042,0,3
329847653,329846753,1114122,2228234,-0.0036045862,0.0014576782,-0.0016082925,0.002079,0.003295547,-0.07549034,5003,5003,0,3
330347464,330347062,1114122,2228234,0.00080754724,0.0008223803,-0.0012317782,0.00064523483,0.004232788,-0.0669989,5026,4964,0,3
330842730,330842402,1114122,2228234,0.004763225,0.00023388203,-0.0018450037,-0.0009085669,-0.0013677225,-0.0656184,5060,5019,0,3
331347844,331347550,1114122,2228234,-0.0017922177,-0.0003213638,0.0015825436,-0.00025056553,-0.00300434,-0.052499227,4968,4896,0,3
331848109,331842812,1114122,2228234,0.0022666408,0.00027668173,-0.002783521,0.0021491162,0.0057807374,-0.039170362,4972,4972,0,3
332347288,332345584,1114122,2228234,0.004131513,0.00061974407,0.00041140968,-0.0010371984,-0.006314687,-0.052610416,5002,4996,0,3
332843646,332843352,1114122,2228234,0.00025374664,0.00042524692,0.0020354232,0.0002956903,0.0067978823,-0.052858457,5002,5018,0,3
333348067,333343671,1114122,2228234,-0.0022468774,0.0010470805,-5.25626e-05,0.0019171003,0.0032127255,-0.05841798,5044,4872,0,3
333846608,333846392,1114122,2228234,-0.0036864704,0.000979218,0.0003397021,0.0020557055,0.010044389,-0.069047414,4964,5029,0,3
334345770,334344161,1114122,2228234,-0.005420671,0.0012231305,-0.0011850109,0.0064878287,0.0075451904,-0.0475613,4975,5038,0,3
334849772,334849445,1114122,2228234,-0.0011358707,0.001410913,-0.0013414241,0.0054811384,0.0069601107,-0.048493598,5018,4950,0,3
335348965,335347200,1114122,2228234,0.0024611005,0.0010475012,-0.0025958277,0.005899989,0.00026282194,-0.048775464,5026,4967,0,3
335849227,335842489,1114122,2228234,0.0052280566,3.640177e-05,-0.001510931,0.007114094,-8.560159e-06,-0.047400653,4986,4978,0,3
336345548,336345202,1114122,2228234,0.004378191,0.00019586176,-0.0014118473,0.0065363906,0.0014176937,-0.048664585,4968,5031,0,3
336849635,336847968,1114122,2228234,0.0014111435,0.0005642291,0.00040853623,0.0052718264,0.0062324023,-0.058992404,5004,5000,0,3
337346010,337345741,1114122,2228234,0.002013654,0.0009431608,0.00023803729,0.005246658,0.0053149676,-0.069443546,5003,5003,0,3
337848678,337846038,1114122,2228234,-0.0010249574,0.00075310544,0.0014813155,0.004208446,-0.003904701,-0.0714771,5008,4863,0,3
338350453,338348763,1114122,2228234,0.0005530642,0.0008739301,1.1029488e-05,0.007877745,0.003137326,-0.06503803,4973,5034,0,3
338843035,338841578,1114122,2228234,0.00034374633,0.00065231195,0.0018276873,0.0055989563,0.0018836441,-0.054209188,5031,4205,0,3
339347123,339346793,1114122,2228234,0.0024208124,0.00021135033,0.00090023084,0.007965549,0.006646657,-0.0482646,4993,4999,0,3
339847361,339844562,1114122,2228234,0.0012470179,-0.0009003359,0.0011384705,0.011165857,-0.0031164081,-0.03871435,4977,5034,0,3
340347692,340347362,1114122,2228234,0.0006164414,-0.00012733282,0.0011602311,0.0075468486,0.011019898,-0.048502635,5019,4948,0,3
340851630,340850097,1114122,2228234,0.0004524321,-3.1417174e-05,0.0016295536,0.008325772,-0.0007460289,-0.039371047,4994,4938,0,3
341345570,341345354,1114122,2228234,0.0012479961,0.0005408795,0.0020352853,0.0055017387,0.0077786697,-0.04154775,4957,4968,0,3
341846053,341845662,1114122,2228234,0.0030745338,0.0008571073,0.0019739363,0.007170342,-0.0017002113,-0.067389205,4742,4954,0,3
342343784,342343431,1114122,2228234,0.0019136958,0.00032640953,0.002332152,0.006439246,-0.005162233,-0.058049813,5029,4967,0,3
342846340,342846183,1114122,2228234,0.00047228928,0.002760612,0.0012029805,0.003758313,0.0066275517,-0.065537944,5000,4877,0,3
343344317,343341450,1114122,2228234,-0.0028944802,0.0018391692,0.0032365033,0.003145308,-0.007939108,-0.06457513,4998,4967,0,3
343844521,343844189,1114122,2228234,-0.00051517045,0.001952284,0.00013523511,0.0045467354,0.009005177,-0.0911298,5014,5018,0,3
344342149,344341984,1114122,2228234,-0.0021757963,0.0014464044,0.0022538572,0.0029017555,0.007574362,-0.05295438,5034,5025,0,3
344847369,344847242,1114122,2228234,0.004575688,0.0009075091,0.0027328574,0.003834961,0.0008043178,-0.039109204,4975,4971,0,3
345345290,345344974,1114122,2228234,0.0021778524,0.0017725339,0.0027978104,0.0034302038,0.001398389,-0.04410114,4974,5037,0,3
345845540,345842782,1114122,2228234,-0.00051648443,0.0023777878,0.002519969,-0.0029457402,0.0050944495,-0.046652846,5010,3990,0,3
346345784,346345518,1114122,2228234,-0.0021062233,0.0033247941,0.0027895565,-0.005730938,0.0062498464,-0.06421346,4987,4991,0,3
346846177,346840773,1114122,2228234,-0.001152988,0.0017969927,0.00154224,-0.0090003405,0.00033533367,-0.0808348,5007,5034,0,3
347345424,347343573,1114122,2228234,-0.0028190683,0.001703149,0.0016038439,-0.01098876,0.0038950793,-0.078403786,5025,6101,0,3
347846639,347846313,1114122,2228234,-0.0022985665,0.0010562509,7.460858e-06,-0.010473876,0.005459776,-0.0638388,4985,4986,0,3
348346878,348346571,1114122,2228234,-0.0018744492,-0.001329656,-0.00014338784,-0.012049685,0.008406427,-0.05763079,4938,4936,0,3
348846234,348844368,1114122,2228234,0.0032991592,-0.0012112354,-0.0010572218,-0.009682606,0.008686297,-0.0472068,5033,5034,0,3
349345680,349345562,1114122,2228234,0.003911273,0.00023368919,0.0020761157,-0.032465164,-0.0016416113,-0.095529355,10010,9454,0,3
349849053,349847360,1114122,2228234,0.0014691295,-8.649007e-05,-0.00029496854,-0.015584565,0.004883158,-0.059688795,4949,5033,0,3
350347079,350345166,1114122,2228234,0.00053945626,0.0006784298,0.0011242944,-0.017321225,-0.0013665237,-0.047602355,4996,5066,0,3
350843174,350840444,1114122,2228234,-0.0004024323,0.00021622707,0.00029003088,-0.0139455125,0.0009749266,-0.07257484,5020,5032,0,3
351347709,351346850,1114122,2228234,-0.002097551,0.0018831191,0.002375303,-0.014265139,6.6049666e-05,-0.061974052,8701,5032,0,3
351848897,351848774,1114122,2228234,-0.0015109845,0.0015066388,0.00014393356,-0.017705545,0.010258521,-0.007834263,5005,5045,0,3
352346389,352346217,1114122,2228234,-0.0007651783,0.00072980236,0.0046641156,-0.015926482,-0.0026815142,-0.058879223,4970,5060,0,3
352848513,352843947,1114122,2228234,0.0017938247,-0.00011135312,-0.0011365352,-0.01699551,-0.005338111,-0.098556645,4974,6096,0,3
353346924,353345271,1114122,2228234,0.00068352895,0.00017169722,0.00019764437,-0.01113464,5.754126e-06,-0.053510983,5007,5036,0,3
353844776,353844506,1114122,2228234,0.0021757071,-0.0007754002,-0.0023543432,-0.009272137,0.009027477,-0.051305454,5016,5016,0,3
354345122,354344771,1114122,2228234,-0.0033420646,-0.0008351416,0.00385633,-0.007849465,-0.009415106,-0.03408192,5032,4964,0,3
354850477,354850013,1114122,2228234,0.0013639149,-0.00080051646,0.00024184525,-0.009018917,0.0035052984,-0.025862968,5003,5044,0,3
355345599,355342773,1114122,2228234,-0.0020315151,-0.0011099973,0.0022824812,0.0068217227,0.007283984,-0.059219375,5006,5006,0,3
355845872,355845546,1114122,2228234,0.00045836292,0.00024208895,-0.002080091,-0.007991699,-0.0015850926,-0.036956046,5000,5000,0,3
356350261,356346169,1114122,2228234,0.0025849715,0.0010897426,0.0018429531,-0.013623281,0.0043166396,-0.06509316,5341,6132,0,3
356846472,356846092,1114122,2228234,0.0026431184,0.0012069712,-0.0008753458,-0.012070048,0.006553757,-0.0833117,5019,5023,0,3
357350877,357349272,1114122,2228234,-0.00018222172,0.0022035027,0.004037734,-0.0147754,0.003309248,-0.093206644,7147,7128,0,3
357845584,357845479,1114122,2228234,-0.0028130552,0.0006676058,0.00050182006,-0.007914098,0.0022261236,-0.04890438,5001,4178,0,3
358345365,358345265,1114122,2228234,-0.0047027613,0.00082561915,-0.0031827912,-0.009817608,0.003903126,-0.046341233,5006,5084,0,3
358847504,358847155,1114122,2228234,0.0028981098,0.00019824987,-0.0009794404,-0.007337287,0.010836221,-0.06871698,5023,4936,0,3
359351828,359349927,1114122,2228234,0.000987155,0.0005383063,0.0016293634,-0.01131062,-0.0095193675,-0.05578279,5004,5065,0,3
359852934,359850192,1114122,2228234,-0.0020332665,-0.0003878823,-0.0010644811,-0.0078077256,0.0025008747,-0.027993543,5038,5008,0,3
360348233,360347925,1114122,2228234,-0.0011892967,0.0001500338,-0.0011622433,-0.009663416,-0.00024837576,-0.028042607,5007,5002,0,3
360845917,360843219,1114122,2228234,-0.0002380134,0.0016993933,-0.004097848,-0.0041876975,0.0037188625,-0.065582775,5035,4191,0,3
361346162,361345977,1114122,2228234,0.007022868,-0.000110683686,0.0008284969,-0.009421773,0.0067356327,-0.05378875,5002,5003,0,3
361844577,361843719,1114122,2228234,-0.0017813465,0.0013566833,0.0022247413,-0.007856244,-0.003079013,-0.039846055,4963,5032,0,3
362347938,362347835,1114122,2228234,0.0012157379,0.0004988906,-0.0012309336,-0.0035659513,0.0021907631,-0.05136392,5005,4196,0,3
362847083,362846783,1114122,2228234,-0.0012810573,0.00090658263,0.0019726204,-0.004221809,-0.00045313555,-0.05807765,5037,5108,0,3
363349925,363349601,1114122,2228234,-0.0054896357,-0.0006285799,-0.00028506614,-0.005819867,0.013321759,-0.021855691,5070,4921,0,3
363850117,363849774,1114122,2228234,-0.0004826865,-0.001302442,0.0013728928,-0.009414146,0.0048097204,-0.047457125,4992,4992,0,3
364342740,364342535,1114122,2228234,-0.00051245326,-0.00090666476,-0.0017387894,-0.012631057,-0.0055968245,-0.019011185,4936,5029,0,3
364845723,364845316,1114122,2228234,0.0037882605,0.0017496446,0.0011556642,-0.0042925784,-0.0066353627,-0.07654284,4998,4998,0,3
365348319,365345606,1114122,2228234,-0.0045700404,0.00089815614,0.0016480346,-0.003456447,0.005957542,-0.0510198,5042,4941,0,3
365846122,365843358,1114122,2228234,0.0032589233,-0.006924323,-0.00723869,0.006330335,-0.012612068,-0.031999826,5018,5041,0,3
366346484,366346105,1114122,2228234,0.0033933911,-0.0002242635,0.00018307274,0.0032584867,0.0014931575,-0.053970817,4976,5040,0,3
366846721,366846381,1114122,2228234,-0.009074458,0.005204554,0.038285572,0.021658579,0.02956853,0.006972123,5019,5008,0,3
367344436,367344132,1114122,2228234,0.0015234136,-0.0006443647,-0.0005883356,-0.033064373,-0.041903816,-0.09465385,5003,5005,0,3
367846218,367844427,1114122,2228234,-0.00032613127,-0.00087840506,-0.0016368096,-0.0018662098,-0.019233081,-0.043203413,4998,4998,0,3
368346327,368342183,1114122,2228234,-0.0009384906,-0.00038669174,-0.0016469862,-0.0033292363,-0.012895565,-0.03804083,4988,3951,0,3
368846681,368844914,1114122,2228234,-0.0027834012,0.00042249274,-0.003316797,0.00044065955,0.009237504,-0.06150423,4970,5029,0,3
369347018,369346257,1114122,2228234,0.0010072512,-0.00023036425,-0.0011070087,0.0031823174,-0.0017354424,-0.061601803,5719,6175,0,3
369847187,369842980,1114122,2228234,0.0001314597,2.2346487e-05,0.0003883339,0.0013656117,-0.003116607,-0.051499933,5033,5056,0,3
370348511,370345737,1114122,2228234,-2.5394429e-05,5.2039126e-05,-1.3720761e-05,0.0003829707,-0.0022363944,-0.052046787,5015,5046,0,3
370849282,370848484,1114122,2228234,6.239042e-05,3.1501815e-05,3.121675e-05,0.0018105977,-0.0027467955,-0.052971724,4968,5250,0,3
371344050,371343743,1114122,2228234,-8.90408e-05,6.5268346e-06,3.7875347e-05,0.0016206302,-0.002973559,-0.050293796,4976,5038,0,3
371847393,371841537,1114122,2228234,0.00010785746,6.1087725e-05,4.908253e-05,-4.6944126e-05,-0.002875606,-0.06056847,5035,5935,0,3
372348428,372345680,1114122,2228234,4.412018e-06,1.7674683e-05,-4.194297e-05,0.0010073322,-0.0025602183,-0.06009732,5686,5874,0,3
372844962,372844589,1114122,2228234,-1.7581164e-05,-2.4751422e-05,-8.6699565e-06,0.00079810695,-0.0012042335,-0.0507971,5028,4998,0,3
373347510,373347299,1114122,2228234,3.5397123e-05,-5.6722465e-06,3.7304433e-06,0.001240879,-0.002751402,-0.051475372,4968,5037,0,3
373850337,373850058,1114122,2228234,5.4518103e-05,2.245482e-05,5.3667467e-05,0.00034748518,-0.0029319178,-0.050593577,4992,4992,0,3
374345699,374345339,1114122,2228234,5.2135147e-05,-6.128225e-05,-7.796325e-05,0.0005693669,0.00039083598,-0.05235975,5023,5111,0,3
374849959,374848898,1114122,2228234,0.0017323241,0.00054539356,0.00096649135,0.0052260295,-0.002259744,-0.092909954,7861,8870,0,3
375350134,375345879,1114122,2228234,0.00011862604,0.00092212844,0.0023959712,0.004241652,0.00090132176,-0.04988477,5026,4959,0,3
375846421,375846104,1114122,2228234,-0.001416002,0.0004227715,0.0024532408,0.0069591603,-0.0047589024,-0.04187942,4992,4991,0,3
376349085,376348881,1114122,2228234,-0.0007942238,0.00034312138,0.0015855199,-0.0007189691,-0.0036809812,-0.050815262,5012,5018,0,3
376846919,376846650,1114122,2228234,0.00017318569,-0.00043046928,-0.00035286116,0.0053727305,-0.004940495,-0.050681867,4998,4998,0,3
377351385,377346933,1114122,2228234,-0.0008169879,-0.00068866764,-0.00039737677,0.0048386613,-0.00062626967,-0.051613998,5012,5042,0,3
377849870,377849664,1114122,2228234,0.00012297022,-0.0002674187,-0.00037778864,0.0026872272,-0.0020777173,-0.043261964,5002,5004,0,3
378347762,378347442,1114122,2228234,-0.00012629289,-0.00011416704,-4.9355504e-06,0.0021567903,-0.0027337135,-0.049478553,5006,5006,0,3
378845351,378842687,1114122,2228234,-7.8399404e-05,-6.364188e-05,-7.4762494e-05,0.0023568003,-0.0005235051,-0.050040253,5004,5000,0,3
379345701,379345481,1114122,2228234,-2.641319e-05,-7.834071e-05,-0.00013051096,0.0013149023,-0.0024988349,-0.051593833,5023,5094,0,3
379845873,379845709,1114122,2228234,4.282633e-05,1.601563e-05,0.00011842769,0.000741467,-0.0025795905,-0.049946956,4941,5037,0,3
380349593,380348484,1114122,2228234,3.5613815e-05,8.044992e-05,7.870256e-05,-9.5735704e-05,-0.002519163,-0.04982577,4996,4993,0,3
380847904,380846267,1114122,2228234,0.00017839651,-8.9847475e-05,0.0001828637,0.002806159,-0.0020467322,-0.051234655,5011,5005,0,3
381349283,381344028,1114122,2228234,-3.9996903e-06,1.4574671e-05,-0.00016283913,0.00078527647,-0.0028856297,-0.048258085,5016,4928,0,3
