timestamp,accel_device_id,gyro_device_id,accel_clipping[0],accel_clipping[1],accel_clipping[2],accel_error_count,gyro_error_count,accel_rate_hz,gyro_rate_hz,accel_raw_rate_hz,gyro_raw_rate_hz,accel_vibration_metric,gyro_vibration_metric,gyro_coning_vibration,mean_accel[0],mean_accel[1],mean_accel[2],mean_gyro[0],mean_gyro[1],mean_gyro[2],temperature_accel,temperature_gyro
186776798,1114122,2228234,0,0,0,0,0,716.2788,748.25806,716.2788,748.25806,0.0028844127,8.588429e-05,2.6578585e-08,0.38553432,-0.5977508,-10.073191,0.0142378295,-0.0013973953,-0.004046058,38.239223,35.0
186872653,1114122,2228234,0,0,0,0,0,717.0014,748.25806,717.0014,748.25806,0.0029228844,7.8394725e-05,2.244223e-08,0.37944475,-0.5576121,-9.995835,-0.009364123,-4.5734898e-05,-0.014478,38.23311,35.0
187837244,1114122,2228234,0,0,0,0,0,716.2499,747.4624,716.2499,747.4624,0.0036622114,5.937069e-05,7.6307405e-09,0.2606158,-0.42474183,-10.076357,-0.017014666,0.0006476404,-0.0027684947,38.20617,35.0
188840353,1114122,2228234,0,0,0,0,0,716.2499,760.3352,716.2499,760.3352,0.0061405976,6.6538145e-05,6.745331e-09,0.31918526,-0.31786567,-10.385729,-0.008680863,-0.012964683,-0.020322626,38.25,35.0
189847024,1114122,2228234,0,0,0,0,0,716.2499,746.48096,716.2499,746.48096,0.0032514248,7.944084e-05,9.942032e-09,0.41046003,-0.2875741,-10.132892,-0.016736727,-0.0074215084,0.01097138,38.19079,35.0
190763707,1114122,2228234,0,0,0,0,0,716.2499,751.42993,716.2499,751.42993,0.003518798,9.582796e-05,2.1170122e-08,0.07237272,-0.5018545,-10.106227,-0.012562129,0.002520244,0.027837774,38.25,35.0
191821732,1114122,2228234,0,0,0,0,0,733.1231,751.37,733.1231,751.37,0.0026546293,5.2265284e-05,6.0489462e-09,0.25038168,-0.44714534,-10.091519,0.011341758,0.0015890395,0.012622574,38.19643,35.0
192842878,1114122,2228234,0,0,0,0,0,720.65814,752.92773,720.65814,752.92773,0.0039415127,0.000116740695,5.7956782e-08,0.08398094,0.022575144,-9.930909,-0.06057076,0.011267168,-0.032317247,38.25,35.0
193823729,1114122,2228234,0,0,0,0,0,718.3174,752.0784,718.3174,752.0784,0.0036927338,0.000113433984,3.0183696e-08,0.49513787,-0.31267023,-9.9980955,0.07450195,-0.006443841,0.04304689,38.25,35.0
194840669,1114122,2228234,0,0,0,0,0,717.91766,752.0784,717.91766,752.0784,0.0032831545,0.00011227808,1.767775e-08,0.14281088,-0.4764222,-10.125269,0.015575917,-0.007270149,-0.024056725,38.289062,35.0
195811021,1114122,2228234,0,0,0,0,0,717.4322,750.487,717.4322,750.487,0.0040711006,8.86121e-05,9.6719175e-09,0.407114,-0.5184468,-10.017043,-0.003011929,0.007424391,0.0019528843,38.125,36.0
196809706,1114122,2228234,0,0,0,0,0,716.73395,749.72107,716.73395,749.72107,0.003462544,0.00011524364,9.916809e-09,0.3677474,-0.517851,-10.141828,0.0007115428,-0.0009095913,-0.00082324015,38.26607,35.10959
197795684,1114122,2228234,0,0,0,0,0,716.04315,748.9137,716.04315,748.9137,0.0063968576,0.00013464005,1.1095417e-08,0.37811705,-0.61863685,-10.124346,0.0042511914,-0.0039009962,0.000172723,38.234695,35.115383
198837526,1114122,2228234,0,0,0,0,0,716.8269,748.1551,716.8269,748.1551,0.0048634377,9.836057e-05,9.038274e-09,0.359408,-0.5535647,-10.11634,0.011259018,0.00012090828,-0.0032424177,38.268147,36.0
199805557,1114122,2228234,0,0,0,0,0,716.80255,747.3616,716.80255,747.3616,0.003358335,9.6796335e-05,1.23981e-08,0.076849625,-0.8053148,-10.592072,0.019924372,0.031654533,0.013935714,38.234375,35.0
200786011,1114122,2228234,0,0,0,0,0,716.06696,747.3616,716.06696,747.3616,0.0035289342,8.3055e-05,6.294595e-09,0.32325792,-0.6295364,-10.094572,0.0029695742,-0.00025200527,0.0015202787,38.334934,35.0
201831684,1114122,2228234,0,0,0,0,0,716.06696,748.13074,716.06696,748.13074,0.003350772,0.00013201567,1.438627e-08,0.76082677,-0.60002697,-9.946485,0.019835442,-0.0009068368,-0.011892019,38.3598,35.0
202805699,1114122,2228234,0,0,0,0,0,716.06696,774.24646,716.06696,774.24646,0.009588299,0.00014642782,2.8183676e-08,0.5854508,-0.56559616,-10.045642,-0.035596218,0.010046644,-0.021871371,38.317307,35.0
203813894,1114122,2228234,0,0,0,0,0,716.06696,754.4378,716.06696,754.4378,0.00493662,9.628826e-05,2.6400704e-08,0.3061608,-0.51624256,-10.007805,0.035607528,0.004251252,0.02986074,38.375,35.0
204760563,1114122,2228234,0,0,0,0,0,716.06696,752.99347,716.06696,752.99347,0.008035336,5.6089822e-05,6.7977597e-09,0.33635435,-0.56572264,-10.130562,0.0008442075,0.0017766175,0.008728859,38.34833,35.0
205845884,1114122,2228234,0,0,0,0,0,710.6388,752.1462,710.6388,752.1462,0.0037987127,4.5033088e-05,2.0735165e-09,0.35097912,-0.6533478,-10.14626,0.0057812394,0.0009980771,0.0060131894,38.25,35.0
206833995,1114122,2228234,0,0,0,0,0,720.49713,747.2453,720.49713,747.2453,0.0028272073,6.549278e-05,5.4755214e-09,0.18646294,-0.60082364,-10.019693,-0.0047355965,-0.0036216993,0.0032495605,38.265625,35.0
207839427,1114122,2228234,0,0,0,0,0,716.4396,746.37805,716.4396,746.37805,0.0033518504,5.4150245e-05,4.1938106e-09,0.29579875,-0.60116726,-9.97781,0.027320128,-0.004446372,0.015416907,38.375,35.0
208785949,1114122,2228234,0,0,0,0,0,715.83673,747.1618,715.83673,747.1618,0.003523483,6.4471606e-05,7.0954704e-09,0.13752721,-0.57429487,-10.326182,-0.010616869,-0.0008095216,-0.013996495,38.375,35.0
209789094,1114122,2228234,0,0,0,0,0,716.6909,747.1618,716.6909,747.1618,0.0027205793,7.5239426e-05,9.108325e-09,0.26624936,-0.51102614,-10.029019,-0.00939042,-0.0063213534,-0.011522761,38.416668,35.0
210800916,1114122,2228234,0,0,0,0,0,716.7497,747.9155,716.7497,747.9155,0.0032772399,0.00012984966,4.0433637e-08,0.45622888,-0.43378755,-10.020831,-0.021199398,0.007974639,-0.029710546,38.375,36.0
211803751,1114122,2228234,0,0,0,0,0,716.73364,747.9155,716.73364,747.9155,0.0033490504,6.482601e-05,1.0379559e-08,0.29598525,-0.5999591,-10.060358,0.01872638,-0.008170754,0.0077306186,38.473213,36.0
212804334,1114122,2228234,0,0,0,0,0,717.3961,747.9155,717.3961,747.9155,0.0032219328,9.859483e-05,2.800956e-08,0.28971285,-0.5495043,-10.060877,0.025940279,0.01013929,0.026228406,38.386986,35.0
213752397,1114122,2228234,0,0,0,0,0,717.3961,747.1565,717.3961,747.1565,0.004216255,6.369556e-05,9.819106e-09,0.38257545,-0.5522336,-10.103189,0.0008488866,0.0011256668,-0.006644232,38.469177,35.0
214782829,1114122,2228234,0,0,0,0,0,717.3961,747.1565,717.3961,747.1565,0.0030120742,7.060589e-05,9.2426395e-09,0.2107269,-0.5027899,-10.120297,0.012129337,0.018871553,-0.003416008,38.5,35.0
215800791,1114122,2228234,0,0,0,0,0,716.674,760.88617,716.674,760.88617,0.0026013595,7.84713e-05,1.1670426e-08,0.42279926,-0.55775654,-10.033898,0.010251596,0.0038576825,0.0021676426,38.5,35.0
216835217,1114122,2228234,0,0,0,0,0,716.674,754.16705,716.674,754.16705,0.0037670443,0.00011163405,2.7768113e-08,0.45451406,-0.38377136,-10.1613655,-0.023401873,0.0076709427,0.011358732,38.556034,35.0
217814505,1114122,2228234,0,0,0,0,0,716.674,752.58215,716.674,752.58215,0.0029980727,8.4430016e-05,1.6034312e-08,0.15329602,-0.5418347,-10.107175,0.01932362,0.0058015203,0.0397656,38.421295,35.0
218792243,1114122,2228234,0,0,0,0,0,716.674,748.3758,716.674,748.3758,0.0032166233,0.000101816404,1.5481719e-08,0.109144405,-0.43570793,-10.083136,0.010519283,-0.01439528,-0.019528048,38.512154,36.0
219803497,1114122,2228234,0,0,0,0,0,707.2927,746.7963,707.2927,746.7963,0.004843359,0.00015121393,3.843647e-08,0.92923546,-0.5681335,-10.210873,-0.015220834,0.022336688,0.038866352,38.49026,35.0
220840924,1114122,2228234,0,0,0,0,0,712.72723,747.522,712.72723,747.522,0.002663853,7.418469e-05,1.267032e-08,0.12683776,-0.298018,-10.208698,0.02607101,-0.01771868,0.02913712,38.5,35.0
221826262,1114122,2228234,0,0,0,0,0,714.19257,748.292,714.19257,748.292,0.0020218762,7.622165e-05,1.2177185e-08,0.420132,-0.52100533,-10.044244,-0.001133426,0.0025775197,0.024106951,38.603657,36.0
222799116,1114122,2228234,0,0,0,0,0,713.045,748.27734,713.045,748.27734,0.0036148627,0.00010186553,2.2903182e-08,0.5838198,-0.39262375,-10.089323,0.0353167,-0.019517628,0.008129369,38.5,35.0
223809591,1114122,2228234,0,0,0,0,0,715.04126,746.7499,715.04126,746.7499,0.0029687942,8.51324e-05,1.2717011e-08,0.11933652,-0.5824549,-10.120911,-0.021293513,0.0059558754,-0.009630957,38.5,36.0
224822745,1114122,2228234,0,0,0,0,0,715.0229,746.7499,715.0229,746.7499,0.004474391,0.00014486111,4.2527237e-08,0.067540415,0.0732455,-10.122328,-0.032667346,0.00796395,-0.06353445,38.5,36.0
225808281,1114122,2228234,0,0,0,0,0,715.002,747.5083,715.002,747.5083,0.004894082,0.0002840829,1.557033e-07,0.19931516,-0.6425961,-10.046628,-0.023259738,0.014051488,0.03613138,38.539215,36.0
226796143,1114122,2228234,0,0,0,0,0,715.0181,747.5083,715.0181,747.5083,0.0038181222,8.136803e-05,2.5894671e-08,0.31451672,-0.57175356,-10.115477,-0.0022806646,0.022724153,0.00067806547,38.5125,35.0
227821668,1114122,2228234,0,0,0,0,0,715.0181,747.5083,715.0181,747.5083,0.0023421894,6.605766e-05,1.5509793e-08,0.31329787,-0.59619004,-10.109489,0.0058700116,0.013807634,0.08304882,38.625,36.0
228809716,1114122,2228234,0,0,0,0,0,715.059,750.00446,715.059,750.00446,0.0039564786,6.2480765e-05,1.4218647e-08,0.2561692,-0.6659397,-10.124326,0.021070374,-0.029082432,-0.10014414,38.546875,36.0
229800183,1114122,2228234,0,0,0,0,0,715.059,756.7672,715.059,756.7672,0.004703204,8.17621e-05,1.6788091e-08,0.1904223,-0.5444203,-10.03749,0.0038112747,-0.008185328,-0.020480454,38.589527,36.0
230833069,1114122,2228234,0,0,0,0,0,715.059,751.6292,715.059,751.6292,0.0034793008,6.8700676e-05,1.3336854e-08,-0.09722505,-0.44965947,-10.085124,-0.005350122,-0.0036349057,0.06821433,38.598484,36.0
231836183,1114122,2228234,0,0,0,0,0,715.059,747.7077,715.059,747.7077,0.0038933726,9.798491e-05,2.1030523e-08,0.51702434,-0.55746245,-10.078751,0.0033619634,-0.00015792972,-0.10153419,38.621574,36.0
232849281,1114122,2228234,0,0,0,0,0,714.32385,747.5437,714.32385,747.5437,0.003482412,0.00011150878,1.4553213e-08,0.104507454,-0.65012467,-10.080541,-0.018536977,0.0055327252,-0.014864084,38.673077,36.0
233799680,1114122,2228234,0,0,0,0,0,736.97675,749.07544,736.97675,749.07544,0.0037958045,0.0002189698,1.7922444e-08,0.37711254,-0.56746435,-10.08002,0.010204065,0.0047968356,-0.0027530654,38.623188,36.0
234812783,1114122,2228234,0,0,0,0,0,717.30316,748.97174,717.30316,748.97174,0.0033135691,0.0001279838,1.0400934e-08,0.32836202,-0.5625293,-10.0716,0.022955574,-0.0003761139,0.01700663,38.625,36.0
235833722,1114122,2228234,0,0,0,0,0,716.5371,747.45575,716.5371,747.45575,0.0027315223,7.86878e-05,1.6592228e-08,0.33277985,-0.5550717,-10.007745,0.015488238,-0.0016103967,-0.0012690823,38.75,36.0
236841104,1114122,2228234,0,0,0,0,0,717.875,748.2183,717.875,748.2183,0.0037976322,4.7598067e-05,5.100887e-09,0.39394546,-0.55866444,-10.0895605,0.013607428,0.0017925643,0.0030162875,38.677418,36.0
237774221,1114122,2228234,0,0,0,0,0,717.0631,748.96967,717.0631,748.96967,0.0042784233,4.3522214e-05,2.1972757e-09,0.3491084,-0.53821325,-10.072385,-5.22034e-05,-0.0019071971,0.0060790177,38.71875,36.0
238834817,1114122,2228234,0,0,0,0,0,716.31494,747.4155,716.31494,747.4155,0.002670936,4.4544446e-05,1.7831246e-09,0.31954733,-0.5627964,-10.099798,0.0026010666,0.0020914404,0.0034087466,38.721493,36.0
239822517,1114122,2228234,0,0,0,0,0,717.05615,748.16437,717.05615,748.16437,0.0023298175,4.1408894e-05,1.8202799e-09,0.33781043,-0.55156493,-10.045968,0.004133785,0.0045743235,0.014668025,38.775974,36.0
240810936,1114122,2228234,0,0,0,0,0,717.0438,748.16437,717.0438,748.16437,0.0024257305,4.1718427e-05,1.7138595e-09,0.34304804,-0.55833185,-10.069567,0.0028948775,0.0005455411,-0.00092902704,38.764492,36.0
241766232,1114122,2228234,0,0,0,0,0,716.31934,748.16437,716.31934,748.16437,0.003327201,4.3120817e-05,1.6488056e-09,0.33761576,-0.5092952,-10.126185,0.00491612,0.0012661488,0.0062431647,38.80912,36.0
242791678,1114122,2228234,0,0,0,0,0,715.598,753.849,715.598,753.849,0.002305046,5.409192e-05,4.144326e-09,0.38989627,-0.5307003,-10.081171,-0.0072865817,0.0009090655,0.019300876,38.729168,36.0
243824614,1114122,2228234,0,0,0,0,0,716.3373,748.9672,716.3373,748.9672,0.0027014085,9.950747e-05,1.6344082e-08,-0.37654597,-0.24765351,-10.22684,0.0036879247,0.016582485,0.032414824,38.875,36.0
244842775,1114122,2228234,0,0,0,0,0,716.3373,745.987,716.3373,745.987,0.0041256906,5.043261e-05,4.6103548e-09,0.38427523,-0.57568514,-10.122832,0.0061067194,-0.00029135225,-0.006548151,38.875,36.0
245833166,1114122,2228234,0,0,0,0,0,716.3373,747.52295,716.3373,747.52295,0.0021343094,4.300324e-05,2.2505413e-09,0.32263663,-0.53156507,-10.036964,0.0067335204,0.002131309,0.0073179393,38.94088,36.0
246771088,1114122,2228234,0,0,0,0,0,716.3373,748.1473,716.3373,748.1473,0.0031841744,4.1970983e-05,1.5158232e-09,0.33459753,-0.5233663,-10.105665,0.0064693084,0.0013598363,0.004309076,38.84833,36.0
247844213,1114122,2228234,0,0,0,0,0,712.64435,747.3816,712.64435,747.3816,0.0025605846,4.1050935e-05,1.871552e-09,0.324371,-0.4881689,-10.023391,0.008529822,0.002210302,-0.0006695564,38.843334,36.0
248839854,1114122,2228234,0,0,0,0,0,711.2444,748.1322,711.2444,748.1322,0.004066537,4.1212348e-05,2.4751272e-09,0.18491378,-0.551094,-10.102047,0.011993259,0.0030840752,0.013911916,38.875,36.0
249832656,1114122,2228234,0,0,0,0,0,714.0598,748.1322,714.0598,748.1322,0.0035898914,4.0704617e-05,2.0250523e-09,0.32499933,-0.5150683,-10.052218,-0.00056808075,0.0007620322,0.010890005,38.953125,37.0
250808607,1114122,2228234,0,0,0,0,0,714.72046,748.1314,714.72046,748.1314,0.0033254996,4.176931e-05,1.896202e-09,0.30658486,-0.5172059,-10.07065,0.006920512,0.001957018,0.006150833,38.860577,36.0
251841326,1114122,2228234,0,0,0,0,0,715.5629,748.1314,715.5629,748.1314,0.0028077238,8.1070575e-05,4.908203e-09,0.38041908,-0.5521521,-10.133932,0.0258429,0.0037119456,0.008983012,39.0,36.0
252809932,1114122,2228234,0,0,0,0,0,716.09375,748.1314,716.09375,748.1314,0.0031420465,0.00021139857,1.30644295e-08,0.40836674,-0.5698961,-10.064748,0.0052777687,0.0028844797,0.0054799435,39.0,36.0
253809799,1114122,2228234,0,0,0,0,0,716.0633,748.1314,716.0633,748.1314,0.004442122,0.00026164227,1.5924796e-08,0.1966329,-0.5594178,-10.149491,0.010000076,-0.00082610245,0.009750999,39.0,37.0
254832808,1114122,2228234,0,0,0,0,0,716.0633,748.1314,716.0633,748.1314,0.004446709,0.00013755557,6.9791266e-09,0.32868552,-0.56039965,-10.087815,0.0059077945,0.0011965595,0.0032394747,38.89041,36.0
255768247,1114122,2228234,0,0,0,0,0,716.0633,757.3521,716.0633,757.3521,0.004150651,0.000101734535,4.875532e-09,0.41293648,-0.54751146,-10.083419,0.00928151,0.0021709148,0.003899896,39.011986,37.0
256811192,1114122,2228234,0,0,0,0,0,716.0633,750.7991,716.0633,750.7991,0.0029963842,5.7980295e-05,3.5471268e-09,0.3704358,-0.55355406,-10.0548935,0.0089643635,-0.0027536526,0.0020204613,38.935184,36.0
257752691,1114122,2228234,0,0,0,0,0,716.0633,747.62976,716.0633,747.62976,0.004039316,5.0887018e-05,3.389625e-09,0.34954175,-0.5084491,-10.093223,0.0057105273,0.002618745,0.0070785396,39.014423,37.0
258819791,1114122,2228234,0,0,0,0,0,716.79865,748.87854,716.79865,748.87854,0.004137559,4.7105896e-05,2.3184528e-09,0.32669887,-0.5708546,-10.110906,0.010375178,0.0009445486,-0.00021929991,39.066666,36.0
259823365,1114122,2228234,0,0,0,0,0,716.06824,747.2252,716.06824,747.2252,0.0033980561,4.453921e-05,3.9699337e-09,0.4289114,-0.59972984,-9.953331,0.019334158,0.0075794137,0.01793627,39.125,37.0
260830864,1114122,2228234,0,0,0,0,0,716.7987,747.1011,716.7987,747.1011,0.0024081282,4.6763056e-05,3.1835765e-09,0.36877176,-0.5369008,-10.034651,0.0012211989,-0.002737416,-0.0099602705,39.079224,37.0
261793700,1114122,2228234,0,0,0,0,0,727.79803,747.8508,727.79803,747.8508,0.0032169428,0.00018174089,2.1913959e-08,0.30642173,-0.5197485,-10.086533,0.031566717,9.6163685e-06,-0.012992129,39.069805,36.0
262844266,1114122,2228234,0,0,0,0,0,716.3274,747.0361,716.3274,747.0361,0.012684463,0.00101522,1.647566e-06,4.8454075,0.51771355,-11.694775,-0.041045967,0.05515857,0.40239084,39.125,37.0
263817482,1114122,2228234,0,0,0,0,0,716.4236,747.80316,716.4236,747.80316,0.035477947,0.003020203,1.990893e-05,11.296479,-12.755705,-15.78334,0.26718265,-0.19502595,-1.204068,39.25,37.0
264840217,1114122,2228234,0,0,0,0,0,714.61346,747.0538,714.61346,747.0538,0.01695041,0.0014635071,7.0854107e-06,7.7323103,-0.09162754,-8.187197,-1.1762362,-0.45655742,0.08142273,39.125,37.0
265780814,1114122,2228234,0,0,0,0,0,715.07104,747.81854,715.07104,747.81854,0.010303052,0.000843062,2.6360447e-06,3.136544,0.33410546,-12.826021,-0.36025712,-0.13975006,-0.51498824,39.125,36.0
266763937,1114122,2228234,0,0,0,0,0,715.0804,747.81854,715.0804,747.81854,0.007353101,0.0005857087,1.1654759e-06,2.0936658,0.6911182,-7.5117016,0.27165645,-0.0028926223,0.27017263,39.243057,37.0
267844917,1114122,2228234,0,0,0,0,0,715.79974,747.81854,715.79974,747.81854,0.008316366,0.0005457026,9.074404e-07,0.46043056,-0.54160327,-14.103919,0.09251064,-0.031003335,0.44146088,39.131943,37.0
268834062,1114122,2228234,0,0,0,0,0,716.5411,765.5673,716.5411,765.5673,0.01182612,0.00061025104,8.180769e-07,1.0060016,-1.4413924,-6.117257,-0.1293514,-0.24348074,0.07676161,39.171875,37.0
269762809,1114122,2228234,0,0,0,0,0,716.5411,762.27106,716.5411,762.27106,0.011916027,0.0006408209,1.0239062e-06,1.4969996,0.060527854,-10.274894,0.68762654,-0.012708441,-0.25072995,39.163044,37.0
270821568,1114122,2228234,0,0,0,0,0,716.5411,747.5254,716.5411,747.5254,0.008317755,0.00054974994,1.2007347e-06,1.1158185,0.31824037,-13.9249735,0.49321914,0.33837757,0.33884886,39.2225,37.0
271753912,1114122,2228234,0,0,0,0,0,715.8016,749.56805,715.8016,749.56805,0.010679006,0.0006057084,1.1586543e-06,1.3545518,0.1053454,-10.292841,-0.20372891,0.083844595,0.20997661,39.278572,37.0
272809442,1114122,2228234,0,0,0,0,0,715.8016,747.82196,715.8016,747.82196,0.00886339,0.0005441546,9.1164145e-07,1.9001032,0.9256763,-11.640805,-0.19469795,-0.018444814,0.23601386,39.25,37.0
273747993,1114122,2228234,0,0,0,0,0,715.808,747.7349,715.808,747.7349,0.0072381096,0.00048821233,7.0271943e-07,1.23223,-0.20322838,-9.642551,0.0742251,0.03754511,0.457409,39.261665,37.0
274800491,1114122,2228234,0,0,0,0,0,715.808,747.6673,715.808,747.6673,0.0077974363,0.0005543944,1.0016422e-06,1.0412109,0.8564589,-11.535812,0.30466,0.12976599,0.5083797,39.233765,37.0
275808618,1114122,2228234,0,0,0,0,0,716.8657,747.6673,716.8657,747.6673,0.0083731115,0.00053812127,1.1024722e-06,0.77252394,0.03355621,-10.851891,-0.13516738,0.12433328,0.4988978,39.28169,37.0
276834231,1114122,2228234,0,0,0,0,0,717.01965,747.6673,717.01965,747.6673,0.00936035,0.0007131693,9.359191e-07,0.329569,0.26988426,-13.634803,-0.4004909,0.21087916,0.12683074,39.375,37.0
277839664,1114122,2228234,0,0,0,0,0,717.74255,747.6673,717.74255,747.6673,0.0090609575,0.00065415265,1.1939044e-06,-0.3847604,-0.825455,-10.385608,-0.19566332,-0.05435765,0.0045578997,39.279762,37.0
278819088,1114122,2228234,0,0,0,0,0,716.0655,747.6673,716.0655,747.6673,0.009647204,0.00054630905,5.292419e-07,-0.06329534,-0.49212697,-9.917555,-0.24191155,0.02836275,0.069270715,39.424244,37.0
279785686,1114122,2228234,0,0,0,0,0,715.1873,747.6673,715.1873,747.6673,0.010437127,0.0006805912,7.9805955e-07,-0.53896576,-0.7708841,-11.163756,-0.013377924,-0.029938156,-0.116413265,39.39236,37.0
280776758,1114122,2228234,0,0,0,0,0,715.2559,747.6673,715.2559,747.6673,0.010841296,0.00059607835,7.3697873e-07,0.5653685,0.19588926,-6.8152905,0.12462559,-0.06462022,0.4468168,39.39139,37.0
281832569,1114122,2228234,0,0,0,0,0,716.6639,747.6673,716.6639,747.6673,0.010747998,0.00056795456,8.618762e-07,-0.22662663,-1.2189562,-13.835597,-0.15966986,0.114428,-0.19205254,39.375,37.0
282847256,1114122,2228234,0,0,0,0,0,716.7067,752.3268,716.7067,752.3268,0.011267128,0.00074824115,1.3113324e-06,-1.1070777,0.840556,-12.557905,-1.0612031,0.1417514,-0.17881003,39.44464,37.0
283773789,1114122,2228234,0,0,0,0,0,715.9864,747.80853,715.9864,747.80853,0.01406891,0.0012218072,1.9359022e-06,-0.43515205,0.084088534,-16.727509,1.072381,0.16864564,-0.30211917,39.411232,37.0
284845695,1114122,2228234,0,0,0,0,0,715.9864,744.2146,715.9864,744.2146,0.00977443,0.0006402742,1.1884181e-06,0.55035055,-0.42643315,-11.628569,-1.4413767,-0.108204395,0.018293625,39.42857,37.0
285833826,1114122,2228234,0,0,0,0,0,715.9864,744.73175,715.9864,744.73175,0.010164522,0.00055790064,1.1172257e-06,1.0529507,-0.48310068,-11.308097,-0.14704704,0.17269848,-0.2736096,39.444805,37.0
286826767,1114122,2228234,0,0,0,0,0,715.9864,745.48413,715.9864,745.48413,0.010734341,0.0007234357,1.4400498e-06,0.11829705,-0.42534044,-14.934824,0.36762166,0.24705115,-0.020154351,39.5,37.0
287847229,1114122,2228234,0,0,0,0,0,715.9864,745.48413,715.9864,745.48413,0.010960616,0.0008067813,1.3581318e-06,0.57431203,1.5863688,-10.297918,0.22805133,0.085842885,-0.6454275,39.507042,37.0
288787982,1114122,2228234,0,0,0,0,0,715.9864,745.50653,715.9864,745.50653,0.010045615,0.00052276964,7.666201e-07,0.9205569,0.6224092,-6.2664824,0.21488172,-0.094542205,0.022799332,39.472973,37.0
289818458,1114122,2228234,0,0,0,0,0,717.5163,745.4642,717.5163,745.4642,0.010089512,0.0004881315,4.954425e-07,1.2957028,0.39211842,-9.050256,0.2809378,-0.03826589,0.21714045,39.498287,37.0
290796469,1114122,2228234,0,0,0,0,0,729.9224,746.2145,729.9224,746.2145,0.010228702,0.0005836165,8.5470816e-07,1.8212277,0.21967362,-14.189335,0.2016849,0.25489497,0.21742307,39.532536,37.0
291819332,1114122,2228234,0,0,0,0,0,716.32056,746.2145,716.32056,746.2145,0.009347496,0.00054845354,1.1169855e-06,1.4880573,-0.49202293,-7.6777954,0.24741971,0.21667218,0.7912229,39.5,37.0
292809885,1114122,2228234,0,0,0,0,0,717.0884,746.2145,717.0884,746.2145,0.00837499,0.0005230847,1.5013054e-06,1.9073302,0.99809206,-11.818847,-1.3561321,0.48421186,0.3765504,39.458332,37.0
293798085,1114122,2228234,0,0,0,0,0,715.9837,746.2145,715.9837,746.2145,0.010055747,0.00057283894,9.52462e-07,2.102326,-0.75202376,-11.129683,0.13932638,0.0666044,-0.026712857,39.5,37.0
294798578,1114122,2228234,0,0,0,0,0,717.4537,746.2145,717.4537,746.2145,0.008217511,0.00046183786,9.4405607e-07,2.065867,0.5540719,-7.0501842,0.7390625,-0.05396736,0.31234348,39.625,37.0
295818213,1114122,2228234,0,0,0,0,0,716.6659,763.6781,716.6659,763.6781,0.016631303,0.0009830778,2.033957e-06,1.0148541,-0.4121968,-16.941072,-0.19605047,0.61131173,0.5860148,39.590073,37.0
296834713,1114122,2228234,0,0,0,0,0,716.68726,746.541,716.68726,746.541,0.017466404,0.000994655,2.1528217e-06,-0.35923862,-0.6170593,-13.71111,0.15185064,0.4355328,0.53136015,39.632812,37.0
297840104,1114122,2228234,0,0,0,0,0,716.68726,747.8664,716.68726,747.8664,0.012580009,0.000762037,1.9709946e-06,-0.5471642,0.73632956,-14.439773,0.154942,0.37332046,0.3318084,39.604168,37.0
298760669,1114122,2228234,0,0,0,0,0,716.7096,749.0676,716.7096,749.0676,0.014426884,0.00089875754,1.9330705e-06,-0.9773985,0.472244,-12.314831,0.028016102,0.22178712,0.38329998,39.625,37.0
299840098,1114122,2228234,0,0,0,0,0,716.69543,747.0637,716.69543,747.0637,0.011213515,0.0008207439,1.7032917e-06,-1.5018032,1.6621442,-6.620102,-1.0093167,0.14309394,-0.085898355,39.5,37.0
300751671,1114122,2228234,0,0,0,0,0,716.69543,747.77716,716.69543,747.77716,0.011737388,0.00074854045,1.3073386e-06,-1.6874983,1.3318158,-8.6224375,0.78039366,-0.051280554,-0.048894677,39.75,37.0
301794587,1114122,2228234,0,0,0,0,0,716.69543,746.9296,716.69543,746.9296,0.0103696715,0.00067804975,9.791987e-07,-2.038479,0.19102992,-6.33661,-0.14261682,0.18903996,-0.08094416,39.694256,37.0
302772748,1114122,2228234,0,0,0,0,0,716.69543,747.68896,716.69543,747.68896,0.011178997,0.0008706938,1.1707866e-06,-0.7123574,0.20467335,-20.590302,-0.6367768,0.06452378,0.31725118,39.68671,37.0
303778336,1114122,2228234,0,0,0,0,0,715.9259,747.68896,715.9259,747.68896,0.011179206,0.0008197713,1.1477841e-06,-2.2501402,0.24322546,-8.724787,-0.63800436,0.20222174,-0.21930867,39.72596,37.0
304836296,1114122,2228234,0,0,0,0,0,723.0595,747.68524,723.0595,747.68524,0.011488189,0.0009017656,1.9903785e-06,-0.907209,-0.5252431,-8.346767,0.6928456,-0.120316505,0.1023274,39.75,37.0
305749344,1114122,2228234,0,0,0,0,0,723.0595,748.4365,723.0595,748.4365,0.0170216,0.0010749634,1.6252513e-06,-1.6413361,0.86427283,-15.767627,-0.4135931,0.19701943,-0.081606336,39.735577,37.0
306834879,1114122,2228234,0,0,0,0,0,713.21967,748.4365,713.21967,748.4365,0.01209138,0.0008353574,1.4498904e-06,-1.8548704,0.74838305,-8.053271,0.75204104,-0.0013550959,-0.21489604,39.75,38.0
307842809,1114122,2228234,0,0,0,0,0,716.7186,747.59875,716.7186,747.59875,0.011559619,0.00086816074,1.9266904e-06,-0.72207505,0.13207589,-12.663194,0.06339702,0.022404412,-0.4740546,39.695312,37.0
308790977,1114122,2228234,0,0,0,0,0,715.2483,747.59875,715.2483,747.59875,0.01296715,0.00096968515,2.6202433e-06,-0.6691722,-2.3560967,-7.1461253,-0.25851956,0.071845196,-0.49289036,39.759617,37.0
309844092,1114122,2228234,0,0,0,0,0,715.2056,747.59875,715.2056,747.59875,0.011937284,0.00078838767,1.2656669e-06,-0.39774382,0.5973522,-15.3277645,-0.03466858,0.4209136,0.085578986,39.75,37.0
310849397,1114122,2228234,0,0,0,0,0,716.091,745.04816,716.091,745.04816,0.01118345,0.00073884317,1.5509877e-06,1.2823682,-0.26917472,-7.8416376,-0.59548604,-0.084726274,0.13775142,39.75,37.0
311797539,1114122,2228234,0,0,0,0,0,716.0608,748.9509,716.0608,748.9509,0.010054211,0.0006385474,1.5143387e-06,1.6410234,-2.7016783,-8.447154,0.2876299,-0.09153948,-0.611861,39.775,38.0
312810407,1114122,2228234,0,0,0,0,0,716.69073,747.22565,716.69073,747.22565,0.010006739,0.00067622314,1.8068864e-06,2.4988701,-1.1013001,-20.371979,-0.1347056,0.35286066,-0.21784121,39.80844,37.897434
313828507,1114122,2228234,0,0,0,0,0,715.87933,747.8849,715.87933,747.8849,0.0091549605,0.0006391792,1.2908484e-06,1.5921197,1.0190268,-13.185826,-0.5952543,0.12343406,0.3195728,39.75,37.0
314764069,1114122,2228234,0,0,0,0,0,716.60785,748.64777,716.60785,748.64777,0.008533362,0.00062043575,1.089125e-06,1.3677429,0.50230336,-10.900999,0.036307413,-0.04376611,0.24894352,39.739864,37.0
315791952,1114122,2228234,0,0,0,0,0,716.60785,747.84766,716.60785,747.84766,0.010495507,0.000585484,5.8944136e-07,1.2518296,0.4566391,-8.770457,0.16616431,-0.0138991745,0.027585104,39.790123,37.0
316832529,1114122,2228234,0,0,0,0,0,715.87915,748.60516,715.87915,748.60516,0.008724705,0.0005119972,6.782256e-07,1.1973538,-0.25955468,-10.292519,-0.50808406,0.0036827463,0.21089469,39.75,38.0
317790764,1114122,2228234,0,0,0,0,0,715.87915,747.81354,715.87915,747.81354,0.008981332,0.0005644687,7.96168e-07,1.0201198,-0.45832568,-6.3117514,0.5057251,-0.07020172,0.5302606,39.875,37.0
318803689,1114122,2228234,0,0,0,0,0,715.87915,747.81354,715.87915,747.81354,0.009134029,0.0005613824,1.2878411e-06,0.7637295,0.2741615,-9.985515,-0.40849325,0.21966644,0.81999075,39.9375,38.0
319784138,1114122,2228234,0,0,0,0,0,728.72144,747.81354,728.72144,747.81354,0.008724055,0.0006716749,1.4124487e-06,1.0780197,0.3614247,-12.663649,0.3413222,0.15725636,0.042319298,39.82363,37.0
320851218,1114122,2228234,0,0,0,0,0,712.0964,748.56665,712.0964,748.56665,0.008698133,0.00076012645,1.6292341e-06,0.16521123,0.92605674,-16.041313,-0.7832294,0.38251507,0.3108898,39.75,38.0
321850186,1114122,2228234,0,0,0,0,0,712.6351,747.81335,712.6351,747.81335,0.008385464,0.0008413008,1.5942455e-06,1.500089,0.28845677,-5.4337225,0.7077535,-0.011248495,-0.023178758,39.75,37.0
322791275,1114122,2228234,0,0,0,0,0,713.6424,767.4924,713.6424,767.4924,0.013432665,0.0008636508,1.4313116e-06,1.7770325,1.1537489,-14.363114,-0.3488352,0.3553834,0.15648824,39.875,37.0
323843888,1114122,2228234,0,0,0,0,0,713.75134,746.3218,713.75134,746.3218,0.010316111,0.0005609238,6.1344343e-07,0.69465286,2.129069,-8.068336,0.52603877,-0.21665779,-0.26191056,39.875,37.0
324843709,1114122,2228234,0,0,0,0,0,714.4653,746.1966,714.4653,746.1966,0.008030572,0.0005981446,8.562996e-07,0.22808437,-1.6763909,-9.731534,0.010692037,0.036692046,0.34017155,39.875,37.0
325764902,1114122,2228234,0,0,0,0,0,714.59357,745.5921,714.59357,745.5921,0.008493391,0.0007262332,1.5067261e-06,1.0443494,-0.49727976,-10.217652,-0.06741329,0.10162999,0.75185406,39.875,37.0
326790395,1114122,2228234,0,0,0,0,0,713.87384,745.4443,713.87384,745.4443,0.009258568,0.00059518736,7.54556e-07,1.3224891,1.4768363,-8.29264,-0.18393736,0.10905942,-0.16476204,39.860416,38.0
327845152,1114122,2228234,0,0,0,0,0,714.6114,745.2934,714.6114,745.2934,0.009890805,0.00062219624,1.2934305e-06,1.045725,0.023251023,-3.9085484,0.37605414,-0.0463236,-0.24572541,39.907814,38.0
328843901,1114122,2228234,0,0,0,0,0,714.6114,746.0466,714.6114,746.0466,0.009266744,0.00065973325,1.48389e-06,1.0143096,0.7182467,-16.90982,-0.18756165,0.09594914,0.04016005,39.87148,38.0
329817004,1114122,2228234,0,0,0,0,0,714.6366,745.27075,714.6366,745.27075,0.009240161,0.0007507127,1.1542306e-06,0.20376661,0.7547701,-15.054169,-0.49491143,0.2554727,-0.3334993,39.939026,38.0
330777683,1114122,2228234,0,0,0,0,0,715.35675,746.0193,715.35675,746.0193,0.010999749,0.0009423901,1.6227785e-06,0.26111057,0.45670286,-9.499251,1.1920192,0.010490729,-0.44389558,39.986668,38.0
331813175,1114122,2228234,0,0,0,0,0,715.35675,746.0193,715.35675,746.0193,0.009955819,0.00068530027,1.2123626e-06,0.5379774,1.7714161,-9.405767,0.34615993,0.03601584,-0.4397207,39.939285,38.0
332833632,1114122,2228234,0,0,0,0,0,715.35675,746.0193,715.35675,746.0193,0.009112375,0.0007045642,1.6002872e-06,-0.10171917,0.7079392,-12.010073,0.18691282,0.113226525,0.46897608,39.900642,38.0
333756540,1114122,2228234,0,0,0,0,0,715.35675,746.0193,715.35675,746.0193,0.009361474,0.0005945416,1.003014e-06,0.44599056,1.3482547,-12.106608,-0.78720814,0.1488669,0.2578231,39.873375,37.0
334849769,1114122,2228234,0,0,0,0,0,714.4042,746.0193,714.4042,746.0193,0.008228636,0.00068346184,1.2824253e-06,1.181892,1.5437449,-9.985044,-0.26082855,0.30897415,-0.26197988,39.875,37.0
335832578,1114122,2228234,0,0,0,0,0,714.9769,752.1856,714.9769,752.1856,0.008390438,0.0005679377,1.5188441e-06,1.3809704,-0.21680222,-12.568665,0.87738323,0.046402007,-0.32411087,40.0,37.0
336843238,1114122,2228234,0,0,0,0,0,716.9815,754.2764,716.9815,754.2764,0.0084179565,0.00069132773,1.1003486e-06,1.0706651,0.6284753,-11.673033,0.38629547,0.065718375,0.08205426,39.875,38.0
337806333,1114122,2228234,0,0,0,0,0,716.7642,747.8431,716.7642,747.8431,0.007445487,0.0006262274,8.2343627e-07,0.85539013,-0.9307582,-13.859139,-0.15725224,0.22049141,0.21195325,40.0,38.0
338746762,1114122,2228234,0,0,0,0,0,716.70514,745.486,716.70514,745.486,0.0069969688,0.0005971982,8.1157714e-07,1.6728821,0.028804768,-12.387723,-0.22388501,0.14644447,0.34762147,39.880436,37.0
339839772,1114122,2228234,0,0,0,0,0,716.5888,746.0204,716.5888,746.0204,0.007974745,0.0005073421,5.0086425e-07,1.7114578,-0.114496045,-9.766692,-0.073502764,-0.03595436,0.1377438,39.94366,38.0
340820289,1114122,2228234,0,0,0,0,0,717.31464,746.817,717.31464,746.817,0.008097896,0.00046816314,5.1810713e-07,1.7315726,0.25626954,-7.62833,-0.1095871,0.018308548,0.30138794,39.875,37.0
341833413,1114122,2228234,0,0,0,0,0,716.60974,745.94037,716.60974,745.94037,0.008428444,0.00051351445,8.3839086e-07,1.4533012,-0.42317465,-12.520712,0.48454568,0.15617506,0.3413409,39.95486,37.0
342781321,1114122,2228234,0,0,0,0,0,716.57367,745.9179,716.57367,745.9179,0.007599915,0.000584799,1.6607012e-06,0.8410731,1.6564424,-12.48295,0.28798833,0.44907746,0.4277064,40.014084,37.0
343794530,1114122,2228234,0,0,0,0,0,716.57367,746.69604,716.57367,746.69604,0.007069166,0.00076538423,2.1106428e-06,1.0105573,1.7354558,-15.909313,-0.35971522,0.44864157,0.283086,39.989285,37.0
344815102,1114122,2228234,0,0,0,0,0,716.57367,746.69604,716.57367,746.69604,0.007203986,0.0006249331,1.4157512e-06,0.5850362,0.00013516158,-8.742338,0.44623634,0.12797436,0.31277338,40.010803,37.0
345764484,1114122,2228234,0,0,0,0,0,716.57367,746.6666,716.57367,746.6666,0.008365022,0.0005924061,1.739346e-06,-0.37624347,0.43734014,-10.762691,0.12585257,0.44031593,0.5721926,39.994793,37.0
346791040,1114122,2228234,0,0,0,0,0,716.57367,746.6666,716.57367,746.6666,0.009177773,0.0009188371,2.826461e-06,-1.2891988,0.894724,-18.107773,-0.2950106,0.49479693,0.34598878,40.032093,37.0
347792680,1114122,2228234,0,0,0,0,0,712.54785,746.6414,712.54785,746.6414,0.008827743,0.000748402,1.3770994e-06,-1.9022986,1.4484212,-15.2519455,-0.3624013,0.19197741,0.0694299,39.95139,37.0
348846231,1114122,2228234,0,0,0,0,0,713.9852,746.6414,713.9852,746.6414,0.009431772,0.000650169,8.20885e-07,-2.092559,1.8793765,-11.129764,0.39572135,-0.23274086,-0.18165788,40.0,37.0
349837702,1114122,2228234,0,0,0,0,0,716.10425,755.31433,716.10425,755.31433,0.011747724,0.0008147113,1.008449e-06,-2.67185,1.0118463,-12.098971,0.53750604,-0.056159105,-0.027956543,39.916668,38.0
350843171,1114122,2228234,0,0,0,0,0,717.5886,745.1746,717.5886,745.1746,0.010197472,0.00068418006,9.296486e-07,-2.9596982,0.13209674,-15.202389,-0.1015394,0.032637216,0.06106456,39.94643,37.0
351773819,1114122,2228234,0,0,0,0,0,717.37134,745.39124,717.37134,745.39124,0.011139829,0.0009246891,1.3644159e-06,-2.6461418,0.81497175,-10.421544,-0.6983967,0.20776173,-0.21849841,40.0,38.0
352815608,1114122,2228234,0,0,0,0,0,717.3506,746.9466,717.3506,746.9466,0.0105410395,0.0009589497,2.242932e-06,-2.5087829,-0.9814576,-17.243052,0.2753713,0.066789985,-0.47851062,40.022152,38.0
353832118,1114122,2228234,0,0,0,0,0,716.6184,746.77606,716.6184,746.77606,0.017902104,0.001078138,1.3678382e-06,-1.7257669,2.6703522,-12.325421,0.3751884,-0.17140268,-0.10680724,39.994564,37.0
354840428,1114122,2228234,0,0,0,0,0,716.6385,746.7611,716.6385,746.7611,0.008693732,0.0006658685,1.6179778e-06,-1.219869,0.85694814,-1.7674854,0.2630321,-0.12221574,0.106685795,40.015823,37.0
355759767,1114122,2228234,0,0,0,0,0,715.8254,747.5404,715.8254,747.5404,0.009783117,0.00079900905,1.8729188e-06,-1.5663805,1.3228244,-10.866938,0.67677927,-0.17115927,-0.3563358,40.0,38.0
356826413,1114122,2228234,0,0,0,0,0,715.1015,747.5404,715.1015,747.5404,0.013018015,0.0008810061,1.5065511e-06,-2.2344763,1.1187983,-15.285055,0.4058913,0.27943632,-0.07238954,40.0,38.0
357750879,1114122,2228234,0,0,0,0,0,715.1015,747.5404,715.1015,747.5404,0.018930307,0.0012235563,2.0451052e-06,-1.73301,0.6627711,-8.589873,-0.50952524,0.06906221,-0.017373566,39.958332,38.0
358822531,1114122,2228234,0,0,0,0,0,715.837,748.30255,715.837,748.30255,0.01359876,0.001001975,1.6076272e-06,-1.5672506,1.4241291,-7.4620876,0.61141735,0.07202935,-0.070914,39.992752,37.0
359831936,1114122,2228234,0,0,0,0,0,715.837,748.219,715.837,748.219,0.009846784,0.00073865213,1.6017203e-06,-2.0723202,1.1529535,-6.5906167,-0.2797086,-0.055193506,-0.16855535,40.125,37.0
360753504,1114122,2228234,0,0,0,0,0,715.837,748.219,715.837,748.219,0.009359907,0.00086131645,1.5520467e-06,-1.3884767,1.563564,-12.374165,0.0038958543,0.37168977,-0.27749446,40.041668,37.283783
361789006,1114122,2228234,0,0,0,0,0,735.34485,748.219,735.34485,748.219,0.0126853725,0.0009694318,1.8522177e-06,-1.9592732,-1.8828417,-6.918139,0.43268952,0.13388395,-0.007867192,39.96528,38.0
362837030,1114122,2228234,0,0,0,0,0,715.3945,755.49457,715.3945,755.49457,0.012549606,0.0008423159,1.3246271e-06,-0.8662779,-0.6306861,-11.321908,-0.00094645226,0.123395674,0.41112542,39.875,38.0
363850113,1114122,2228234,0,0,0,0,0,738.99994,744.3622,738.99994,744.3622,0.00986924,0.0010958265,2.542477e-06,-1.4906516,0.8748057,-9.875477,-0.23438863,-0.13494982,0.32808113,40.125,38.0
364845720,1114122,2228234,0,0,0,0,0,719.39056,745.3532,719.39056,745.3532,0.007419388,0.0006479009,1.7862827e-06,-0.692714,-0.9277851,-16.486488,0.70017374,0.34631607,0.24547742,39.875,37.0
365845304,1114122,2228234,0,0,0,0,0,715.1177,746.7273,715.1177,746.7273,0.017325854,0.0015509297,7.2523367e-06,-2.2058837,5.5719805,-7.398251,0.8921997,-0.9502583,-1.2612185,39.875,38.0
366826688,1114122,2228234,0,0,0,0,0,716.24786,745.9876,716.24786,745.9876,0.05526188,0.007944056,0.00029585345,2.3057642,8.930143,-0.47112885,-1.6348187,0.90048504,8.339382,40.06855,37.0
367824575,1114122,2228234,11,0,0,0,0,715.3262,745.9986,715.3262,745.9986,0.026280308,0.0027221895,5.614964e-05,-0.579279,-1.8504667,-8.551802,-0.10442024,-0.12581798,-0.29591775,40.0,38.0
368800099,1114122,2228234,11,0,0,0,0,715.3582,746.02844,715.3582,746.02844,0.0076711583,0.0007191962,8.73156e-06,-0.37217313,-1.4479103,-9.753506,-0.7351724,0.26225123,-0.5127329,40.003624,38.0
369828279,1114122,2228234,11,0,0,0,0,716.1089,746.02844,716.1089,746.02844,0.0041714436,0.00022816131,1.3437144e-06,0.2224399,-0.46540454,-10.051795,-0.011306372,0.0134295905,0.080308184,39.993057,37.0
370840034,1114122,2228234,11,0,0,0,0,716.1089,745.9928,716.1089,745.9928,0.002943455,8.2364415e-05,1.8594156e-07,0.13751812,-0.48464718,-10.083913,0.006063053,0.004576416,0.0030781734,40.001602,37.0
371761667,1114122,2228234,11,0,0,0,0,716.8393,745.97516,716.8393,745.97516,0.0025869156,5.864551e-05,3.2660505e-08,0.08907833,-0.4211356,-10.0684395,0.0017100938,0.0013459758,-0.0029269943,40.02226,38.0
372754913,1114122,2228234,11,0,0,0,0,716.83136,746.7311,716.83136,746.7311,0.0035502734,5.3570064e-05,7.1737616e-09,0.11595913,-0.4962222,-10.0076,0.0072171143,0.0010870182,0.0032092344,39.99643,37.0
373775991,1114122,2228234,11,0,0,0,0,716.1106,746.7311,716.1106,746.7311,0.0045373165,4.7656515e-05,2.8439682e-09,-0.053024735,-0.47556624,-10.185981,0.0204549,0.003111501,0.004363317,40.0,37.0
374801770,1114122,2228234,11,0,0,0,0,716.1106,746.7311,716.1106,746.7311,0.004585326,0.0001051628,2.9217139e-08,0.447528,-0.12797529,-10.505433,0.14273264,0.026477922,0.10389209,40.0,37.0
375776408,1114122,2228234,11,0,0,0,0,716.84186,746.7311,716.84186,746.7311,0.0044314796,0.00019050173,1.261353e-07,1.3833303,-1.0159959,-8.950548,-0.083351225,0.19338807,0.45233673,39.98718,37.0
376817728,1114122,2228234,11,0,0,0,0,716.84186,752.6906,716.84186,752.6906,0.005006101,0.00015592042,9.345253e-08,0.98084563,-0.6831814,-10.304688,0.1078324,-0.024845807,-0.026841005,39.976448,37.0
377841632,1114122,2228234,11,0,0,0,0,718.9804,744.5246,718.9804,744.5246,0.006220066,0.00030598402,3.1353372e-07,0.8454154,-0.6526763,-10.400233,-0.08001169,-0.19645907,-0.07957336,39.901043,37.0
378837974,1114122,2228234,11,0,0,0,0,714.1638,746.2193,714.1638,746.2193,0.003547293,0.00012398361,6.008774e-08,0.32292366,-0.4415038,-9.838419,-0.026169712,0.0006449748,-0.030116294,39.875,37.0
379845870,1114122,2228234,11,0,0,0,0,715.0946,745.8254,715.0946,745.8254,0.0029610475,9.162898e-05,1.6997783e-08,0.14569345,-0.52065486,-9.89378,0.009310381,0.0036952759,0.024024677,40.0,37.0
380847900,1114122,2228234,11,0,0,0,0,714.3863,745.864,714.3863,745.864,0.0027718192,7.045353e-05,1.0250118e-08,0.45335168,-0.59231174,-10.098416,0.017330434,-0.00040516106,0.02260895,40.0,37.0
