timestamp,timestamp_sample,device_id,x,y,z,temperature,error_count,samples
186829070,186828180,2162698,0.004261058,0.02958772,-0.026897928,39.824116,1,20
186831557,186830670,2162698,0.0038882152,0.02894856,-0.024820661,39.824116,1,20
186931605,186930716,2162698,0.035792883,0.02759035,-0.010599381,39.824116,0,20
187029146,187028262,2162698,0.010865698,0.03073288,2.6631611e-05,39.824116,0,20
187131730,187130834,2162698,0.009507485,0.034567833,0.00628506,39.73,0,20
187229246,187228358,2162698,-0.01866876,0.037017938,-0.0128897,39.73,0,20
187329293,187328408,2162698,0.040480047,0.0304133,-0.052171327,39.73,0,20
187431884,187430993,2162698,0.008149273,0.03368899,-0.049321745,39.73,0,20
187529380,187528499,2162698,-0.011558119,0.032783512,-0.041065942,39.73,0,20
187631923,187631048,2162698,0.016058862,0.03621899,-0.02330266,39.73,0,20
187729481,187728599,2162698,0.010546118,0.030839406,-0.015925704,39.73,0,20
187829523,187828642,2162698,0.017257284,0.031558458,-0.0009321064,39.73,0,20
187929569,187928690,2162698,-0.0031158985,0.03470099,-0.0002396845,39.73,0,20
188029606,188028737,2162698,0.03768373,0.029827405,-0.018535601,39.73,0,20
188132161,188131286,2162698,0.031505197,0.030892668,0.014327806,39.824116,0,20
188229694,188228827,2162698,0.01717739,0.032330777,0.0025566346,39.824116,0,20
188332263,188331390,2162698,-0.020106867,0.04298342,0.0035686358,39.824116,0,20
188429803,188428928,2162698,0.030812774,0.03187804,-0.010652645,39.824116,0,20
188529870,188528983,2162698,0.015153387,0.03139867,-0.012916331,39.824116,0,20
188629913,188629023,2162698,-0.0020240024,0.021944448,-0.024101608,39.824116,0,20
188729943,188729070,2162698,0.02612561,0.018189391,-0.030040458,39.824116,0,20
188832507,188831627,2162698,0.003222425,0.018082865,-0.02974751,39.824116,0,20
188930044,188929166,2162698,0.046871636,0.017417073,0.008788432,39.824116,0,20
189030087,189029213,2162698,0.015180019,0.0231695,0.01571265,39.824116,0,20
189130155,189129261,2162698,0.025353294,0.032543827,-0.031318776,39.824116,0,20
189230178,189229309,2162698,0.02580603,0.02631203,-0.035100464,39.824116,0,20
189327734,189326857,2162698,0.025033714,0.030226879,0.006711166,39.824116,0,20
189430293,189429420,2162698,0.05243764,0.004101268,-0.001970739,39.824116,0,20
189532828,189531953,2162698,0.05089301,0.032330777,0.053023536,39.824116,0,20
189630423,189629540,2162698,0.027430559,0.022024343,-0.043196473,39.824116,0,20
189730434,189729547,2162698,0.0052464274,0.013582122,-0.02727077,39.824116,0,20
189830478,189829594,2162698,-0.007323693,0.023196133,5.3263222e-05,39.824116,0,20
189930515,189929642,2162698,0.041252367,0.026205506,-0.027377296,39.824116,0,20
190028058,190027189,2162698,0.043089945,0.039201733,0.016911073,39.824116,0,20
190130610,190129737,2162698,0.08431568,0.025965821,0.0056459014,39.63588,0,20
190230654,190229785,2162698,0.05318333,0.030173615,-0.022796659,39.63588,0,20
190330716,190329836,2162698,0.021758026,0.029214878,-0.06154565,39.63588,0,20
190430761,190429880,2162698,0.033156354,0.026338663,-0.10040117,39.63588,0,20
190528313,190527426,2162698,0.02298308,0.026072348,0.008149273,39.63588,0,20
190630849,190629976,2162698,0.037310887,0.032330777,0.027696876,39.63588,0,20
190728404,190727522,2162698,-0.017656758,0.028309403,0.02263687,39.63588,0,20
190830962,190830088,2162698,0.040772997,0.036272254,0.023382554,39.63588,0,20
190931005,190930121,2162698,0.00069242186,0.026844664,-0.0010652645,39.63588,0,20
191028538,191027665,2162698,0.027324032,0.03568636,0.008122642,39.63588,0,20
191131096,191130214,2162698,0.0087618,0.025220135,-0.011717909,39.73,0,20
191228641,191227760,2162698,0.004181163,0.0350472,0.0025832662,39.73,0,20
191331182,191330309,2162698,0.002743056,0.027057717,0.007483483,39.73,0,20
191428732,191427855,2162698,0.031132353,0.029001825,0.016591493,39.73,0,20
191531278,191530404,2162698,0.038935415,0.032543827,-0.010359697,39.73,0,20
191631328,191630456,2162698,0.02348908,0.033316147,0.0052197957,39.73,0,20
191728873,191727998,2162698,0.02924151,0.030466562,-0.010306434,39.73,0,20
191831442,191830547,2162698,0.03187804,0.03025351,0.010865698,39.73,0,20
191928975,191928093,2162698,0.033928674,0.0417051,-0.026205506,39.73,0,20
192031529,192030643,2162698,0.017390441,0.032543827,-0.04117247,39.73,0,20
192129058,192128189,2162698,-0.017736653,0.036645096,0.013129384,39.73,0,20
192229113,192228240,2162698,-0.00396811,0.024660872,-0.028788771,39.73,0,20
192329168,192328284,2162698,0.002130529,0.01768339,-0.010892329,39.73,0,20
192429209,192428332,2162698,0.02082592,0.028522456,-0.039121836,39.73,0,20
192531767,192530881,2162698,0.071292825,0.035020567,-0.017310547,39.73,0,20
192629303,192628428,2162698,0.052757222,0.019920446,-0.00892159,39.73,0,20
192731848,192730976,2162698,-0.030360037,0.0029028456,-0.21947111,39.73,0,20
192829411,192828526,2162698,-0.061865233,0.033262882,-0.039947417,39.73,0,20
192929459,192928570,2162698,-0.014514228,0.0231695,-0.029720878,39.73,0,20
193031988,193031119,2162698,0.069561765,0.046046056,0.05803028,39.73,0,20
193129539,193128665,2162698,0.04063984,0.044687845,0.042131208,39.73,0,20
193232084,193231214,2162698,0.081226416,0.016591493,0.054514907,39.73,0,20
193329636,193328761,2162698,0.089801796,0.05262406,0.061971758,39.73,0,20
193429688,193428808,2162698,0.05472796,0.01866876,-0.022876553,39.73,0,20
193529735,193528856,2162698,0.0386691,0.017070863,-0.027324032,39.73,0,20
193629788,193628918,2162698,-0.06218481,0.03406183,-0.08716527,39.73,0,20
193732335,193731456,2162698,0.057071544,0.047484163,-0.058962386,39.73,0,20
193829872,193828999,2162698,0.11177287,0.079495355,0.08447547,39.73,0,20
193932444,193931548,2162698,0.034647726,0.013022858,0.07257114,39.73,0,20
194029982,194029095,2162698,0.046472162,0.008042746,0.07659251,39.73,0,20
194130026,194129146,2162698,0.04876248,0.025752768,0.037470676,39.824116,0,20
194227562,194226688,2162698,-0.0057790596,0.03273025,-0.040400155,39.824116,0,20
194330134,194329261,2162698,0.003834952,0.03376888,-0.0180296,39.824116,0,20
194432667,194431786,2162698,0.03536678,0.029294772,-0.025086978,39.824116,0,20
194530208,194529333,2162698,0.028895298,0.018429074,-0.022503711,39.824116,0,20
194630270,194629389,2162698,0.025646241,0.024554346,-0.014700649,39.824116,0,20
194730298,194729428,2162698,0.015393071,0.029614352,0.003222425,39.824116,0,20
194830345,194829476,2162698,0.052118063,0.032623723,-0.02777677,39.824116,0,20
194927907,194927037,2162698,0.039228365,0.02894856,-0.009241169,39.824116,0,20
195030459,195029579,2162698,0.0145408595,0.028575718,-0.021758026,39.824116,0,20
195130500,195129619,2162698,0.02263687,-0.030945932,-0.031185616,39.824116,0,20
195230540,195229667,2162698,0.027084349,0.010306434,0.010705908,39.824116,0,20
195330588,195329714,2162698,0.019201392,0.036432043,0.009054747,39.824116,0,20
195428142,195427265,2162698,0.0013049489,0.029348036,-0.022210764,39.824116,0,20
195530685,195529810,2162698,0.023728766,0.033502568,-0.027004454,39.824116,0,20
195628236,195627356,2162698,0.035846148,0.02660498,-0.010918961,39.824116,0,20
195730790,195729905,2162698,0.027696876,0.02644519,-0.015659388,39.824116,0,20
195830831,195829956,2162698,0.010652645,0.027963191,-0.034461305,39.824116,0,20
195930883,195930001,2162698,0.03275688,0.031531826,0.0022370552,39.824116,0,20
196030925,196030049,2162698,0.026711507,0.023595607,-0.012942963,39.824116,0,20
196128478,196127595,2162698,0.013848438,0.017310547,-0.0011984225,39.824116,0,20
196231020,196230144,2162698,0.01736381,0.0175236,-0.013156015,39.824116,0,20
196328601,196327728,2162698,0.024048345,0.032810144,-0.008735169,39.824116,0,20
196431133,196430240,2162698,0.018801918,0.05371596,0.0175236,39.824116,0,20
196531177,196530288,2162698,0.0102531705,0.038562573,-0.02631203,39.824116,0,20
196628709,196627834,2162698,0.04378237,0.04689827,-0.016564863,39.824116,0,20
196731269,196730391,2162698,-0.0030360036,0.030226879,-0.0038882152,39.824116,0,20
196828799,196827929,2162698,0.042237736,0.021837922,-0.0011451592,39.824116,0,20
196931355,196930478,2162698,-0.002796319,0.029800773,-0.008282431,39.824116,0,20
197028896,197028025,2162698,0.03435478,0.024394555,-0.013608754,39.824116,0,20
197128946,197128073,2162698,0.057977017,0.0073769563,-0.048203215,39.824116,0,20
197231510,197230622,2162698,0.03768373,0.012330436,-0.009054747,39.824116,0,20
197329046,197328169,2162698,0.036964677,0.036724992,-0.022210764,39.824116,0,20
197431588,197430717,2162698,0.012809805,0.04151868,-0.014993597,39.824116,0,20
197529138,197528264,2162698,0.012996227,0.005885586,-0.006364955,39.824116,0,20
197631693,197630813,2162698,0.032969933,0.034993935,-0.008655273,39.824116,0,20
197729243,197728367,2162698,0.024740767,0.033955306,-0.0114249615,39.824116,0,20
197829281,197828408,2162698,0.027137611,0.031292144,-0.0019441076,39.824116,0,20
197931834,197930956,2162698,0.022077605,0.027350664,-0.006711166,39.824116,0,20
198029380,198028503,2162698,0.038296256,0.024687503,-0.005486112,39.824116,0,20
198131933,198131052,2162698,0.032197617,0.020559603,-0.016271913,39.918236,0,20
198229477,198228599,2162698,0.02298308,0.03616573,0.008788432,39.918236,0,20
198329526,198328647,2162698,0.0069774822,0.026471822,0.029667614,39.918236,0,20
198429578,198428694,2162698,-0.00974717,0.032330777,-0.009640643,39.918236,0,20
198529615,198528742,2162698,-0.026525084,0.044528052,-0.012170646,39.918236,0,20
198632188,198631294,2162698,0.004261058,0.029507825,0.009800433,39.918236,0,20
198729732,198728855,2162698,0.04316984,0.01933455,-0.0060453755,39.918236,0,20
198832266,198831392,2162698,0.033156354,0.023196133,-0.0059921127,39.918236,0,20
198929811,198928934,2162698,0.068682924,0.028256139,0.009667275,39.918236,0,20
199029881,199028998,2162698,0.06258429,0.007243798,-0.0077497987,39.918236,0,20
199127420,199126528,2162698,0.043569315,0.024767399,0.0014647386,39.918236,0,20
199229952,199229077,2162698,0.038589206,0.012703278,-0.0090813795,39.918236,0,20
199332513,199331627,2162698,0.02463424,0.035286885,-0.00892159,39.918236,0,20
199430046,199429173,2162698,0.012303804,0.030652985,0.0079095885,39.918236,0,20
199530094,199529221,2162698,0.025486453,0.023648871,-0.0059388494,39.918236,0,20
199630149,199629269,2162698,-0.012037489,0.04543353,-0.007163903,39.918236,0,20
199730190,199729317,2162698,0.027084349,-0.009880328,-0.009321064,39.918236,0,20
199827752,199826870,2162698,0.075979985,0.009347696,0.008708537,39.918236,0,20
199930286,199929413,2162698,0.0018642128,0.052650694,-0.029454561,39.918236,0,20
200032840,200031962,2162698,0.050813112,0.050360378,-0.010306434,39.918236,0,20
200130402,200129509,2162698,0.047004793,0.030626353,-0.007829694,40.012352,0,20
200230435,200229557,2162698,0.018588865,0.022929817,0.007456851,40.012352,0,20
200327977,200327103,2162698,0.030519826,0.030280141,-0.011531488,40.012352,0,20
200430565,200429683,2162698,0.04596616,0.020559603,-0.0155262295,40.012352,0,20
200528076,200527203,2162698,0.03523362,0.01885518,-0.00793622,40.012352,0,20
200630630,200629752,2162698,0.008708537,0.026498454,0.0037550572,40.012352,0,20
200730679,200729797,2162698,0.023435818,0.039601207,-0.030519826,40.012352,0,20
200830721,200829845,2162698,0.03139867,0.013156015,-0.018322548,40.012352,0,20
200930766,200929893,2162698,0.02199771,0.01866876,0.016298546,40.012352,0,20
201028318,201027441,2162698,-0.14032196,0.055633437,-0.04561995,40.012352,0,20
201130858,201129988,2162698,0.08998822,0.016724652,-0.0087618,39.918236,0,20
201228417,201227535,2162698,-0.013235911,0.012170646,-0.005139901,39.918236,0,20
201330957,201330084,2162698,-0.018482339,0.02098571,0.0066046393,39.918236,0,20
201428516,201427632,2162698,-0.029880667,0.019148128,-0.02759035,39.918236,0,20
201528549,201527679,2162698,0.03797668,0.030226879,-0.032463934,39.918236,0,20
201628607,201627727,2162698,0.024021713,0.04162521,0.0057257963,39.918236,0,20
201728656,201727782,2162698,0.07368967,0.017097494,-0.0494549,39.918236,0,20
201831205,201830332,2162698,0.07416904,0.03962784,-0.01488707,39.918236,0,20
201928741,201927871,2162698,0.025353294,0.04942827,0.023329291,39.918236,0,20
202031299,202030421,2162698,0.061865233,0.013156015,-0.00063915865,39.918236,0,20
202128840,202127967,2162698,0.0076166405,0.00892159,-0.01669802,39.918236,0,20
202228888,202228016,2162698,-0.010120012,0.030386668,-0.03787015,39.918236,0,20
202331462,202330564,2162698,0.0,0.016138757,-0.07054714,39.918236,0,20
202429013,202428123,2162698,0.022184132,0.034274884,0.06791061,39.918236,0,20
202531545,202530661,2162698,0.047058057,0.01355549,0.01536644,39.918236,0,20
202629078,202628208,2162698,0.011371698,0.030226879,-0.07566041,39.918236,0,20
202729130,202728256,2162698,-0.060080916,0.051345747,-0.04167847,39.918236,0,20
202829197,202828311,2162698,0.024767399,0.015686018,-0.0021571605,39.918236,0,20
202929230,202928352,2162698,0.042956788,0.028815404,-0.027750138,39.918236,0,20
203031771,203030901,2162698,0.065646924,0.039734364,-0.045113947,39.918236,0,20
203129323,203128448,2162698,0.013821806,0.046765108,-0.028682245,40.012352,0,20
203231874,203230997,2162698,-0.026232136,0.025379926,0.12444952,40.012352,0,20
203329426,203328544,2162698,0.14703313,0.01933455,0.08016115,40.012352,0,20
203429478,203428596,2162698,-0.0047670584,0.04034689,-0.008122642,40.012352,0,20
203532020,203531142,2162698,0.03717773,0.023542345,-0.055340488,40.012352,0,20
203629562,203628689,2162698,0.028336033,0.02926814,-0.045673214,40.012352,0,20
203732126,203731239,2162698,0.004660532,0.031478565,-0.0049002166,40.012352,0,20
203829674,203828788,2162698,0.042530682,0.035020567,0.015978966,40.012352,0,20
203929711,203928833,2162698,0.00247674,0.032543827,-0.0064981133,40.012352,0,20
204029769,204028881,2162698,0.045753106,0.026924558,-0.024580978,40.012352,0,20
204129804,204128929,2162698,0.0030360036,0.028842036,-0.019094866,39.918236,0,20
204232348,204231479,2162698,0.03520699,0.03195793,0.001438107,39.918236,0,20
204329895,204329026,2162698,0.009347696,0.032091092,-0.002130529,39.918236,0,20
204429945,204429074,2162698,0.033129726,0.02924151,-0.016831178,39.918236,0,20
204529996,204529122,2162698,0.018828548,0.027696876,-0.014620755,39.918236,0,20
204630042,204629170,2162698,0.032463934,0.029188246,-0.0022903185,39.918236,0,20
204727592,204726717,2162698,0.016484967,0.031052459,-0.0076166405,39.918236,0,20
204830133,204829264,2162698,0.034914043,0.030067088,-0.014247912,39.918236,0,20
204932710,204931816,2162698,0.018242653,0.030226879,-0.013795175,39.918236,0,20
205030246,205029363,2162698,0.035579834,0.029134983,-0.0040746364,39.918236,0,20
205130281,205129412,2162698,0.015419703,0.0314253,-0.007962852,40.012352,0,20
205230389,205229483,2162698,0.025033714,0.027430559,-0.013235911,40.012352,0,20
205330397,205329508,2162698,0.02066613,0.030839406,-0.01257012,40.012352,0,20
205427928,205427055,2162698,0.019947076,0.031372037,-0.005273059,40.012352,0,20
205530499,205529615,2162698,0.019254655,0.030626353,-0.009933591,40.012352,0,20
205630530,205629661,2162698,0.025113609,0.026338663,-0.011957593,40.012352,0,20
205730574,205729700,2162698,0.023116238,0.029481193,-0.010226538,40.012352,0,20
205830643,205829763,2162698,0.022743396,0.03139867,-0.008815063,40.012352,0,20
205928197,205927316,2162698,0.016458336,0.031611722,-0.011211908,40.012352,0,20
206030715,206029846,2162698,0.02002697,0.02841593,-0.013582122,40.012352,0,20
206128273,206127395,2162698,0.024767399,0.030892668,-0.007163903,39.918236,0,20
206230837,206229967,2162698,0.020479709,0.030626353,-0.0061785337,39.918236,0,20
206330866,206329993,2162698,0.027297402,0.02926814,-0.010306434,39.918236,0,20
206428414,206427538,2162698,0.014514228,0.030120352,-0.011451593,39.918236,0,20
206530960,206530087,2162698,0.024660872,0.029827405,-0.008149273,39.918236,0,20
206628503,206627634,2162698,0.02444782,0.029694246,-0.011052119,39.918236,0,20
206731072,206730188,2162698,-0.018216021,0.053662695,0.0034621095,39.918236,0,20
206828604,206827730,2162698,0.030573089,0.021518342,-0.012117383,39.918236,0,20
206931199,206930314,2162698,0.034168355,0.025086978,-0.021252025,39.918236,0,20
207031202,207030328,2162698,0.030360037,0.04005394,-0.024527714,39.918236,0,20
207128758,207127876,2162698,0.01174454,0.03568636,-0.00711064,40.10647,0,20
207231302,207230425,2162698,0.03206446,0.028469192,-0.0033289513,40.10647,0,20
207328885,207328009,2162698,0.01717739,0.03009372,-0.00479369,40.10647,0,20
207431417,207430522,2162698,0.034780882,0.025965821,-0.024288028,40.10647,0,20
207528943,207528069,2162698,0.004713795,0.031318776,0.0,40.10647,0,20
207628992,207628117,2162698,0.031531826,0.021385184,-0.008522116,40.10647,0,20
207731553,207730667,2162698,0.015899071,0.033129726,-0.012117383,40.10647,0,20
207829089,207828214,2162698,0.04711132,0.03241067,-0.00013315806,40.10647,0,20
207931640,207930765,2162698,0.00013315806,0.030519826,-0.0020772656,40.10647,0,20
208029180,208028311,2162698,0.027004454,0.024873925,-0.035606463,40.10647,0,20
208131742,208130861,2162698,0.0024501083,0.002396845,-0.03270362,40.10647,0,20
208229288,208228408,2162698,0.017949706,0.043409526,-0.045007423,40.10647,0,20
208329329,208328456,2162698,0.03424825,0.034487937,-0.016751284,40.10647,0,20
208431891,208431006,2162698,0.019734023,0.06348976,0.018482339,40.10647,0,20
208529447,208528553,2162698,0.03025351,0.04364921,-0.009640643,40.10647,0,20
208631975,208631103,2162698,0.040133838,0.02663161,-0.0014647386,40.10647,0,20
208729560,208728688,2162698,-0.00039947417,0.040906154,0.001970739,40.10647,0,20
208829622,208828752,2162698,0.038908783,0.03304983,-0.040400155,40.10647,0,20
208929641,208928749,2162698,0.028202876,0.029134983,-0.050786484,40.10647,0,20
209029675,209028795,2162698,0.018455707,0.043302998,-0.037310887,40.10647,0,20
209132233,209131345,2162698,-0.018695392,0.01504686,-0.011132013,40.012352,0,20
209229762,209228892,2162698,-0.015286544,0.03222425,-0.013821806,40.012352,0,20
209332320,209331445,2162698,0.053689327,0.030013826,-0.0012783173,40.012352,0,20
209429869,209428996,2162698,0.0116113825,0.059068915,0.018455707,40.012352,0,20
209529935,209529061,2162698,0.024394555,0.030280141,0.017337179,40.012352,0,20
209627468,209626585,2162698,0.034993935,0.032304145,-0.01123854,40.012352,0,20
209730015,209729139,2162698,-0.007962852,0.026365295,-0.02444782,40.012352,0,20
209832568,209831692,2162698,-0.0005326322,0.026738137,-0.012703278,40.012352,0,20
209930105,209929232,2162698,0.051399007,0.044501424,0.024660872,40.012352,0,20
210030151,210029281,2162698,0.03107909,0.0340352,0.016724652,40.012352,0,20
210130217,210129336,2162698,0.050307114,0.016644757,-0.014460965,40.10647,0,20
210230298,210229419,2162698,-0.06820355,0.02793656,-0.03949468,40.10647,0,20
210327798,210326925,2162698,0.047990162,0.025592979,0.058882494,40.10647,0,20
210430356,210429478,2162698,0.024687503,0.02031992,-0.04958806,40.10647,0,20
210530407,210529523,2162698,0.044208474,0.035127096,0.0038882152,40.10647,0,20
210630453,210629572,2162698,0.014700649,0.03376888,0.07347661,40.10647,0,20
210730495,210729622,2162698,0.009773801,0.011504856,-0.062104918,40.10647,0,20
210828044,210827175,2162698,0.13424996,-0.006311692,-0.04245079,40.10647,0,20
210930594,210929725,2162698,0.019041602,0.045939527,-0.008255799,40.10647,0,20
211028139,211027265,2162698,0.03206446,0.018242653,-0.028682245,40.10647,0,20
211130688,211129814,2162698,0.017230652,0.029188246,-0.049641322,40.10647,0,20
211230739,211229867,2162698,0.028469192,0.048229847,0.021704763,40.10647,0,20
211330785,211329912,2162698,0.027963191,0.023196133,0.008122642,40.10647,0,20
211430839,211429966,2162698,0.025113609,0.023861924,0.013448964,40.10647,0,20
211528385,211527508,2162698,0.0257794,0.03834952,0.004873585,40.10647,0,20
211630938,211630057,2162698,0.00974717,0.023835292,-0.01422128,40.10647,0,20
211728485,211727605,2162698,0.01771002,0.028682245,-0.008309063,40.10647,0,20
211831029,211830155,2162698,0.01866876,0.040906154,-0.012410331,40.10647,0,20
211931076,211930203,2162698,0.012596752,0.033262882,-0.025220135,40.10647,0,20
212028624,212027751,2162698,0.0090813795,0.038083203,-0.005912218,40.10647,0,20
212131178,212130301,2162698,0.05472796,0.01488707,0.0050866376,40.10647,0,20
212228745,212227859,2162698,-0.048576057,0.021518342,-0.018056232,40.10647,0,20
212331280,212330398,2162698,0.067298084,0.056618806,-0.05589975,40.10647,0,20
212428828,212427949,2162698,0.07526093,0.101892546,-0.041092575,40.10647,0,20
212531386,212530496,2162698,-0.07976168,-0.07613978,0.017789917,40.10647,0,20
212628915,212628043,2162698,0.041918155,0.06948187,0.04727111,40.10647,0,20
212728961,212728092,2162698,0.041758366,0.06743124,0.011504856,40.10647,0,20
212831517,212830637,2162698,0.044501424,0.037017938,0.0090813795,40.10647,0,20
212929058,212928189,2162698,-0.042717103,0.03669836,-0.023435818,40.10647,0,20
213031627,213030739,2162698,0.06942861,0.025007082,-0.03818973,40.10647,0,20
213129159,213128286,2162698,0.0037816889,0.033156354,-0.0002396845,40.20059,0,20
213229205,213228336,2162698,0.005539375,0.028549086,0.01653823,40.20059,0,20
213329269,213328392,2162698,0.03534015,0.016245283,-0.039547943,40.20059,0,20
213429306,213428433,2162698,0.027616981,0.02479403,-0.051984906,40.20059,0,20
213531867,213530990,2162698,0.015153387,0.031132353,-0.017337179,40.20059,0,20
213629427,213628538,2162698,0.018402442,0.024873925,-0.0013315806,40.20059,0,20
213729462,213728579,2162698,0.028043086,0.02663161,-0.03571299,40.20059,0,20
213829503,213828628,2162698,0.01952097,0.02561961,-0.0819721,40.20059,0,20
213929555,213928677,2162698,0.01717739,0.025832662,-0.06996124,40.20059,0,20
214032096,214031227,2162698,0.047883637,0.021012342,-0.015978966,40.20059,0,20
214129643,214128774,2162698,0.028389297,0.025220135,-0.045113947,40.20059,0,20
214232207,214231322,2162698,0.014034859,0.017470337,-0.054115433,40.20059,0,20
214329741,214328871,2162698,0.020639498,0.035633095,-0.01784318,40.20059,0,20
214429793,214428920,2162698,0.04053331,0.028043086,-0.008415589,40.20059,0,20
214529839,214528969,2162698,0.012117383,0.013635385,-0.02561961,40.20059,0,20
214629887,214629018,2162698,0.003621899,0.025752768,-0.050147325,40.20059,0,20
214732457,214731568,2162698,0.05454154,0.035553202,-0.017869812,40.20059,0,20
214829989,214829116,2162698,0.028549086,0.015659388,-0.007456851,40.20059,0,20
214930037,214929162,2162698,0.03187804,0.017257284,0.008655273,40.20059,0,20
215030115,215029222,2162698,0.016591493,0.026711507,-0.0345412,40.20059,0,20
215130141,215129262,2162698,0.042850263,0.022050973,-0.030546458,40.20059,0,20
215227683,215226810,2162698,-0.0017044231,0.025406556,-0.057763964,40.20059,0,20
215330248,215329363,2162698,0.009001484,0.019787287,0.00074568513,40.20059,0,20
215432779,215431910,2162698,0.02298308,0.022343922,-0.085434206,40.20059,0,20
215530331,215529457,2162698,0.011504856,0.032277513,-0.05355617,40.20059,0,20
215630394,215629506,2162698,0.043489423,0.04444816,0.030652985,40.20059,0,20
215727935,215727061,2162698,0.04149205,0.03616573,-0.012676647,40.20059,0,20
215830485,215829604,2162698,0.018935075,0.04697816,-2.6631611e-05,40.20059,0,20
215928030,215927151,2162698,-0.00034621093,0.05435512,0.06852314,40.20059,0,20
216030574,216029702,2162698,0.025539715,0.03435478,0.025433188,40.20059,0,20
216130633,216129750,2162698,0.010386328,0.041225735,-0.0777643,40.20059,0,20
216230680,216229799,2162698,0.011638014,0.00892159,0.01635181,40.20059,0,20
216330731,216329851,2162698,0.0038615835,0.03933489,-0.014807176,40.20059,0,20
216428265,216427396,2162698,0.052171327,0.052224588,-0.067883976,40.20059,0,20
216530825,216529946,2162698,0.105700865,-0.017310547,0.0128897,40.20059,0,20
216628363,216627494,2162698,0.05768407,0.083197154,0.07230482,40.20059,0,20
216730937,216730044,2162698,0.011291803,0.017816547,-0.030013826,40.20059,0,20
216830962,216830093,2162698,0.013502227,-7.989483e-05,0.014061491,40.20059,0,20
216928522,216927643,2162698,0.017816547,0.021784658,-0.007163903,40.20059,0,20
217031072,217030190,2162698,0.032783512,0.038109835,-0.0070307455,40.20059,0,20
217128615,217127745,2162698,0.03355583,0.016804546,0.017496968,40.20059,0,20
217231157,217230288,2162698,0.037310887,0.025672873,-0.03190467,40.20059,0,20
217328710,217327836,2162698,0.06053365,0.013715279,-0.023196133,40.20059,0,20
217431266,217430392,2162698,-0.037790257,0.03169162,0.025992453,40.20059,0,20
217531311,217530439,2162698,0.08772453,0.038722362,0.04165184,40.20059,0,20
217628852,217627983,2162698,0.0006657903,0.039308257,0.0039947415,40.20059,0,20
217731417,217730531,2162698,0.044661213,0.04032026,0.027963191,40.20059,0,20
217828949,217828080,2162698,0.014620755,0.03259709,-0.02085255,40.20059,0,20
217931517,217930630,2162698,0.034328148,0.021784658,-0.024074977,40.20059,0,20
218029051,218028178,2162698,0.017044231,0.041012682,-0.0155262295,40.20059,0,20
218129096,218128227,2162698,0.0013315806,0.042024683,-0.019068234,40.20059,0,20
218231649,218230777,2162698,0.028975192,0.033475935,0.0033822146,40.20059,0,20
218329201,218328325,2162698,0.03257046,0.00942759,0.035633095,40.20059,0,20
218431748,218430875,2162698,0.039388154,0.022423817,-0.00029294772,40.20059,0,20
218529309,218528433,2162698,0.031505197,0.024394555,-0.01917476,40.20059,0,20
218631846,218630973,2162698,0.080081254,0.02631203,-0.051958274,40.20059,0,20
218729411,218728520,2162698,0.023435818,0.035926044,-0.048123322,40.20059,0,20
218829452,218828569,2162698,0.009187906,0.04245079,-0.007829694,40.20059,0,20
218931993,218931120,2162698,0.026471822,0.006231797,0.0050333743,40.20059,0,20
219029543,219028674,2162698,0.03534015,0.011211908,-0.0226635,40.20059,0,20
219132101,219131217,2162698,0.022370553,0.04791027,0.07249124,40.20059,0,20
219229634,219228765,2162698,0.015233281,0.03438141,0.020612868,40.20059,0,20
219329688,219328814,2162698,0.025486453,0.028815404,0.022849923,40.20059,0,20
219429736,219428863,2162698,-0.0088949585,0.023329291,-0.0074302196,40.20059,0,20
219529785,219528912,2162698,0.05057343,0.010652645,-0.097338535,40.20059,0,20
219632341,219631465,2162698,0.015739283,0.035633095,0.05584649,40.20059,0,20
219729883,219729010,2162698,-0.027696876,0.03653857,0.06277071,40.20059,0,20
219832446,219831562,2162698,0.020612868,-0.010599381,-0.041199103,40.20059,0,20
219929996,219929119,2162698,-0.064288706,0.037097834,0.021092236,40.20059,0,20
220030036,220029157,2162698,0.1736381,0.0257794,0.03206446,40.20059,0,20
220127619,220126741,2162698,-0.016777916,0.032037828,-0.0054594805,40.38882,0,20
220230133,220229255,2162698,0.010519486,0.027563717,-0.049854375,40.38882,0,20
220332686,220331806,2162698,0.058323227,0.025060346,-0.032091092,40.38882,0,20
220430242,220429353,2162698,0.009507485,0.032676987,0.03552657,40.38882,0,20
220530279,220529406,2162698,0.025939189,0.030466562,-0.0018109495,40.38882,0,20
220630324,220629452,2162698,0.036911413,0.039095204,-0.0044474793,40.38882,0,20
220730390,220729501,2162698,0.031664986,0.036778256,-0.0022370552,40.38882,0,20
220827943,220827068,2162698,0.038642466,0.009108011,0.01688444,40.38882,0,20
220930481,220929599,2162698,-0.027324032,0.034914043,-0.023568977,40.38882,0,20
221030523,221029648,2162698,0.06649914,0.00793622,0.013795175,40.38882,0,20
221130574,221129704,2162698,0.058589544,0.030866038,-0.020639498,40.38882,0,20
221230622,221229746,2162698,-0.045034055,0.0030626352,-0.052757222,40.38882,0,20
221328163,221327293,2162698,0.068576396,0.02514024,-0.021917816,40.38882,0,20
221430728,221429844,2162698,0.06761766,0.04447479,0.04034689,40.38882,0,20
221528290,221527420,2162698,-0.024501082,0.051878378,0.066712186,40.38882,0,20
221630816,221629942,2162698,0.05435512,0.026844664,-0.03624562,40.38882,0,20
221728360,221727490,2162698,0.024234766,0.02463424,-0.04479437,40.38882,0,20
221830919,221830040,2162698,0.017097494,0.03472762,0.02016013,40.38882,0,20
221930961,221930089,2162698,0.029374667,0.029401299,-0.0060986388,40.38882,0,20
222028524,222027653,2162698,0.02695119,0.027004454,-0.016325178,40.38882,0,20
222131069,222130188,2162698,0.024554346,0.035473306,-0.00021305289,40.38882,0,20
222228637,222227762,2162698,0.03059972,0.027723508,0.0022370552,40.38882,0,20
222331170,222330286,2162698,0.0028495823,0.049694587,-0.011265172,40.38882,0,20
222428707,222427834,2162698,0.0340352,0.021278657,-0.0147272805,40.38882,0,20
222528753,222527883,2162698,0.031185616,0.025646241,0.032437302,40.38882,0,20
222631311,222630441,2162698,0.011691277,0.035952676,0.016271913,40.38882,0,20
222728851,222727981,2162698,0.01304949,0.034754254,-0.10924287,40.38882,0,20
222831422,222830532,2162698,0.03752394,0.044821,0.063010395,40.38882,0,20
222928981,222928111,2162698,0.0063383235,0.036831517,0.013102753,40.38882,0,20
223029004,223028129,2162698,0.07566041,0.01784318,-0.06932209,40.38882,0,20
223129055,223128182,2162698,0.016271913,0.020639498,-0.02894856,40.38882,0,20
223229101,223228228,2162698,0.02631203,0.021358551,-0.022556974,40.38882,0,20
223331651,223330778,2162698,0.010705908,0.024394555,0.0029028456,40.38882,0,20
223429210,223428333,2162698,0.015446334,0.030706247,0.012650015,40.38882,0,20
223531753,223530877,2162698,0.025193503,0.029108351,-0.015313176,40.38882,0,20
223629314,223628439,2162698,0.008362326,0.038109835,-0.016618125,40.38882,0,20
223729349,223728476,2162698,0.030067088,0.016245283,0.0072171665,40.38882,0,20
223831906,223831024,2162698,0.04032026,0.027643612,-0.02098571,40.38882,0,20
223929459,223928581,2162698,0.015339808,0.02676477,-0.022104237,40.38882,0,20
224031992,224031123,2162698,0.009187906,0.011717909,-0.07728493,40.38882,0,20
224129540,224128671,2162698,0.055420384,0.028842036,-0.064075656,40.48294,0,20
224229589,224228720,2162698,0.01584581,-0.019254655,-0.037577204,40.48294,0,20
224329658,224328777,2162698,0.04362258,-0.0035420042,-0.009214537,40.48294,0,20
224429697,224428821,2162698,0.025912557,0.016325178,-0.12290488,40.48294,0,20
224532252,224531369,2162698,0.025699504,0.009853696,-0.07518104,40.48294,0,20
224629791,224628917,2162698,-0.011531488,0.019547602,-0.071692295,40.48294,0,20
224732355,224731471,2162698,0.024154872,0.0015446334,-0.096832536,40.48294,0,20
224829929,224829058,2162698,0.03387541,0.032650355,-0.07339672,40.48294,0,20
224929945,224929072,2162698,0.024527714,0.009400959,-0.112332135,40.48294,0,20
225027487,225026613,2162698,0.0049801115,0.060214072,-0.11957593,40.48294,0,20
225130039,225129164,2162698,0.128897,0.14796524,0.08364989,40.48294,0,20
225232584,225231715,2162698,0.14466292,0.12431636,0.19888487,40.48294,0,20
225330132,225329262,2162698,-0.016644757,-0.15664713,0.16088156,40.48294,0,20
225430203,225429319,2162698,0.012942963,0.15390408,0.023675501,40.48294,0,20
225530241,225529361,2162698,-0.06282397,0.08391621,-0.047697216,40.48294,0,20
225630283,225629411,2162698,0.04580637,-0.00628506,-0.06897587,40.48294,0,20
225727833,225726959,2162698,-0.009534117,0.024873925,-0.024900556,40.48294,0,20
225830396,225829510,2162698,0.008362326,0.025912557,0.04332963,40.48294,0,20
225930441,225929561,2162698,0.035180356,0.031638354,0.032676987,40.48294,0,20
226030489,226029608,2162698,0.013741911,0.0257794,-0.016165389,40.48294,0,20
226130539,226129658,2162698,0.03486078,0.023276027,-0.0360592,40.48294,0,20
226228108,226227238,2162698,0.015925704,0.028229509,-0.011797803,40.48294,0,20
226330631,226329756,2162698,0.03723099,0.032543827,0.011451593,40.48294,0,20
226428174,226427304,2162698,0.013156015,0.03195793,-0.0038882152,40.48294,0,20
226530736,226529855,2162698,0.033502568,0.025379926,-0.023062976,40.48294,0,20
226630777,226629905,2162698,0.019707393,0.030706247,-0.014913702,40.48294,0,20
226730831,226729954,2162698,0.024873925,0.03624562,-0.0014647386,40.48294,0,20
226830889,226830004,2162698,0.022290658,-0.0050067427,-0.040719733,40.48294,0,20
226928446,226927561,2162698,0.03435478,0.050866377,0.0335292,40.48294,0,20
227030979,227030106,2162698,0.015419703,0.044022053,0.017550232,40.48294,0,20
227128529,227127651,2162698,0.05174522,0.016218651,-0.02894856,40.48294,0,20
227231072,227230202,2162698,0.013848438,0.023435818,-0.042797,40.48294,0,20
227331126,227330251,2162698,0.0226635,0.03704457,-0.034780882,40.48294,0,20
227428668,227427799,2162698,0.027430559,0.021731395,0.0029294773,40.48294,0,20
227531231,227530350,2162698,0.022237396,0.02809635,0.039068572,40.48294,0,20
227628781,227627912,2162698,0.026152242,0.025566347,0.025486453,40.48294,0,20
227731330,227730449,2162698,0.0262854,0.037284255,0.059974387,40.48294,0,20
227828866,227827997,2162698,0.043569315,0.051292483,0.059974387,40.48294,0,20
227928927,227928053,2162698,0.017470337,0.02444782,-0.036565203,40.48294,0,20
228031494,228030597,2162698,0.040373523,0.0175236,-0.026232136,40.48294,0,20
228129018,228128146,2162698,0.013209279,0.043249737,0.0014913703,40.48294,0,20
228231566,228230697,2162698,0.02860235,0.027031085,-0.04527374,40.48294,0,20
228329211,228328331,2162698,0.03832289,0.008868326,-0.068176925,40.48294,0,20
228431687,228430802,2162698,0.021837922,0.036964677,0.021465078,40.48294,0,20
228529228,228528344,2162698,0.02873551,0.05044027,0.046685215,40.48294,0,20
228629291,228628417,2162698,0.0080960095,0.06639261,0.023116238,40.48294,0,20
228731814,228730944,2162698,0.0345412,-0.0057790596,-0.07368967,40.48294,0,20
228829362,228828493,2162698,0.05336975,-0.0092678005,-0.08945558,40.48294,0,20
228931916,228931045,2162698,-0.0038615835,0.048842374,0.0034621095,40.48294,0,20
229029484,229028608,2162698,0.067990504,0.022184132,0.0938498,40.48294,0,20
229129521,229128641,2162698,-0.006631271,0.0345412,0.06034723,40.48294,0,20
229229560,229228691,2162698,0.061385863,0.023276027,-0.01158475,40.48294,0,20
229329617,229328741,2162698,0.03653857,0.019787287,0.038216364,40.48294,0,20
229432164,229431291,2162698,0.03685815,0.029534457,0.105807394,40.48294,0,20
229529721,229528843,2162698,0.032676987,0.030360037,0.06215818,40.48294,0,20
229632264,229631395,2162698,-0.012357067,0.03270362,-0.02974751,40.48294,0,20
229729826,229728947,2162698,0.037630465,0.012410331,-0.042024683,40.48294,0,20
229829868,229828988,2162698,0.0030360036,0.045699846,-0.031798143,40.48294,0,20
229927431,229926540,2162698,0.034993935,-0.0005592638,-0.042104576,40.48294,0,20
230029963,230029088,2162698,0.005832323,0.0147272805,-0.0036751623,40.48294,0,20
230132515,230131639,2162698,0.030013826,0.012303804,-0.05028048,40.577057,0,20
230230060,230229187,2162698,0.02841593,0.02463424,-0.051478904,40.577057,0,20
230330109,230329237,2162698,0.02793656,0.028176244,-0.038908783,40.577057,0,20
230430195,230429311,2162698,0.022770027,0.02926814,-0.023888554,40.577057,0,20
230530209,230529336,2162698,0.012676647,0.019041602,-0.051132694,40.577057,0,20
230627765,230626884,2162698,0.037896782,0.024154872,-0.010013485,40.577057,0,20
230730305,230729436,2162698,0.019228023,0.06761766,0.055979647,40.577057,0,20
230832856,230831986,2162698,0.021837922,0.043249737,0.0052197957,40.577057,0,20
230930413,230929535,2162698,0.03853594,0.00079894834,-0.015659388,40.577057,0,20
231030463,231029585,2162698,0.03486078,0.011877699,-0.007962852,40.577057,0,20
231128005,231127133,2162698,0.025246767,0.028868666,-0.009400959,40.577057,0,20
231230567,231229691,2162698,-0.12676647,0.1531584,0.033316147,40.577057,0,20
231328107,231327232,2162698,0.042530682,0.03169162,-0.011158645,40.577057,0,20
231430676,231429794,2162698,0.02663161,0.0381631,0.009720538,40.577057,0,20
231530715,231529833,2162698,-0.0011717909,0.028389297,0.038642466,40.577057,0,20
231630756,231629883,2162698,-0.013741911,0.029854037,-0.08764463,40.577057,0,20
231730814,231729939,2162698,-0.0023169501,0.022530343,-0.13755228,40.577057,0,20
231828363,231827490,2162698,0.03355583,0.02727077,-0.06303702,40.577057,0,20
231930908,231930032,2162698,0.028549086,0.016618125,0.017869812,40.577057,0,20
232028466,232027580,2162698,0.032490566,0.030439932,0.002876214,40.577057,0,20
232131004,232130131,2162698,0.0381631,0.009534117,-0.0381631,40.671177,0,20
232231051,232230181,2162698,0.048016794,0.02463424,0.03376888,40.671177,0,20
232328607,232327737,2162698,0.021198763,0.028495824,0.033848777,40.671177,0,20
232431154,232430281,2162698,0.010279802,0.027324032,-0.014247912,40.671177,0,20
232528718,232527841,2162698,0.029827405,0.031158986,0.0023169501,40.671177,0,20
232631298,232630417,2162698,0.031025827,0.022397185,-0.007323693,40.671177,0,20
232728804,232727929,2162698,0.07201187,0.033822145,-0.0016777915,40.671177,0,20
232831355,232830480,2162698,0.02396845,0.025033714,-0.034141727,40.671177,0,20
232931412,232930530,2162698,-0.0058589545,0.026738137,-0.030679615,40.671177,0,20
233028948,233028078,2162698,0.06391586,0.033262882,-0.024341293,40.671177,0,20
233131524,233130629,2162698,-0.0049801115,0.045566685,-0.022849923,40.671177,0,20
233229056,233228178,2162698,-0.03523362,0.028122982,-0.020506341,40.671177,0,20
233331612,233330729,2162698,0.035766255,0.026178874,-0.020479709,40.671177,0,20
233429163,233428278,2162698,-0.022184132,0.05073322,-0.013848438,40.671177,0,20
233529206,233528327,2162698,0.017603494,0.032384038,-0.039308257,40.671177,0,20
233629261,233628386,2162698,-0.023941819,0.04151868,-0.027563717,40.671177,0,20
233729299,233728430,2162698,0.049188584,0.00069242186,-0.02631203,40.671177,0,20
233831848,233830978,2162698,0.07355651,0.02444782,0.0022903185,40.671177,0,20
233929410,233928527,2162698,0.043116577,0.021784658,0.009827064,40.671177,0,20
234029469,234028577,2162698,0.023542345,0.028628983,-0.02348908,40.671177,0,20
234129505,234128627,2162698,0.028229509,0.024394555,-0.01174454,40.577057,0,20
234229552,234228677,2162698,0.048336376,0.022583606,-0.011531488,40.577057,0,20
234332110,234331232,2162698,-0.0120108565,0.04689827,-0.012410331,40.577057,0,20
234429649,234428776,2162698,0.04564658,0.009507485,-0.04660532,40.577057,0,20
234532217,234531327,2162698,0.022530343,0.030067088,0.0007723167,40.577057,0,20
234629754,234628876,2162698,0.043489423,0.02892193,-0.003621899,40.577057,0,20
234729816,234728943,2162698,0.025939189,0.02213087,-0.00069242186,40.577057,0,20
234829866,234828976,2162698,0.037017938,0.031798143,-0.0024501083,40.577057,0,20
234929907,234929026,2162698,-0.05174522,0.024527714,-0.07331683,40.577057,0,20
235032457,235031577,2162698,0.03320962,0.0262854,-0.049055427,40.577057,0,20
235130003,235129130,2162698,0.013768543,0.037017938,-0.026578348,40.671177,0,20
235230045,235229176,2162698,-0.0005060006,0.047377635,0.0010120012,40.671177,0,20
235330109,235329225,2162698,0.10894992,0.013395701,0.071692295,40.671177,0,20
235430149,235429275,2162698,-0.013928332,0.021971079,0.09531453,40.671177,0,20
235527699,235526824,2162698,0.07368967,0.027244138,0.052517537,40.671177,0,20
235630258,235629388,2162698,-0.005539375,0.029933931,-0.021624869,40.671177,0,20
235732809,235731927,2162698,0.030839406,0.021358551,-0.048043426,40.671177,0,20
235830345,235829475,2162698,0.024980452,0.028016455,-0.008415589,40.671177,0,20
235930408,235929526,2162698,0.023941819,0.034914043,0.019281287,40.671177,0,20
236027948,236027074,2162698,0.037550572,0.028868666,-0.0018642128,40.671177,0,20
236130506,236129631,2162698,0.012170646,0.02609898,-0.02926814,40.671177,0,20
236228043,236227174,2162698,0.036272254,0.02958772,-0.012410331,40.671177,0,20
236330614,236329725,2162698,0.015552861,0.034621093,0.00860201,40.671177,0,20
236430654,236429776,2162698,0.03273025,0.029374667,-0.00958738,40.671177,0,20
236530721,236529829,2162698,0.012650015,0.026791401,-0.022583606,40.671177,0,20
236630749,236629875,2162698,0.032437302,0.028522456,-0.007829694,40.671177,0,20
236728313,236727424,2162698,0.017789917,0.028815404,0.0027164244,40.671177,0,20
236830845,236829975,2162698,0.029001825,0.027963191,-0.011930962,40.671177,0,20
236928416,236927531,2162698,0.012090751,0.030173615,-0.019947076,40.671177,0,20
237030945,237030076,2162698,0.03422162,0.02892193,-0.0030626352,40.671177,0,20
237131005,237130126,2162698,0.019734023,0.029348036,-7.989483e-05,40.671177,0,20
237228549,237227674,2162698,0.025246767,0.029454561,-0.013448964,40.671177,0,20
237331102,237330226,2162698,0.022876553,0.02777677,-0.014460965,40.671177,0,20
237428650,237427774,2162698,0.030759512,0.029374667,-0.0022370552,40.671177,0,20
237531206,237530332,2162698,0.019467708,0.029827405,-0.005539375,40.671177,0,20
237628744,237627875,2162698,0.025193503,0.027190875,-0.016644757,40.671177,0,20
237731300,237730426,2162698,0.018828548,0.02727077,-0.013235911,40.671177,0,20
237831355,237830476,2162698,0.025939189,0.029161613,-0.002796319,40.671177,0,20
237928894,237928025,2162698,0.021465078,0.030626353,-0.011158645,40.671177,0,20
238031471,238030576,2162698,0.023329291,0.028895298,-0.012916331,40.671177,0,20
238129013,238128125,2162698,0.025193503,0.030306773,-0.007989483,40.671177,0,20
238231550,238230676,2162698,0.02530003,0.028682245,-0.0043409527,40.671177,0,20
238329133,238328256,2162698,0.025379926,0.029108351,-0.008948221,40.671177,0,20
238429156,238428276,2162698,0.02346245,0.0304133,-0.012357067,40.671177,0,20
238529218,238528326,2162698,0.021624869,0.028815404,-0.007989483,40.671177,0,20
238629261,238628386,2162698,0.02876214,0.028389297,-0.007829694,40.671177,0,20
238731808,238730927,2162698,0.016192019,0.02924151,-0.008362326,40.671177,0,20
238829351,238828476,2162698,0.02514024,0.02777677,-0.012170646,40.671177,0,20
238929407,238928526,2162698,0.023382554,0.029694246,-0.007190535,40.671177,0,20
239029455,239028577,2162698,0.026977822,0.029055087,-0.006924219,40.671177,0,20
239129500,239128627,2162698,0.022077605,0.030626353,-0.012596752,40.671177,0,20
239232053,239231178,2162698,0.028549086,0.02958772,-0.010839066,40.671177,0,20
239329604,239328727,2162698,0.021704763,0.02892193,-0.0031158985,40.671177,0,20
239432159,239431278,2162698,0.025566347,0.030333405,-0.0048469533,40.671177,0,20
239529706,239528827,2162698,0.022264026,0.02873551,-0.018216021,40.671177,0,20
239629758,239628878,2162698,0.022237396,0.02977414,-0.014434333,40.671177,0,20
239729810,239728933,2162698,0.023089606,0.031531826,-0.0030093722,40.671177,0,20
239829863,239828982,2162698,0.02612561,0.029134983,-0.002876214,40.671177,0,20
239932413,239931529,2162698,0.025699504,0.027377296,-0.016165389,40.671177,0,20
240029960,240029082,2162698,0.025246767,0.028389297,-0.012330436,40.671177,0,20
240130010,240129132,2162698,0.02892193,0.031531826,-0.0039947415,40.765293,0,20
240230057,240229179,2162698,0.025166873,0.028176244,-0.010572749,40.765293,0,20
240330113,240329231,2162698,0.022743396,0.026072348,-0.016937705,40.765293,0,20
240427654,240426773,2162698,0.02514024,0.029188246,-0.009454221,40.765293,0,20
240530199,240529330,2162698,0.02034655,0.030706247,-0.0012783173,40.765293,0,20
240632756,240631881,2162698,0.029161613,0.028868666,-0.008388958,40.765293,0,20
240730303,240729430,2162698,0.017630126,0.027297402,-0.016724652,40.765293,0,20
240827855,240826979,2162698,0.031984564,0.02974751,-0.012144014,40.765293,0,20
240927899,240927029,2162698,0.018828548,0.030306773,-0.0076965354,40.765293,0,20
241030476,241029585,2162698,0.025513083,0.030333405,-0.007243798,40.765293,0,20
241127999,241127130,2162698,0.017443705,0.029081719,-0.0104395915,40.85941,0,20
241230565,241229689,2162698,0.030892668,0.026471822,-0.01422128,40.85941,0,20
241330609,241329732,2162698,0.020399814,0.027537085,-0.008282431,40.85941,0,20
241430671,241429782,2162698,0.026258769,0.029348036,-0.00860201,40.85941,0,20
241530711,241529832,2162698,0.02066613,0.02841593,-0.011345066,40.85941,0,20
241628262,241627390,2162698,0.027137611,0.028309403,-0.009614011,40.85941,0,20
241730814,241729936,2162698,0.02412824,0.030493194,-0.0058589545,40.85941,0,20
241828362,241827485,2162698,0.026738137,0.027723508,-0.010226538,40.85941,0,20
241930907,241930034,2162698,0.024154872,0.028842036,-0.012090751,40.85941,0,20
242028502,242027616,2162698,0.027883297,0.029001825,-0.011318435,40.85941,0,20
242128517,242127633,2162698,0.024101608,0.029321404,-0.008335695,40.765293,0,20
242228558,242227683,2162698,0.01968076,0.02924151,-0.008948221,40.765293,0,20
242328610,242327733,2162698,0.02660498,0.027537085,-0.009960223,40.765293,0,20
242431155,242430285,2162698,0.027616981,0.030306773,-0.012996227,40.765293,0,20
242528710,242527841,2162698,0.022397185,0.009507485,-0.0092678005,40.765293,0,20
242631288,242630411,2162698,0.025379926,0.020426447,-0.041918155,40.765293,0,20
242728838,242727968,2162698,0.022264026,0.029614352,0.0009853696,40.765293,0,20
242828864,242827985,2162698,0.0076965354,0.031132353,-0.014034859,40.765293,0,20
242931447,242930541,2162698,0.038109835,0.026738137,-0.017550232,40.765293,0,20
243028960,243028086,2162698,0.010705908,0.027217507,-0.008229168,40.765293,0,20
243131522,243130638,2162698,0.03320962,0.0170176,-0.0076166405,40.765293,0,20
243229066,243228187,2162698,0.023995081,0.02828277,-0.081146516,40.765293,0,20
243329125,243328248,2162698,0.0226635,0.017230652,0.033156354,40.765293,0,20
243429203,243428315,2162698,-0.005352954,0.017789917,-0.01123854,40.765293,0,20
243529216,243528338,2162698,0.04974785,0.035020567,-0.020240024,40.765293,0,20
243631767,243630890,2162698,0.015313176,0.034993935,0.008868326,40.765293,0,20
243729309,243728440,2162698,0.0087618,0.052837115,0.042077944,40.765293,0,20
243831899,243831030,2162698,0.03523362,0.027403928,0.010732539,40.765293,0,20
243929418,243928540,2162698,0.035180356,0.01304949,-0.038242992,40.765293,0,20
244029484,244028604,2162698,0.014301175,0.03275688,-0.03177151,40.765293,0,20
244132026,244131152,2162698,0.023382554,0.032357406,0.013608754,40.85941,0,20
244229568,244228691,2162698,0.035659727,0.027164243,0.013928332,40.85941,0,20
244332149,244331243,2162698,0.015952336,0.029028457,-0.022716764,40.85941,0,20
244429666,244428793,2162698,0.030812774,0.02612561,-0.027031085,40.85941,0,20
244529711,244528842,2162698,0.022716764,0.028043086,-0.0005592638,40.85941,0,20
244629768,244628895,2162698,0.027883297,0.032384038,0.0013582122,40.85941,0,20
244729805,244728938,2162698,0.022370553,0.02676477,-0.018775286,40.85941,0,20
244832365,244831496,2162698,0.024873925,0.028016455,-0.017337179,40.85941,0,20
244929929,244929044,2162698,0.021012342,0.030466562,-0.0015446334,40.85941,0,20
245029973,245029095,2162698,0.027963191,0.029640984,-0.003621899,40.85941,0,20
245130031,245129145,2162698,0.023622239,0.027377296,-0.018056232,40.95353,0,20
245230070,245229196,2162698,0.02631203,0.02759035,-0.013235911,40.95353,0,20
245327614,245326745,2162698,0.023036344,0.031531826,-0.0017576864,40.95353,0,20
245430184,245429304,2162698,0.025992453,0.027963191,-0.00958738,40.95353,0,20
245532754,245531881,2162698,0.021118868,0.027643612,-0.018482339,40.95353,0,20
245630277,245629398,2162698,0.027430559,0.027723508,-0.007962852,40.95353,0,20
245730318,245729448,2162698,0.023116238,0.031105721,-0.0028229507,40.95353,0,20
245830386,245829499,2162698,0.023329291,0.029348036,-0.01257012,40.95353,0,20
245930440,245929550,2162698,0.025379926,0.02876214,-0.0145408595,40.95353,0,20
246027968,246027099,2162698,0.023249397,0.030652985,-0.0073503247,40.95353,0,20
246130528,246129651,2162698,0.027137611,0.029960562,-0.005965481,40.85941,0,20
246230660,246229791,2162698,0.02609898,0.030306773,-0.012969594,40.85941,0,20
246330639,246329752,2162698,0.02495382,0.02974751,-0.009667275,40.85941,0,20
246430684,246429802,2162698,0.025113609,0.0304133,-0.0033822146,40.85941,0,20
246528236,246527351,2162698,0.021438448,0.029161613,-0.009347696,40.85941,0,20
246630788,246629903,2162698,0.021012342,0.027989823,-0.013688648,40.85941,0,20
246728326,246727453,2162698,0.02117213,0.02876214,-0.011930962,40.85941,0,20
246830874,246830004,2162698,0.024288028,0.02844256,-0.004394216,40.85941,0,20
246930935,246930061,2162698,0.02247708,0.02759035,-0.011211908,40.85941,0,20
247028488,247027604,2162698,0.021624869,0.030999195,-0.009108011,40.85941,0,20
247131025,247130156,2162698,0.024208134,0.029454561,-0.0052464274,40.85941,0,20
247228580,247227705,2162698,0.023062976,0.02924151,-0.0070307455,40.85941,0,20
247331140,247330261,2162698,0.017150758,0.030013826,-0.011185276,40.85941,0,20
247428694,247427811,2162698,0.033023197,0.026897928,-0.017496968,40.85941,0,20
247531240,247530359,2162698,0.014780544,0.029667614,-0.008575379,40.85941,0,20
247631354,247630484,2162698,0.03640541,0.030546458,-5.3263222e-05,40.85941,0,20
247728832,247727958,2162698,0.013741911,0.028788771,-0.009507485,40.85941,0,20
247831398,247830511,2162698,0.037763625,0.027350664,-0.018056232,40.85941,0,20
247928935,247928060,2162698,0.016964337,0.031185616,-0.0043409527,40.85941,0,20
248031504,248030612,2162698,0.028895298,0.0304133,0.0006125271,40.85941,0,20
248129037,248128161,2162698,0.021012342,0.027803402,-0.014247912,40.95353,0,20
248229081,248228212,2162698,0.020293288,0.02828277,-0.01584581,40.95353,0,20
248329143,248328263,2162698,0.025033714,0.029960562,-0.010466224,40.95353,0,20
248429217,248428338,2162698,0.023861924,0.031478565,0.0073503247,40.95353,0,20
248531741,248530869,2162698,0.026205506,0.030812774,-0.008655273,40.95353,0,20
248629289,248628415,2162698,0.021118868,0.029401299,-0.025592979,40.95353,0,20
248731854,248730967,2162698,0.023196133,0.02926814,-0.007536746,40.95353,0,20
248829419,248828542,2162698,0.028815404,0.026897928,-0.0005326322,40.95353,0,20
248929445,248928567,2162698,0.021837922,0.028628983,-0.021704763,40.95353,0,20
249032017,249031147,2162698,0.024341293,0.029081719,-0.0045273737,40.95353,0,20
249129546,249128668,2162698,0.026019083,0.032037828,0.006311692,40.95353,0,20
249232109,249231220,2162698,0.013422332,0.030839406,-0.009054747,40.95353,0,20
249329645,249328769,2162698,0.027830033,0.02793656,-0.021944448,40.95353,0,20
249429696,249428820,2162698,0.01603223,0.027190875,-0.012596752,40.95353,0,20
249529748,249528875,2162698,0.034274884,0.02828277,-0.0052464274,40.95353,0,20
249629804,249628931,2162698,0.016564863,0.028549086,-0.012490226,40.95353,0,20
249732361,249731484,2162698,0.029827405,0.028256139,-0.0133690685,40.95353,0,20
249829893,249829023,2162698,0.018615495,0.030200247,-0.005539375,40.95353,0,20
249929959,249929073,2162698,0.032836776,0.03009372,-0.00974717,40.95353,0,20
250030005,250029124,2162698,0.020959077,0.029348036,-0.013928332,40.95353,0,20
250130054,250129175,2162698,0.025086978,0.029214878,-0.009028116,40.95353,0,20
250227593,250226724,2162698,0.023622239,0.029534457,-0.006764429,40.95353,0,20
250330153,250329277,2162698,0.024714135,0.028868666,-0.0121972775,40.95353,0,20
250432713,250431828,2162698,0.021837922,0.028202876,-0.009720538,40.95353,0,20
250530264,250529390,2162698,0.02444782,0.029667614,-0.007163903,40.95353,0,20
250630308,250629429,2162698,0.025912557,0.03009372,-0.010865698,40.95353,0,20
250730353,250729479,2162698,0.025672873,0.029028457,-0.007803062,40.95353,0,20
250830412,250829530,2162698,0.026232136,0.028469192,-0.008974853,40.95353,0,20
250927961,250927079,2162698,0.024288028,0.030945932,-0.010013485,40.95353,0,20
251030505,251029632,2162698,0.02314287,0.027803402,-0.010226538,40.95353,0,20
251130555,251129682,2162698,0.01901497,0.029987194,-0.01174454,40.95353,0,20
251230634,251229740,2162698,0.008388958,0.027616981,-0.01272991,40.95353,0,20
251330694,251329818,2162698,0.040373523,0.021438448,-0.016644757,40.95353,0,20
251428207,251427333,2162698,0.039201733,0.033023197,0.0030626352,40.95353,0,20
251530771,251529889,2162698,0.015499597,0.030546458,-0.011291803,40.95353,0,20
251628304,251627435,2162698,0.038216364,0.024554346,-0.018429074,40.95353,0,20
251730860,251729987,2162698,0.011132013,0.03195793,-0.009347696,40.95353,0,20
251830907,251830038,2162698,0.029188246,0.031052459,-5.3263222e-05,40.95353,0,20
251928468,251927587,2162698,0.02495382,0.02479403,-0.00892159,40.95353,0,20
252031014,252030139,2162698,0.009640643,0.035313517,-0.01717739,40.95353,0,20
252128571,252127689,2162698,-0.02066613,0.050759852,-0.011398329,41.047646,0,20
252231110,252230241,2162698,0.027377296,0.028868666,-0.015126755,41.047646,0,20
252328665,252327790,2162698,0.061385863,0.020426447,-0.01158475,41.047646,0,20
252431231,252430342,2162698,0.027324032,0.040373523,-0.010146644,41.047646,0,20
252531272,252530395,2162698,0.047590688,0.055287223,-0.013422332,41.047646,0,20
252628812,252627943,2162698,0.056112804,0.029854037,-0.012969594,41.047646,0,20
252731388,252730497,2162698,-0.08625979,0.032969933,0.00090547476,41.047646,0,20
252828923,252828044,2162698,0.14295849,0.010839066,-0.03241067,41.047646,0,20
252931507,252930597,2162698,0.058083545,0.026738137,-0.023595607,41.047646,0,20
253029019,253028146,2162698,-0.026844664,0.029374667,0.010998855,41.047646,0,20
253129088,253128216,2162698,0.1000017,0.019121496,-0.024820661,41.047646,0,20
253229132,253228248,2162698,0.053476274,0.04745753,-0.024554346,41.047646,0,20
253329173,253328304,2162698,-0.00079894834,0.06119944,-0.01206412,41.047646,0,20
253431727,253430851,2162698,-0.005060006,0.023888554,0.0054594805,41.047646,0,20
253529283,253528401,2162698,-0.05747102,0.03888215,0.005139901,41.047646,0,20
253631830,253630952,2162698,0.02876214,0.008016115,-0.014327806,41.047646,0,20
253729387,253728502,2162698,-0.022290658,0.02149171,0.0022636869,41.047646,0,20
253829453,253828562,2162698,0.020719394,0.029987194,-0.008788432,41.047646,0,20
253931982,253931109,2162698,0.008788432,0.025246767,-0.014327806,41.047646,0,20
254029531,254028655,2162698,-0.028469192,0.040746365,0.00314253,41.047646,0,20
254132080,254131207,2162698,0.04780374,0.029880667,0.0015446334,41.047646,0,20
254229649,254228757,2162698,0.01355549,0.03424825,-0.015446334,41.047646,0,20
254329677,254328808,2162698,0.020719394,0.030972563,0.0011185276,41.047646,0,20
254429732,254428858,2162698,0.0350472,0.03368899,-0.007004114,41.047646,0,20
254529785,254528912,2162698,0.072171666,0.014034859,-0.008628642,41.047646,0,20
254632331,254631462,2162698,0.05044027,0.01885518,-0.0092678005,41.047646,0,20
254729884,254729011,2162698,0.018801918,0.027989823,-0.009054747,41.047646,0,20
254832444,254831566,2162698,0.03507383,0.02844256,-0.015739283,41.047646,0,20
254929993,254929118,2162698,-0.0072970614,0.03952131,-0.006791061,41.047646,0,20
255030039,255029164,2162698,0.05885586,0.017816547,-0.008974853,41.047646,0,20
255127583,255126714,2162698,0.0092678005,0.029561087,-0.008841695,40.95353,0,20
255230163,255229288,2162698,0.060613547,0.021252025,-0.011984225,40.95353,0,20
255332705,255331821,2162698,-0.007882956,0.04399542,-0.017869812,40.95353,0,20
255430253,255429368,2162698,0.026471822,0.034194987,-0.008149273,40.95353,0,20
255530293,255529420,2162698,0.015579493,0.028842036,-0.01257012,40.95353,0,20
255630345,255629470,2162698,0.04942827,0.017550232,-0.0049801115,40.95353,0,20
255730408,255729521,2162698,0.0033023197,0.027377296,-0.0011717909,40.95353,0,20
255827940,255827070,2162698,0.019414444,0.02727077,-0.011318435,40.95353,0,20
255930503,255929629,2162698,0.035260253,0.022210764,-0.003914847,40.95353,0,20
256030543,256029674,2162698,0.021544972,0.03107909,-0.0015978967,40.95353,0,20
256130615,256129728,2162698,0.00974717,0.03339604,-0.010546118,41.047646,0,20
256230649,256229776,2162698,0.02530003,0.024580978,-0.01901497,41.047646,0,20
256328205,256327329,2162698,0.029640984,0.027830033,-0.014247912,41.047646,0,20
256430794,256429917,2162698,0.008495484,0.03177151,-0.0064182184,41.047646,0,20
256528305,256527428,2162698,0.029348036,0.02942793,-0.003701794,41.047646,0,20
256630855,256629980,2162698,0.014940334,0.03520699,-0.0011185276,41.047646,0,20
256730910,256730031,2162698,0.057044912,0.027137611,-0.015739283,41.047646,0,20
256830951,256830082,2162698,0.023009712,0.030333405,-0.01190433,41.047646,0,20
256931006,256930133,2162698,0.008841695,0.031158986,-0.007163903,41.047646,0,20
257028552,257027683,2162698,0.008522116,0.027350664,-0.012969594,41.047646,0,20
257131109,257130235,2162698,0.044101946,0.027537085,-0.009294433,41.14176,0,20
257228660,257227785,2162698,-0.0058589545,0.032969933,-0.006764429,41.14176,0,20
257331222,257330342,2162698,0.03422162,0.02860235,-0.011957593,41.14176,0,20
257431272,257430395,2162698,0.006231797,0.028895298,-0.011877699,41.14176,0,20
257528830,257527946,2162698,0.035020567,0.029933931,-0.0070307455,41.14176,0,20
257631363,257630491,2162698,0.029321404,0.029188246,-0.0038083203,41.14176,0,20
257728928,257728040,2162698,0.021065604,0.027963191,-0.01190433,41.14176,0,20
257831493,257830598,2162698,0.0147272805,0.029028457,-0.011824436,41.14176,0,20
257929035,257928154,2162698,0.02034655,0.027883297,0.0005060006,41.14176,0,20
258029063,258028193,2162698,0.0155262295,0.02793656,-0.003355583,41.14176,0,20
258131631,258130746,2162698,0.024341293,0.026844664,-0.010785802,41.14176,0,20
258229171,258228296,2162698,0.026578348,0.031105721,-0.0069774822,41.14176,0,20
258331721,258330848,2162698,0.013635385,0.027670244,-0.017656758,41.14176,0,20
258429270,258428398,2162698,0.018189391,0.027643612,-0.0065780077,41.14176,0,20
258531838,258530964,2162698,0.021252025,0.026818031,-0.004394216,41.14176,0,20
258629412,258628528,2162698,0.025859294,0.02894856,-0.003701794,41.14176,0,20
258729443,258728551,2162698,0.024767399,0.02974751,-0.015739283,41.14176,0,20
258831973,258831104,2162698,0.022503711,0.02942793,-0.014141385,41.14176,0,20
258929547,258928653,2162698,0.028122982,0.032091092,0.008495484,41.14176,0,20
259032075,259031206,2162698,0.016218651,0.03174488,-0.006631271,41.14176,0,20
259129632,259128756,2162698,0.0252734,0.02711098,-0.031025827,41.14176,0,20
259229680,259228807,2162698,0.026391927,0.028176244,-0.021971079,41.14176,0,20
259329735,259328858,2162698,0.017443705,0.0335292,0.018801918,41.14176,0,20
259429786,259428909,2162698,0.032357406,0.031212248,-0.002796319,41.14176,0,20
259532344,259531462,2162698,0.011771172,0.028655613,-0.0304133,41.14176,0,20
259629895,259629014,2162698,0.040852893,0.025033714,-0.0121972775,41.14176,0,20
259729932,259729063,2162698,0.015899071,0.032969933,0.012383699,41.14176,0,20
259829990,259829118,2162698,0.044315,0.031638354,0.002796319,41.14176,0,20
259930042,259929169,2162698,0.0037550572,0.03507383,-0.018535601,41.14176,0,20
260027578,260026711,2162698,0.02612561,0.023675501,-0.023062976,41.14176,0,20
260130151,260129268,2162698,0.02034655,0.02711098,-0.005912218,41.23588,0,20
260232705,260231820,2162698,0.037444044,0.033023197,-0.0056459014,41.23588,0,20
260330279,260329370,2162698,0.019867182,0.029960562,-0.0044741104,41.23588,0,20
260430300,260429421,2162698,0.039894152,0.024660872,-0.017443705,41.23588,0,20
260530345,260529473,2162698,0.01174454,0.028788771,-0.0033023197,41.23588,0,20
260630406,260629524,2162698,0.040133838,0.031611722,0.008335695,41.23588,0,20
260727954,260727084,2162698,0.009480854,0.027723508,-0.014274543,41.23588,0,20
260830496,260829626,2162698,0.034647726,0.025752768,-0.028522456,41.23588,0,20
260930588,260929715,2162698,0.005672533,0.030386668,-0.008309063,41.23588,0,20
261030609,261029729,2162698,0.046685215,0.030546458,0.00085221155,41.23588,0,20
261130657,261129784,2162698,0.001571265,0.02894856,-0.016511599,41.14176,0,20
261228207,261227332,2162698,0.04860269,0.024154872,-0.0226635,41.14176,0,20
261330760,261329883,2162698,0.013795175,0.029667614,0.00021305289,41.14176,0,20
261428310,261427433,2162698,0.15233281,0.0025566346,-0.0036751623,41.14176,0,20
261530872,261529999,2162698,0.022770027,0.033822145,-0.0025832662,41.14176,0,20
261628416,261627535,2162698,0.05044027,0.01041296,-0.037843518,41.14176,0,20
261728467,261727586,2162698,0.122478776,-0.0070307455,-0.0058589545,41.14176,0,20
261828516,261827638,2162698,-0.06735134,0.06825682,-0.0067377975,41.14176,0,20
261928558,261927689,2162698,0.086233154,0.0010652645,-0.03123888,41.14176,0,20
262031111,262030241,2162698,0.17374463,-0.07808388,-0.06165218,41.14176,0,20
262128671,262127801,2162698,0.17606159,0.15118766,-0.13270532,41.14176,0,20
262231226,262230344,2162698,-0.083064,-0.034141727,-0.119922146,41.14176,0,20
262328770,262327901,2162698,-0.004740427,0.10913634,-0.100268014,41.14176,0,20
262428821,262427946,2162698,0.1819738,0.14444986,0.08886968,41.14176,0,20
262531387,262530498,2162698,-0.1695901,0.12311794,0.30535805,41.14176,0,20
262628926,262628048,2162698,-0.24969798,0.2107892,0.41611892,41.14176,0,20
262731506,262730605,2162698,0.28581044,-0.04516721,0.435054,41.14176,0,20
262829027,262828155,2162698,-0.46224487,0.17880464,0.4099404,41.14176,0,20
