timestamp,timestamp_sample,accel_device_id,gyro_device_id,delta_angle[0],delta_angle[1],delta_angle[2],delta_velocity[0],delta_velocity[1],delta_velocity[2],delta_angle_dt,delta_velocity_dt,delta_velocity_clipping,calibration_count
186844219,186843179,2162698,2162698,-7.000626e-05,-3.9808365e-06,-7.2994626e-05,0.0011845459,-0.0025694964,-0.04882761,5003,5003,0,3
186849244,186848181,2162698,2162698,-4.4804536e-05,-6.905177e-06,-6.927426e-05,0.0011452521,-0.0027137233,-0.048766993,5002,5002,0,3
187344509,187343415,2162698,2162698,0.00010873607,-6.088015e-07,-0.0002052654,0.00070336345,-0.0012505125,-0.049584635,5002,5002,0,3
187849662,187848670,2162698,2162698,3.3329118e-06,1.5856998e-05,0.0001130265,0.00022951013,-0.0023144633,-0.04887164,5021,5021,0,3
188350030,188348890,2162698,2162698,-0.00015350748,7.130104e-05,7.496506e-05,0.00052575994,-0.0024318176,-0.049137954,5003,5003,0,3
188850155,188849128,2162698,2162698,9.408437e-05,-7.490511e-05,-5.324341e-05,-0.0009735572,-0.003469817,-0.047712404,5002,5002,0,3
189345402,189344364,2162698,2162698,-4.014066e-05,6.814805e-06,0.0001407964,0.0008920026,-0.002147492,-0.048444934,5003,5003,0,3
189845648,189844601,2162698,2162698,-7.16094e-05,-7.486994e-05,9.2121045e-05,0.0007794755,-7.896173e-05,-0.049377944,5002,5002,0,3
190345932,190344840,2162698,2162698,-6.634962e-05,-2.8033473e-05,-0.0002613374,-0.002031989,-0.0009396317,-0.049085718,5003,5003,0,3
190846124,190845102,2162698,2162698,0.00011205689,9.069748e-05,0.00015088369,0.0011100787,-0.0020507989,-0.046970826,4987,4987,0,3
191346393,191345320,2162698,2162698,-5.6205405e-05,9.271628e-06,7.9774094e-05,0.000773243,-0.0022244966,-0.048668485,5006,5006,0,3
191846583,191845554,2162698,2162698,-1.2111295e-05,-3.2842203e-05,5.1906256e-05,0.0017391016,-0.0021122315,-0.048811886,5002,5002,0,3
192346866,192345812,2162698,2162698,-0.00019063076,-7.954818e-05,-3.4428376e-05,0.0012615912,-0.0010286809,-0.048979554,5022,5022,0,3
192847108,192846034,2162698,2162698,-0.00025144737,1.7959004e-06,-0.0002007012,0.00024878755,0.0024137893,-0.049410816,5006,5006,0,3
193347286,193346269,2162698,2162698,0.00019429174,9.646118e-05,0.0003277297,-0.0008979295,-0.00381788,-0.048654728,4999,4999,0,3
193847581,193846508,2162698,2162698,-0.00012879047,0.00033309803,0.00047456086,-0.0028506678,-0.003329985,-0.049069732,5003,5003,0,3
194347759,194346746,2162698,2162698,-4.4681918e-05,-1.2666137e-06,4.9493765e-06,0.00094490696,-0.0012169163,-0.047899693,4994,4994,0,3
194848006,194846985,2162698,2162698,-3.8433525e-05,6.3074636e-05,-0.00010593694,-0.0009124731,-0.0017232373,-0.049117774,5003,5003,0,3
195348245,195347223,2162698,2162698,-7.605676e-06,4.1352097e-05,0.00010737441,-7.274035e-05,-0.0032994715,-0.048873406,5003,5003,0,3
195848490,195847462,2162698,2162698,5.2395633e-05,-2.6178119e-05,-0.00010512686,-0.002221579,0.00011182176,-0.049168054,5003,5003,0,3
196343744,196342705,2162698,2162698,-3.8286063e-05,-2.9349103e-05,2.6591983e-05,-0.0021078708,-0.002806105,-0.049223077,4967,4967,0,3
196844041,196842961,2162698,2162698,0.00010682725,-1.9085785e-05,2.271368e-05,0.0005567216,-0.0033876044,-0.048975457,5027,5027,0,3
197344267,197343176,2162698,2162698,0.00012172653,-2.673777e-06,-4.2336516e-05,0.0027240769,-0.0019472404,-0.05076721,5003,5003,0,3
197844460,197843418,2162698,2162698,0.00015344277,-4.0835846e-05,5.4633267e-05,0.0014784279,-0.0029165957,-0.047213882,5005,5005,0,3
198344686,198343657,2162698,2162698,-7.916e-05,2.0928725e-05,0.00020828682,0.0015807456,-0.0020245442,-0.048595507,5005,5005,0,3
198849918,198848901,2162698,2162698,2.7235117e-05,-4.3629865e-05,-3.957421e-05,0.0013432052,-0.0021120221,-0.04809583,5008,5008,0,3
199350180,199349135,2162698,2162698,-4.4570595e-07,2.6003945e-05,6.1044466e-07,0.0013005194,-0.0033117363,-0.047461674,5001,5001,0,3
199845419,199844378,2162698,2162698,0.00029745762,-0.00016420546,4.9440412e-05,-0.0012378565,-0.002886837,-0.049390182,5008,5008,0,3
200345633,200344612,2162698,2162698,-1.5610289e-05,-1.0553458e-05,3.7295447e-07,0.00082313834,-0.0029765922,-0.048608664,4998,4998,0,3
200845886,200844854,2162698,2162698,7.872922e-05,-0.00011549679,2.7832923e-05,0.0013823883,-0.0025550306,-0.049232237,5005,5005,0,3
201346129,201345103,2162698,2162698,-0.00014830679,7.909865e-05,0.00011101402,0.000678407,-0.0024942441,-0.046053927,4992,4992,0,3
201846362,201845339,2162698,2162698,4.172469e-05,6.600794e-05,2.6838708e-05,0.003212868,-0.002264019,-0.0475665,5003,5003,0,3
202346639,202345572,2162698,2162698,-0.00021906404,-1.1829826e-05,-0.00025687565,0.0004895904,-0.0029208567,-0.049753834,5002,5002,0,3
202846868,202845812,2162698,2162698,-0.00010941034,-4.634161e-05,6.242275e-05,0.00045886528,-0.0026473887,-0.049509034,5002,5002,0,3
203347074,203346053,2162698,2162698,0.00047603733,-0.00011353655,0.0004164297,0.0011104873,-0.0025071239,-0.0479565,5003,5003,0,3
203847518,203846293,2162698,2162698,2.8625693e-05,2.1874406e-05,0.00012524852,0.0006366773,-0.002675432,-0.04866427,5002,5002,0,3
204347566,204346534,2162698,2162698,-4.023139e-05,7.394512e-06,2.8669352e-05,0.0007479993,-0.0027897244,-0.048921093,5000,5000,0,3
204847804,204846775,2162698,2162698,5.9937323e-05,-8.558391e-06,-2.9822886e-05,0.00077300053,-0.0027893805,-0.04904788,5002,5002,0,3
205348034,205347016,2162698,2162698,-4.531856e-05,1.2141547e-06,-1.279465e-06,0.0007087811,-0.0027599628,-0.048587132,5002,5002,0,3
205848281,205847257,2162698,2162698,3.3821925e-05,-6.0642456e-06,1.9338902e-05,0.00080450193,-0.0028916101,-0.048736803,5002,5002,0,3
206348553,206347506,2162698,2162698,-1.7413406e-06,-9.336708e-06,-1.3650604e-05,0.00065394124,-0.0026963155,-0.048651595,5010,5010,0,3
206843809,206842738,2162698,2162698,-2.8592394e-05,2.9995088e-05,7.553843e-06,0.00024193189,-0.0023269954,-0.04865714,5003,5003,0,3
207344024,207342987,2162698,2162698,-1.2662683e-05,3.8460184e-05,4.4698303e-05,0.00081200217,-0.0015345295,-0.04899145,4980,4980,0,3
207844281,207843221,2162698,2162698,7.8166566e-05,1.3045137e-05,3.3835484e-05,0.00022911697,-0.0033592302,-0.048482932,4998,4998,0,3
208344500,208343464,2162698,2162698,-1.9409828e-05,3.841781e-05,-1.5408451e-06,0.0009390464,-0.0024805167,-0.048737705,5003,5003,0,3
208844733,208843706,2162698,2162698,0.0001330398,-1.941473e-06,-0.00015766223,0.0012415071,-0.0015720187,-0.048987325,5002,5002,0,3
209350025,209348950,2162698,2162698,2.6372454e-05,6.2033364e-06,0.000112558206,0.0010539155,-0.0029217047,-0.050891988,5002,5002,0,3
209850224,209849193,2162698,2162698,-0.00019452424,-3.460124e-06,3.4595876e-05,0.00044638972,-0.00040929858,-0.049702693,5002,5002,0,3
210345469,210344440,2162698,2162698,0.00023803172,-4.9217186e-05,0.0002923803,0.00012064634,-0.0025225836,-0.049470525,5009,5009,0,3
210845706,210844711,2162698,2162698,0.00020249316,-0.000118360906,-0.00010169601,0.001818153,0.0014057187,-0.049262997,5038,5038,0,3
211345941,211344919,2162698,2162698,-1.5798631e-06,-2.42315e-05,0.00010296107,0.0008243545,-0.002813099,-0.048466407,5002,5002,0,3
211846255,211845163,2162698,2162698,-4.160319e-05,7.225027e-05,-5.016223e-06,0.0012465423,-0.0020656812,-0.048577156,5003,5003,0,3
212346450,212345406,2162698,2162698,0.00056983024,4.2379554e-05,-0.0002139998,0.0044241543,-0.0036279773,-0.046654113,5003,5003,0,3
212846826,212845652,2162698,2162698,7.0683294e-05,2.7372807e-05,8.66753e-05,0.0031332984,-0.0029442995,-0.048896156,5005,5005,0,3
213346962,213345893,2162698,2162698,-2.3588853e-05,-4.9760823e-05,-0.00018638381,0.001569861,-0.0028176364,-0.04854432,5003,5003,0,3
213847179,213846136,2162698,2162698,9.208301e-05,-4.2218107e-05,-0.0003524173,0.00022959553,-0.002725679,-0.04842043,5002,5002,0,3
214347548,214346391,2162698,2162698,1.0870868e-06,-5.061613e-07,2.2407314e-06,0.00095396483,-0.0033606396,-0.048173882,5005,5005,0,3
214847694,214846624,2162698,2162698,-3.1932006e-05,-7.452568e-06,3.530507e-05,-0.0006829064,-0.0034887213,-0.048559688,5002,5002,0,3
215347889,215346868,2162698,2162698,4.134907e-05,-2.2761014e-06,7.092885e-05,-0.00012293071,-0.002385436,-0.048920132,5007,5007,0,3
215848143,215847112,2162698,2162698,-4.256133e-05,1.3590024e-05,0.0001590796,0.0019343044,-0.0038900939,-0.04927864,4997,4997,0,3
216348388,216347356,2162698,2162698,2.096573e-05,-1.7174123e-05,-8.100867e-05,-0.0010256631,-0.0009505419,-0.049300224,4996,4996,0,3
216848646,216847601,2162698,2162698,-0.00012892683,-0.00010554023,0.00011093882,0.0010461021,-0.0035848184,-0.04737343,5002,5002,0,3
217343869,217342843,2162698,2162698,4.321333e-05,-4.4563527e-05,5.5666416e-05,0.0014406632,-0.0022152187,-0.048435993,5003,5003,0,3
217844128,217843088,2162698,2162698,-5.796114e-05,1.8520466e-06,-8.380221e-05,0.0013152825,-0.0030070674,-0.048837718,5003,5003,0,3
218344345,218343332,2162698,2162698,-0.00016056056,5.756097e-05,0.00013674439,0.0027164337,-0.00092007563,-0.050084356,5002,5002,0,3
218844607,218843607,2162698,2162698,-5.3286916e-05,2.4021765e-05,1.3941698e-05,0.0022258472,-0.00338802,-0.049522605,5033,5033,0,3
219344851,219343821,2162698,2162698,6.294174e-06,5.595312e-05,0.000110908346,-0.00051805587,-0.0012547106,-0.04935466,5002,5002,0,3
219850100,219849078,2162698,2162698,-0.00022549288,-9.82357e-05,-0.00012669565,-0.002081043,-0.0034795858,-0.048411053,5006,5006,0,3
220350399,220349312,2162698,2162698,9.210904e-05,-3.3654206e-07,-6.299304e-05,0.0010066503,-0.0021433483,-0.048896108,5001,5001,0,3
220845586,220844557,2162698,2162698,9.528316e-05,-8.042779e-05,0.0001254942,-9.4560506e-05,-0.0018925146,-0.048884597,5003,5003,0,3
221345836,221344802,2162698,2162698,0.0002848116,-1.1225111e-05,9.2643276e-08,-0.001885909,-0.0016464284,-0.048988447,5002,5002,0,3
221846118,221845048,2162698,2162698,-1.822994e-05,2.4910862e-05,0.00015100148,0.0007611256,-0.0021629385,-0.04904612,5003,5003,0,3
222346427,222345300,2162698,2162698,0.00011792895,5.420063e-05,-5.5792072e-05,0.0007190898,-0.0030259322,-0.04739018,5009,5009,0,3
222846651,222845539,2162698,2162698,5.8823804e-05,6.877698e-05,0.00033670716,0.002360764,3.6966063e-05,-0.049083706,5002,5002,0,3
223346805,223345785,2162698,2162698,7.5555035e-05,-6.418932e-05,0.0001098469,0.0009370707,-0.003097797,-0.047938958,4994,4994,0,3
223847058,223846032,2162698,2162698,0.00016001821,6.804812e-06,-3.6246576e-05,0.00155527,-0.0022651248,-0.048685357,5003,5003,0,3
224347410,224346278,2162698,2162698,0.00010585935,-0.00018248048,-0.00019226017,0.0014108942,0.004110177,-0.051110886,5002,5002,0,3
224847704,224846525,2162698,2162698,-0.00018636878,3.3579152e-05,-0.0002675925,0.000538432,-0.0004953412,-0.048740726,5002,5002,0,3
225347796,225346771,2162698,2162698,-0.00029987632,-0.0010563338,0.0007283098,0.0011606939,-6.942125e-05,-0.04778031,5002,5002,0,3
225848181,225847018,2162698,2162698,5.699206e-05,4.1804083e-06,0.00029990796,0.0006580953,-0.004747297,-0.048857223,5003,5003,0,3
226348279,226347265,2162698,2162698,2.306893e-05,4.2726606e-06,9.331404e-05,0.00058990443,-0.0026529483,-0.04878962,5002,5002,0,3
226848537,226847512,2162698,2162698,-3.1218235e-05,-0.00024861138,-0.00010943586,0.0010448754,-0.0020143755,-0.049827237,4995,4995,0,3
227348794,227347759,2162698,2162698,6.444382e-05,-3.2176556e-06,-6.203857e-05,0.00039207053,-0.003025212,-0.04818074,5002,5002,0,3
227844033,227843004,2162698,2162698,7.4699834e-05,8.9651745e-05,0.0003301453,0.0011002186,-0.0039462466,-0.04936273,5002,5002,0,3
228344311,228343283,2162698,2162698,3.3073266e-05,-8.13241e-05,-0.0002889045,0.00094324234,-0.0032994256,-0.05030733,5011,5011,0,3
228844664,228843500,2162698,2162698,9.968611e-05,-0.00015730334,-0.00039337075,0.0014786496,-0.0030135117,-0.048614822,5002,5002,0,3
229344777,229343748,2162698,2162698,-6.384739e-05,-2.1813682e-06,0.00028948946,0.0008506557,-0.004262395,-0.048245605,5003,5003,0,3
229845094,229843996,2162698,2162698,-6.779384e-05,6.391667e-05,-0.00010024293,0.00057336263,-0.003523137,-0.04910747,5003,5003,0,3
230345349,230344261,2162698,2162698,-0.0001034194,7.835207e-05,-0.00012379953,-5.033964e-06,-0.003044986,-0.04962035,5019,5019,0,3
230850527,230849496,2162698,2162698,4.0184925e-05,6.0204322e-05,8.300355e-07,-0.0008447322,-0.007414281,-0.047397792,5003,5003,0,3
231345766,231344741,2162698,2162698,-5.5998546e-05,4.7143963e-05,-8.637464e-05,0.00204291,-0.004002054,-0.049893748,5002,5002,0,3
231846009,231844990,2162698,2162698,2.4487388e-05,-1.3845138e-05,-0.00016888915,0.0015136597,-0.0020034127,-0.04889115,5003,5003,0,3
232346270,232345247,2162698,2162698,2.6958885e-05,-1.0642458e-05,0.00025444737,0.002019276,-0.0051855883,-0.051628653,5011,5011,0,3
232846534,232845488,2162698,2162698,-0.00039114617,6.334635e-05,-8.139262e-05,0.0005336737,0.0006502318,-0.0497633,5003,5003,0,3
233346890,233345743,2162698,2162698,-0.00021479742,3.697114e-05,-3.4832956e-05,0.0010201677,-0.00062004506,-0.05019279,5009,5009,0,3
233847000,233846011,2162698,2162698,-5.8067177e-05,1.2866964e-05,9.5247524e-05,-0.000962641,-0.0031373906,-0.047824867,5028,5028,0,3
234347264,234346235,2162698,2162698,-7.169314e-05,6.8971895e-05,-2.3440938e-05,-0.00053495116,-0.005514544,-0.049206574,5001,5001,0,3
234847513,234846485,2162698,2162698,-3.361692e-05,2.3132012e-05,6.709254e-05,0.00072273513,-0.0020535425,-0.048846826,5003,5003,0,3
235347841,235346734,2162698,2162698,0.00036722393,1.636194e-05,0.00045060512,-0.0012263338,-0.0033026827,-0.048518915,5002,5002,0,3
235848024,235846984,2162698,2162698,-4.378218e-05,-5.933575e-06,4.2198666e-05,0.001314378,-0.0026874396,-0.048880275,5002,5002,0,3
236348257,236347234,2162698,2162698,-1.9887064e-05,1.2561455e-05,8.7833105e-05,0.0010773974,-0.0025569806,-0.0488605,5003,5003,0,3
236848516,236847483,2162698,2162698,3.323032e-05,-1.2230717e-05,-1.8727224e-05,0.0008077476,-0.002523819,-0.049000684,5005,5005,0,3
237348846,237347791,2162698,2162698,-1.6721275e-05,-4.400356e-06,-1.204537e-05,0.0007883332,-0.002534898,-0.049457155,5055,5055,0,3
237849005,237847985,2162698,2162698,1.51487975e-05,3.6728238e-07,2.6640548e-05,0.0009516014,-0.0026277897,-0.04921674,5003,5003,0,3
238344289,238343267,2162698,2162698,8.899582e-06,-1.6938249e-06,-2.6311084e-06,0.0008727558,-0.002587022,-0.04889251,5005,5005,0,3
238844601,238843491,2162698,2162698,-2.3486248e-06,-1.0373158e-05,-6.4662163e-06,0.000757458,-0.0026039705,-0.04876157,5010,5010,0,3
239344769,239343734,2162698,2162698,-1.306667e-05,-2.4928308e-06,3.349493e-05,0.00087910297,-0.0024613843,-0.048781294,4998,4998,0,3
239845034,239843986,2162698,2162698,3.3609613e-06,-1.3674598e-06,3.107261e-05,0.00078250456,-0.0026723393,-0.048845463,5003,5003,0,3
240345304,240344236,2162698,2162698,-1.1682646e-05,-7.4913833e-06,-2.3185039e-05,0.0009105376,-0.002638197,-0.049065568,5002,5002,0,3
240845533,240844488,2162698,2162698,3.0456855e-05,-1.1950423e-05,-1.0615658e-05,0.0008113099,-0.0024210971,-0.04883711,5003,5003,0,3
241345759,241344739,2162698,2162698,-2.2766997e-05,-1.1433948e-05,1.12929365e-05,0.0009379973,-0.0024673129,-0.048746653,5002,5002,0,3
241846062,241844991,2162698,2162698,1.2894309e-05,-2.6105097e-06,-5.082758e-06,0.00095029664,-0.0026154935,-0.048908446,5003,5003,0,3
242346263,242345242,2162698,2162698,2.760936e-06,-3.4572843e-06,-8.610768e-06,0.00080852676,-0.00249799,-0.048874084,5002,5002,0,3
242846539,242845494,2162698,2162698,-1.8267634e-05,-4.8720003e-06,-2.8800663e-05,0.0009385295,-0.002603538,-0.049080484,5002,5002,0,3
243346835,243345746,2162698,2162698,8.857701e-06,1.8547928e-06,0.00024012299,-0.0019029513,-0.003526583,-0.05013288,5003,5003,0,3
243847026,243846005,2162698,2162698,-1.514856e-05,-2.5581433e-06,5.766506e-05,-0.0028398898,-0.0023554815,-0.04823926,5009,5009,0,3
244347274,244346250,2162698,2162698,-3.4331566e-05,-1.18556445e-05,-8.0149955e-05,0.0010352217,-0.002603168,-0.048700087,5002,5002,0,3
244847531,244846503,2162698,2162698,7.4327018e-06,-7.0588094e-06,-3.9753595e-05,0.0011693657,-0.0025733348,-0.048816912,5001,5001,0,3
245342776,245341753,2162698,2162698,-2.3076248e-07,1.090069e-05,4.339816e-05,0.0009795433,-0.0025574828,-0.048826087,5003,5003,0,3
245848037,245847008,2162698,2162698,1.4284911e-05,-6.9053285e-06,-2.1502336e-05,0.00078875263,-0.002471542,-0.04888146,5003,5003,0,3
246348298,246347260,2162698,2162698,-3.3336632e-06,-3.0727595e-06,9.123293e-06,0.00090318295,-0.0026895637,-0.048751578,5002,5002,0,3
246848583,246847513,2162698,2162698,1.8131175e-05,-2.9519172e-06,1.5545924e-05,0.00082129356,-0.0027676753,-0.04885067,5002,5002,0,3
247348795,247347766,2162698,2162698,-1.4080003e-05,-8.575977e-06,-5.635002e-06,0.00084480544,-0.0024123923,-0.048668105,5002,5002,0,3
247849047,247848019,2162698,2162698,7.9504985e-05,-1.7116507e-05,-3.664876e-05,0.00082653103,-0.0024773572,-0.048753213,5002,5002,0,3
248344289,248343265,2162698,2162698,-1.9015664e-05,3.8363237e-06,1.5085895e-05,0.0009215305,-0.002681429,-0.048879348,4997,4997,0,3
248844564,248843524,2162698,2162698,4.2024963e-05,-1.0102927e-05,3.6560665e-05,0.0008710629,-0.002507051,-0.049051397,5003,5003,0,3
249344862,249343777,2162698,2162698,3.4314413e-05,-2.4264127e-05,-5.3932337e-05,0.00068468374,-0.002632617,-0.048853435,4998,4998,0,3
249845101,249844038,2162698,2162698,-2.8086093e-05,-3.9008914e-06,2.8412538e-05,0.0009104221,-0.00256812,-0.04875139,5005,5005,0,3
250345351,250344284,2162698,2162698,8.414843e-06,-1.47490255e-05,-1.5302832e-05,0.0009388481,-0.0025895913,-0.04898428,5003,5003,0,3
250845657,250844538,2162698,2162698,5.8088312e-06,-1.0206998e-05,1.1260661e-05,0.0008493618,-0.002445226,-0.048993636,5003,5003,0,3
251345837,251344827,2162698,2162698,0.00018226854,3.0831234e-05,-4.6237743e-05,0.0008077412,-0.0038582645,-0.049755733,5005,5005,0,3
251846112,251845047,2162698,2162698,1.7300143e-05,9.875235e-06,2.989043e-05,0.0004686272,-0.0030611155,-0.048820846,5004,5004,0,3
252346322,252345302,2162698,2162698,6.608198e-05,-2.9377774e-05,-9.755134e-07,0.0019790218,-0.0017736002,-0.048291806,5005,5005,0,3
252846588,252845553,2162698,2162698,0.00071227166,-6.891463e-05,-0.00011966626,0.001297571,-0.004654114,-0.05021325,5002,5002,0,3
253346874,253345808,2162698,2162698,4.992305e-05,-4.1148214e-05,3.0542786e-05,0.0010250155,-0.002326277,-0.04627221,5003,5003,0,3
253847079,253846062,2162698,2162698,0.00013838313,1.4822257e-05,-1.2509228e-05,0.0017922607,-0.0027091885,-0.048699614,5003,5003,0,3
254347339,254346317,2162698,2162698,0.00013019003,-3.7486338e-05,5.019614e-05,0.0009146746,-0.0025986403,-0.04933649,5003,5003,0,3
254847650,254846571,2162698,2162698,-2.9307826e-05,-1.2593792e-05,-1.6417445e-07,0.00083159853,-0.0022335087,-0.0477113,5002,5002,0,3
255347856,255346865,2162698,2162698,2.49395e-05,-3.731073e-06,-7.566553e-06,0.001139674,-0.00362635,-0.048684616,5041,5041,0,3
255843103,255842078,2162698,2162698,-0.00011297466,1.7865237e-05,-2.5573401e-05,0.00012515795,-0.0026765035,-0.04896165,5002,5002,0,3
256343416,256342333,2162698,2162698,3.233359e-05,-1.0477027e-05,-1.7281283e-05,0.00094055315,-0.002781087,-0.04895304,5002,5002,0,3
256848622,256847591,2162698,2162698,3.348081e-05,-8.126605e-06,1.723663e-05,0.0011398484,-0.0025900593,-0.049085062,5003,5003,0,3
257348875,257347846,2162698,2162698,1.5911513e-05,-2.3703822e-05,-2.3599434e-05,0.0006926414,-0.0024282015,-0.048451554,4999,4999,0,3
257849137,257848101,2162698,2162698,-1.0989385e-05,-7.3249803e-06,7.3209007e-06,0.00074389967,-0.0025257552,-0.04901274,5002,5002,0,3
258349402,258348361,2162698,2162698,-6.5202155e-05,-8.186457e-06,-1.5497188e-05,0.000994822,-0.002478798,-0.048819307,5006,5006,0,3
258849666,258848612,2162698,2162698,-1.3108186e-05,7.3289993e-07,-1.1999595e-05,0.0009993451,-0.0028956344,-0.04846159,4993,4993,0,3
259344882,259343866,2162698,2162698,-1.24146345e-05,1.1309794e-05,0.00014948969,0.00098099,-0.0025056982,-0.04912852,5003,5003,0,3
259845175,259844122,2162698,2162698,6.6600755e-05,-9.419411e-06,5.1120365e-05,0.00092294725,-0.0025710268,-0.04858423,5003,5003,0,3
260345498,260344386,2162698,2162698,-8.156339e-05,3.3867673e-06,1.7597493e-05,0.001125724,-0.0024697923,-0.049196552,5002,5002,0,3
260845656,260844661,2162698,2162698,4.813255e-05,-2.8312523e-05,-7.1516355e-05,0.0010682659,-0.002584015,-0.04966593,5029,5029,0,3
261345907,261344890,2162698,2162698,-0.00011088764,2.937138e-05,4.4921922e-05,0.00087767985,-0.002499566,-0.048425093,5002,5002,0,3
261846184,261845147,2162698,2162698,-0.00022120167,5.7173896e-05,-0.000108276436,0.0026350508,-0.0042585186,-0.049938213,5003,5003,0,3
262346435,262345407,2162698,2162698,-0.00092218776,0.0008279601,-4.293951e-05,0.005218659,0.0023677652,-0.056590978,5006,5006,0,3
262846676,262845660,2162698,2162698,-0.00094307406,5.9034453e-05,0.0017880455,0.013788282,-0.0023027053,-0.04312965,5003,5003,0,3
263346955,263345917,2162698,2162698,0.0021871112,-0.0012556494,-0.005730632,0.024047999,-0.008657128,-0.009809729,5003,5003,0,3
263847198,263846174,2162698,2162698,9.063716e-05,-0.0027356825,-0.0009344521,0.031475205,-0.0079160305,0.042869203,4991,4991,0,3
264347557,264346446,2162698,2162698,0.0061837523,0.0023078474,0.0038186237,0.048332296,0.0039149188,-0.05945068,5017,5017,0,3
264847721,264846689,2162698,2162698,-0.0059932717,-0.001928666,0.0005341073,0.03959759,-0.0007624723,-0.032484837,5003,5003,0,3
265348036,265346947,2162698,2162698,0.001258175,0.0020877032,0.0018070628,0.027188152,0.014173644,-0.08059478,5003,5003,0,3
265853226,265852207,2162698,2162698,-0.0012436697,-0.00054502673,-0.00078411563,0.015800107,-0.0041921195,-0.0349985,5002,5002,0,3
266343542,266342481,2162698,2162698,0.006469349,-0.0011742018,-0.0020432116,0.013039954,0.0073568206,-0.052038155,5024,5024,0,3
266843749,266842718,2162698,2162698,0.0004779078,-9.016006e-05,0.0011414782,0.01231874,0.004968404,-0.05967466,5003,5003,0,3
267344000,267342976,2162698,2162698,-0.0005615085,0.0009353,0.0020243295,0.012240298,0.006707313,-0.05169223,5002,5002,0,3
267844256,267843235,2162698,2162698,0.0011836279,-0.0008712483,0.0019469017,6.202521e-06,0.003890525,-0.049515422,5000,5000,0,3
268349528,268348496,2162698,2162698,-0.0008423662,-0.0008676469,0.0006609448,0.0010538788,0.0035932872,-0.06379082,5003,5003,0,3
268854793,268853756,2162698,2162698,-0.0013557138,-0.0008718607,0.001188651,0.0040527834,-0.007606871,-0.04549423,5002,5002,0,3
269350035,269349013,2162698,2162698,0.0010434755,-0.00044736738,-0.00032794024,0.0006663106,0.012776668,-0.06641852,5003,5003,0,3
269845390,269844269,2162698,2162698,-0.0001554935,-0.00027543446,-0.0008400922,0.008038582,-0.004453744,-0.053599533,5003,5003,0,3
270345557,270344527,2162698,2162698,-0.00018444909,0.00053428346,0.0017261166,0.0041128593,-0.0029420117,-0.036441475,5001,5001,0,3
270845951,270844787,2162698,2162698,0.001424964,0.0013076247,0.0014331022,0.004379591,0.0021877417,-0.052919175,5003,5003,0,3
271346065,271345046,2162698,2162698,-0.00039125764,0.0023242258,0.0008342815,0.008952207,0.002677609,-0.09131348,5003,5003,0,3
271846410,271845303,2162698,2162698,-0.00088718627,0.00035641828,0.001515663,0.0053421943,0.0036129307,-0.05582519,4980,4980,0,3
272346606,272345564,2162698,2162698,-0.0030779205,-0.0012898637,0.0015236456,0.010284256,0.00819481,-0.033049993,5002,5002,0,3
272846861,272845826,2162698,2162698,-0.0011865847,0.00033826698,0.0008952331,0.008311796,0.008841638,-0.049724225,5005,5005,0,3
273347128,273346096,2162698,2162698,0.0013064787,0.00035133772,0.0007507494,0.007251678,-0.0017947131,-0.055299237,5008,5008,0,3
273847418,273846343,2162698,2162698,0.0023394793,0.00012938179,0.0023109503,0.00596789,0.0014996142,-0.042388245,5002,5002,0,3
274347678,274346642,2162698,2162698,0.0010709281,0.0006829809,-0.00016812234,0.0074135903,0.0031978,-0.062052194,5042,5042,0,3
274847899,274846878,2162698,2162698,0.004108998,0.0005228535,0.001892207,0.006329099,0.0057708994,-0.042064738,5006,5006,0,3
275348156,275347123,2162698,2162698,-0.00054201105,0.0006267709,0.0015720564,0.0033677956,0.005324484,-0.03823669,5002,5002,0,3
275848417,275847391,2162698,2162698,-0.00016272781,0.00034414264,0.0027259865,0.0039314204,0.0018922655,-0.04421903,5002,5002,0,3
276343719,276342684,2162698,2162698,-0.0012547092,0.00085135375,0.0012039234,0.001530476,-0.0020975969,-0.054228187,5047,5047,0,3
276844045,276842905,2162698,2162698,-0.0017604127,0.00079280225,0.0008534896,0.00067424297,0.00010459092,-0.065958895,5006,5006,0,3
277344235,277343161,2162698,2162698,-0.0029866577,0.00045471243,0.0017736078,0.0013822343,0.01379472,-0.052880447,5001,5001,0,3
277844455,277843422,2162698,2162698,-0.00063372013,-0.00044523322,0.000325621,-0.0012673048,-0.0006043707,-0.045774706,5003,5003,0,3
278344734,278343682,2162698,2162698,0.0030165296,-0.00010761633,0.00023199106,-0.0015038478,0.0059734345,-0.05098788,4975,4975,0,3
278844965,278843943,2162698,2162698,-0.00040794138,-0.00031255858,0.0006848684,-0.0016444143,-0.007750598,-0.053222355,5002,5002,0,3
279345263,279344233,2162698,2162698,0.0004515806,9.6315336e-05,-0.0003684343,-0.0003530518,0.0026242496,-0.058590595,5014,5014,0,3
279850542,279849474,2162698,2162698,-0.00016711446,-0.00025421532,0.00081926497,-0.0024570427,-0.001972937,-0.0272792,4995,4995,0,3
280345742,280344726,2162698,2162698,0.002405322,-0.00041541873,0.00023888201,-0.00060166634,0.0014967121,-0.028695496,5003,5003,0,3
280846028,280845008,2162698,2162698,-0.00049262255,9.691609e-06,0.0014324391,0.0017979449,0.0056296024,-0.02239027,5005,5005,0,3
281346302,281345248,2162698,2162698,0.0023318245,0.0001536521,0.0011770618,-0.0012600995,0.0030759117,-0.051001515,5003,5003,0,3
281846546,281845509,2162698,2162698,-0.0022105004,0.00026227452,0.00010337451,-0.0018254261,-0.010767262,-0.062466353,5003,5003,0,3
282346893,282345803,2162698,2162698,-0.0034570317,-2.2776961e-05,3.443433e-05,-0.0068156,0.012370534,-0.03921141,5005,5005,0,3
282852184,282851037,2162698,2162698,-0.0047504585,0.0008282316,-0.00054169516,-0.007592367,0.0051810127,-0.07023738,5006,5006,0,3
283347412,283346293,2162698,2162698,-0.0006050515,0.001577454,0.0004658637,-0.006134631,0.0003265205,-0.06447111,4999,4999,0,3
283847609,283846582,2162698,2162698,0.003612754,0.00013751723,-0.0007930662,-0.0050310036,-0.006713471,-0.0723347,5009,5009,0,3
284352856,284351818,2162698,2162698,-0.0002842078,-0.00034705692,0.000877809,-1.6531572e-05,0.010706957,-0.03125539,5006,5006,0,3
284853161,284852080,2162698,2162698,-0.008414873,-0.0009858559,0.0007625272,0.0028973327,-0.0013417833,-0.035870776,5003,5003,0,3
285348397,285347363,2162698,2162698,0.0012728506,0.00043583443,-0.0019383241,0.003567717,0.0055070347,-0.036551315,5005,5005,0,3
285853683,285852615,2162698,2162698,-0.0009443495,0.0004451745,-0.0006989465,0.0060877576,-0.000954035,-0.03926493,5014,5014,0,3
286348890,286347863,2162698,2162698,0.00048612917,0.001499258,-0.0020110148,-0.0007060336,0.0045022066,-0.056890905,5002,5002,0,3
286849181,286848162,2162698,2162698,0.0028270949,0.0008426353,9.33532e-05,0.0010817696,-0.0013866243,-0.06461161,5040,5040,0,3
287344424,287343392,2162698,2162698,0.0006078669,0.00075791735,0.00015049952,-0.00056786166,0.0027243604,-0.062287614,5002,5002,0,3
287844659,287843646,2162698,2162698,0.0006841179,0.0003915725,-0.0035313815,0.0019551585,0.007933843,-0.063574605,5002,5002,0,3
288344955,288343928,2162698,2162698,1.8876728e-05,-0.00095473626,0.0016652037,0.003472124,0.0026048217,-0.038896155,5016,5016,0,3
288845239,288844171,2162698,2162698,0.0019310497,-0.00018183215,0.00012591196,0.0036349404,0.003931629,-0.044928074,5003,5003,0,3
289345461,289344433,2162698,2162698,0.00068468717,-0.0006316185,6.056949e-07,0.0060230955,-0.0003022964,-0.01966033,5002,5002,0,3
289845783,289844718,2162698,2162698,0.0015502183,5.2381507e-05,0.00088578067,0.0069609666,0.0019356923,-0.045712076,4970,4970,0,3
290346087,290344958,2162698,2162698,0.0011093429,0.0012289762,0.0007916528,0.007224057,0.00035104636,-0.06546013,5003,5003,0,3
290846248,290845228,2162698,2162698,0.0019327248,0.0007946701,0.0006662103,0.008617906,-0.001225331,-0.059333812,5010,5010,0,3
291346542,291345502,2162698,2162698,0.0012612476,0.0014201904,0.0007344406,0.008289042,-0.00018688104,-0.048105985,5001,5001,0,3
291846778,291845746,2162698,2162698,0.002377361,0.0009838227,0.004019789,0.0070781014,-0.00055243244,-0.029497957,5002,5002,0,3
292347066,292346009,2162698,2162698,-0.0016285875,0.0017083443,0.0034235588,0.009474047,0.0026164495,-0.030582128,5003,5003,0,3
292847392,292846284,2162698,2162698,-0.0059372406,0.002147356,0.0016862035,0.008575626,0.003343467,-0.04369631,5006,5006,0,3
293347599,293346535,2162698,2162698,0.0027198598,0.0010103199,0.0019760632,0.008979668,0.0025040605,-0.062039252,5003,5003,0,3
293847829,293846798,2162698,2162698,0.0012764115,-0.00028388438,0.0007394181,0.0113787865,-0.005439819,-0.051497366,5003,5003,0,3
294343091,294342071,2162698,2162698,0.00093015225,-0.00048327324,0.0021785588,0.0104356315,0.0009137097,-0.034924902,5003,5003,0,3
294843389,294842321,2162698,2162698,0.0040922747,-4.751082e-05,0.0012487549,0.007272301,0.0022381397,-0.024396256,4995,4995,0,3
295343688,295342585,2162698,2162698,0.00087267085,0.0023251136,0.003273886,0.0059908396,-0.0023474423,-0.034069285,5003,5003,0,3
295843875,295842858,2162698,2162698,-0.0010534258,0.002869988,0.0029791521,0.003724009,-0.0017262765,-0.08330468,5013,5013,0,3
296344161,296343111,2162698,2162698,0.0005942519,0.0028151092,0.0023359952,-0.001908565,0.0051400224,-0.07386554,5003,5003,0,3
296844414,296843381,2162698,2162698,-0.00032365057,0.002140633,0.0025954605,-0.00304786,-0.0051420047,-0.06393723,5003,5003,0,3
297349662,297348638,2162698,2162698,-0.00037103397,0.0019371153,0.0020127064,-0.0028853682,0.0046726596,-0.08314243,5005,5005,0,3
297844934,297843902,2162698,2162698,0.00046079338,0.0018151097,0.0013298511,-0.0032604572,0.00024036599,-0.06121266,5003,5003,0,3
298345193,298344170,2162698,2162698,0.0011823501,0.000874142,0.0021080745,-0.003756532,-0.0003847911,-0.05400454,5007,5007,0,3
298845461,298844440,2162698,2162698,0.0010791981,0.00063394714,0.0014713138,-0.005381739,-0.0010039624,-0.060935024,5010,5010,0,3
299345718,299344692,2162698,2162698,-0.0036961138,-8.805099e-06,0.0022656461,-0.0049869167,-0.0005047904,-0.036018677,5002,5002,0,3
299846012,299844957,2162698,2162698,-0.0041778376,0.00091572106,-0.00050021644,-0.010503375,0.00593988,-0.030185102,5003,5003,0,3
300351254,300350225,2162698,2162698,0.0025433276,0.00033735237,0.0002683463,-0.009719339,0.00073225057,-0.04758369,5004,5004,0,3
300846541,300845488,2162698,2162698,0.0028989816,0.00021680945,-0.0013209693,-0.009208014,0.0041314894,-0.050413247,5007,5007,0,3
301346769,301345752,2162698,2162698,-0.0007147372,0.00017564817,0.00145708,-0.011999099,-0.0017853833,-0.042936392,5007,5007,0,3
301852036,301851014,2162698,2162698,-0.0018985516,0.00030625824,0.00055116793,-0.00810315,-0.0044236085,-0.0976926,5002,5002,0,3
302347314,302346276,2162698,2162698,-0.0022351793,0.00095388864,0.0002268097,-0.008992468,0.001350212,-0.08567847,5003,5003,0,3
302852655,302851543,2162698,2162698,-0.00032132614,-0.00018088189,0.0001004891,-0.005963484,0.008773629,-0.061216425,5003,5003,0,3
303347857,303346804,2162698,2162698,-0.0032475188,0.0005031861,0.0009388491,-0.007994907,0.009575189,-0.04138334,5003,5003,0,3
303848093,303847068,2162698,2162698,-0.0049263923,0.0012253047,-0.00020905555,-0.010595851,-0.0009872918,-0.046676163,5003,5003,0,3
304353362,304352335,2162698,2162698,0.005457385,-0.00067861256,-0.0027946935,-0.0065893396,-0.0025985544,-0.035208885,5003,5003,0,3
304843643,304842594,2162698,2162698,-0.0023056578,-0.00044861462,0.0010624324,-0.006816416,-0.0027744053,-0.04185487,5009,5009,0,3
305343889,305342858,2162698,2162698,-0.0065899603,0.0002968567,0.00049951015,-0.0063835955,0.012729947,-0.055702787,5003,5003,0,3
305844146,305843130,2162698,2162698,-0.0024593947,0.00073263864,-0.0008002497,-0.006776006,-0.0012677902,-0.06874663,5011,5011,0,3
306344512,306343392,2162698,2162698,0.00013062275,0.0004911552,-0.0011063502,-0.0052699945,0.014629335,-0.08903358,5000,5000,0,3
306849696,306848653,2162698,2162698,0.0038532037,0.00047491596,-0.0007988899,-0.009877751,0.0041684024,-0.04430833,5002,5002,0,3
307349955,307348918,2162698,2162698,0.0018368114,0.00018083061,0.0034472889,-0.007587641,0.0011150952,-0.07972962,5008,5008,0,3
307855195,307854211,2162698,2162698,-0.00019591884,0.00024966736,-0.002272373,-0.00464493,-0.0006214214,-0.044757105,5029,5029,0,3
308345477,308344444,2162698,2162698,-0.002688995,-0.0005438884,0.0005266358,0.0019517298,0.008630682,-0.017811313,5002,5002,0,3
308845721,308844708,2162698,2162698,0.0010801491,0.0007128778,-0.00044756185,-0.0045735077,-0.016925078,-0.038152885,5002,5002,0,3
309345993,309344973,2162698,2162698,0.0022690834,-5.1398485e-05,-0.00074160896,-0.0041589835,0.0003400908,-0.020409524,4997,4997,0,3
309846273,309845238,2162698,2162698,0.00052795646,0.0021439292,0.00028792623,-0.0018428594,0.0028922094,-0.078321114,4999,4999,0,3
310346536,310345502,2162698,2162698,-0.0041836584,0.0017204348,-0.0012754131,0.005063013,0.0045644064,-0.0831137,5002,5002,0,3
310846804,310845781,2162698,2162698,-0.002575479,-0.0005191493,0.0009058106,0.0049259104,-5.7877678e-05,-0.04813167,5014,5014,0,3
311347053,311346031,2162698,2162698,0.0023047172,-0.0009132035,-0.0007380932,0.0055180583,0.0073325667,-0.032487664,4988,4988,0,3
311847490,311846312,2162698,2162698,0.0023378844,-0.00032225496,-0.0008402691,0.010590797,-0.015677555,-0.039218377,5018,5018,0,3
312347607,312346561,2162698,2162698,0.006323947,0.0012661553,0.00083216093,0.008246396,0.010214314,-0.087715484,4999,4999,0,3
312847855,312846826,2162698,2162698,-0.00064223795,0.0005549726,-0.00011232672,0.008080794,-0.008411923,-0.056678172,5003,5003,0,3
313343108,313342088,2162698,2162698,-0.0018555467,-0.000120312834,0.0015748458,0.0072220275,0.009581512,-0.022424044,5003,5003,0,3
313843357,313842361,2162698,2162698,-0.002064471,0.00062552985,0.0011748768,0.009094928,0.0068250224,-0.07435477,5011,5011,0,3
314348654,314347621,2162698,2162698,-0.0034326029,0.0010371013,-0.000933907,0.006738999,-0.0038625211,-0.03570809,5003,5003,0,3
314848905,314847885,2162698,2162698,0.0027952937,-0.0001856625,0.00085334637,0.008276621,0.007847625,-0.04007,5003,5003,0,3
315344160,315343148,2162698,2162698,0.0022680194,6.096014e-05,0.0002816508,0.004693439,-0.0003634343,-0.033024766,4997,4997,0,3
315844471,315843413,2162698,2162698,-0.0009390331,-0.0004917084,0.0003601913,0.0067510367,5.707465e-05,-0.019432802,4995,4995,0,3
316344768,316343677,2162698,2162698,-0.0009296346,0.00023233633,0.0013726413,0.006283198,0.00229178,-0.028656201,4983,4983,0,3
316844959,316843943,2162698,2162698,-0.0020456943,-0.00013812515,0.001431157,0.002895027,-0.0032749427,-0.048920248,5003,5003,0,3
317345248,317344208,2162698,2162698,0.0024820948,-0.00041267514,-7.513355e-05,0.0070716618,0.0029624798,-0.054899015,5003,5003,0,3
317845555,317844473,2162698,2162698,0.0013290636,0.00027909336,0.0029972612,0.0012520362,0.0030307146,-0.03325205,5003,5003,0,3
318345749,318344762,2162698,2162698,0.00025046573,0.0007163259,0.0003032319,0.003206968,0.0011802076,-0.04923034,5027,5027,0,3
318851046,318850006,2162698,2162698,-0.0015326245,0.0013939468,0.0032521773,0.0037331614,0.005696269,-0.051758308,5003,5003,0,3
319346352,319345272,2162698,2162698,0.00014490884,0.00079614617,0.00056281255,0.0029136923,-0.0027952332,-0.0680937,5006,5006,0,3
319846630,319845534,2162698,2162698,-0.0056409873,0.00018882856,0.00040084263,0.0043825284,-0.009133953,-0.06476174,5003,5003,0,3
320346827,320345799,2162698,2162698,-0.00068295136,1.634994e-05,0.002122138,0.0039623166,0.009414163,-0.027837714,4987,4987,0,3
320847146,320846068,2162698,2162698,-0.004670801,0.0020127748,0.0015270873,-0.0003596545,0.008182905,-0.082142726,5007,5007,0,3
321347386,321346349,2162698,2162698,-0.00044095423,0.0019825026,-0.0004694372,0.007937158,0.006976265,-0.08153613,5022,5022,0,3
321847640,321846606,2162698,2162698,0.003611619,-0.00018958618,-0.00022083265,0.0060394765,0.0011824475,-0.027894862,5014,5014,0,3
322342929,322341859,2162698,2162698,-0.0013473546,-3.6283953e-05,-0.0010242288,0.0011040086,-0.0053479304,-0.040761184,4997,4997,0,3
322848334,322847161,2162698,2162698,0.00065775425,0.0014865056,0.00050610956,0.008233952,-0.002147609,-0.07240897,5039,5039,0,3
323353430,323352395,2162698,2162698,0.002219601,-0.00017115816,0.0001503503,0.0035315123,0.0047172415,-0.05470764,5002,5002,0,3
323848734,323847656,2162698,2162698,0.0034054643,-0.0014083266,-0.0014404022,0.0024349275,0.007930735,-0.029382883,5003,5003,0,3
324348934,324347921,2162698,2162698,-0.00017395437,-0.00093796634,0.0003762433,0.00021493025,0.0023448886,-0.021183206,5002,5002,0,3
324849211,324848187,2162698,2162698,-0.00023021441,0.0002221083,0.0020988095,-0.0004448291,-0.009711664,-0.053881083,4976,4976,0,3
325349521,325348452,2162698,2162698,0.00015450762,0.0013332515,-0.0009808915,0.0029456767,0.008468605,-0.05630627,5002,5002,0,3
325844817,325843715,2162698,2162698,0.0005861063,0.00058528996,0.0029300228,0.0061669894,0.00960477,-0.053182084,5003,5003,0,3
326345010,326343980,2162698,2162698,-0.00024977382,8.4398394e-05,0.00073311414,0.0069881757,0.005815752,-0.049478997,5002,5002,0,3
326845368,326844246,2162698,2162698,-0.00029772852,0.00029122064,-0.0011307232,0.005452338,0.0066667874,-0.040452186,4984,4984,0,3
327345555,327344515,2162698,2162698,0.002661257,-0.00022494652,0.004148401,0.006619166,0.012469244,-0.020081474,5006,5006,0,3
327845830,327844789,2162698,2162698,0.0012426438,-0.0003005601,-0.0010611772,0.004224817,-0.004301099,0.008899405,5008,5008,0,3
328346113,328345042,2162698,2162698,-0.0017838952,6.594982e-05,0.0025823198,0.0056596794,0.012223899,-0.055609122,5003,5003,0,3
328846328,328845307,2162698,2162698,0.0007486682,-0.00019833977,8.3636e-05,0.004652397,0.011017542,-0.06659696,5002,5002,0,3
329346700,329345668,2162698,2162698,-0.0034040671,0.0014259621,0.00062341685,0.0017310942,-0.00161132,-0.095007144,5066,5066,0,3
329846886,329845838,2162698,2162698,-0.0034854962,0.0014002047,-0.0015597857,0.00090145576,0.0039077653,-0.0814513,5002,5002,0,3
330347174,330346104,2162698,2162698,0.00086181954,0.00073319767,-0.001223914,-0.00022981512,0.006054361,-0.07160357,4989,4989,0,3
330847429,330846398,2162698,2162698,0.0052612666,-0.00022251123,-0.0018364625,-0.001044858,0.00018782515,-0.06196003,5003,5003,0,3
331347687,331346635,2162698,2162698,-0.0016261755,-0.00040489322,0.0015613802,-0.000994256,-0.0054449537,-0.042297393,4974,4974,0,3
331847929,331846900,2162698,2162698,0.0029637583,-6.15688e-05,-0.0026967796,0.0023670048,0.004618495,-0.027444128,5003,5003,0,3
332348208,332347183,2162698,2162698,0.0051152688,0.00031880656,0.00027485334,-0.000398801,-0.0089746695,-0.03919404,5015,5015,0,3
332843475,332842429,2162698,2162698,0.00023943768,0.00036677477,0.0019494534,-0.00040336617,0.0062598176,-0.05334196,5003,5003,0,3
333343789,333342694,2162698,2162698,-0.0020443161,0.0009013302,-7.135261e-05,0.0017447737,0.0024053676,-0.057628047,4982,4982,0,3
333843989,333842960,2162698,2162698,-0.0039563673,0.00078287243,0.00034960356,0.00166922,0.008812805,-0.056974113,4998,4998,0,3
334344266,334343224,2162698,2162698,-0.005274002,0.0011331516,-0.0011008173,0.0065216124,0.006004223,-0.03792666,5002,5002,0,3
334849521,334848493,2162698,2162698,-0.0010102823,0.001320077,-0.0012874482,0.0056451713,0.0042907246,-0.03642771,5003,5003,0,3
335344768,335343756,2162698,2162698,0.0017395348,0.0013048535,-0.0024959377,0.0046903216,0.005049736,-0.05819571,5003,5003,0,3
335845186,335844032,2162698,2162698,0.005378574,-0.00016225524,-0.0015085444,0.0065804403,0.001579515,-0.048918944,5014,5014,0,3
336345308,336344288,2162698,2162698,0.004371855,0.00014370515,-0.0014487004,0.0057483567,0.002597932,-0.050437026,5008,5008,0,3
336845583,336844552,2162698,2162698,0.0020251742,0.00019433106,0.0002820012,0.0047383457,0.0053053144,-0.043094303,5003,5003,0,3
337345850,337344817,2162698,2162698,0.001980366,0.00087888486,0.00015008733,0.005706709,0.0078026545,-0.0697365,5003,5003,0,3
337846110,337845082,2162698,2162698,-0.00085913035,0.0005770316,0.0013922029,0.0027094414,-0.0043415227,-0.06732568,4971,4971,0,3
338346395,338345348,2162698,2162698,-0.00027923097,0.0010605733,4.8279526e-05,0.008153634,0.003981107,-0.068399966,5003,5003,0,3
338846718,338845613,2162698,2162698,2.0181307e-05,0.00030336142,0.0017275723,0.006059903,0.003122906,-0.057706315,5003,5003,0,3
339346904,339345878,2162698,2162698,0.0025010705,9.802782e-05,0.0008465119,0.007281709,0.003075421,-0.038432065,5002,5002,0,3
339847208,339846176,2162698,2162698,0.0016449108,-0.001051141,0.0011403547,0.009392508,-0.0036612062,-0.0281682,5035,5035,0,3
340347453,340346409,2162698,2162698,0.00043964898,-0.0001342494,0.001122945,0.007964794,0.01079289,-0.044118963,5003,5003,0,3
340847691,340846674,2162698,2162698,-0.00010697331,6.145104e-05,0.0016902733,0.008307807,0.0030345211,-0.04540401,5003,5003,0,3
341347957,341346940,2162698,2162698,0.0013734415,0.0001726396,0.0019360869,0.0053100195,0.007399417,-0.036932893,5003,5003,0,3
341848235,341847205,2162698,2162698,0.0036874665,0.00060200895,0.0020464163,0.0072575086,-0.0037285704,-0.058090873,5002,5002,0,3
342348505,342347470,2162698,2162698,0.0012903746,0.00040650964,0.002347517,0.0057295924,-0.006708911,-0.059605163,4995,4995,0,3
342848758,342847736,2162698,2162698,0.00095491094,0.0026349586,0.0010530539,0.0027696607,0.00510255,-0.05761286,5003,5003,0,3
343344099,343342998,2162698,2162698,-0.0021973758,0.0015738632,0.0031616178,0.0038405145,-0.0084518725,-0.058508843,5002,5002,0,3
343844298,343843263,2162698,2162698,-0.00041785958,0.0018416166,8.7379325e-05,0.0027908508,0.0069078677,-0.089556575,5002,5002,0,3
344344670,344343529,2162698,2162698,-0.0021470585,0.0012434303,0.0022073346,0.00118608,0.007532212,-0.046953626,4968,4968,0,3
344844823,344843794,2162698,2162698,0.004379459,0.00058479805,0.0025487428,0.0011479968,0.0022711128,-0.04001717,5003,5003,0,3
345345080,345344059,2162698,2162698,0.0020136063,0.0017060565,0.002732902,0.0024487097,0.0027857507,-0.04849368,5003,5003,0,3
345845357,345844321,2162698,2162698,-0.00046801165,0.0023117983,0.0023518405,-0.004072839,0.007486758,-0.06016145,4999,4999,0,3
346345623,346344589,2162698,2162698,-0.0021389085,0.0032279529,0.002713631,-0.006483741,0.0076305405,-0.069958694,5002,5002,0,3
346846048,346844855,2162698,2162698,-0.0027948366,0.00194549,0.001666724,-0.010236854,0.0030049996,-0.08425391,5003,5003,0,3
347346136,347345120,2162698,2162698,-0.0026952508,0.0015845012,0.0015674112,-0.009518766,0.0004985449,-0.05818401,5003,5003,0,3
347846426,347845387,2162698,2162698,-0.002500452,0.0010057737,9.5824e-06,-0.012013063,0.00718309,-0.06108948,4996,4996,0,3
348346676,348345650,2162698,2162698,-0.0017010568,-0.0014798914,-0.0001250476,-0.012469004,0.006481713,-0.045943208,5003,5003,0,3
348846971,348845915,2162698,2162698,0.003989528,-0.0013570094,-0.0010985589,-0.009782544,0.008161222,-0.03590621,4995,4995,0,3
349347204,349346181,2162698,2162698,0.002338711,-0.00037794307,0.0008860744,-0.015639672,-0.0017334269,-0.043378837,4992,4992,0,3
349847520,349846445,2162698,2162698,0.0014694073,-0.00013051803,-0.0003218979,-0.016407706,0.0027291647,-0.05026736,4992,4992,0,3
350342732,350341708,2162698,2162698,0.00016576042,0.0006083771,0.0010799204,-0.01709552,0.0010950329,-0.055161674,5003,5003,0,3
350848078,350846975,2162698,2162698,-0.00030818314,3.2558524e-05,0.00034604175,-0.012773532,0.001305657,-0.07937865,5003,5003,0,3
351348391,351347240,2162698,2162698,-0.002169199,0.0013967833,0.0013558478,-0.015428121,-0.00023679597,-0.059146788,5003,5003,0,3
351848547,351847505,2162698,2162698,-0.0014732198,0.0013645418,7.117709e-05,-0.018618995,0.008859884,-0.00974833,5002,5002,0,3
352348837,352347773,2162698,2162698,-0.0006321787,0.0008615356,0.00457872,-0.015421464,-0.0023251951,-0.055513326,5006,5006,0,3
352849103,352848035,2162698,2162698,0.0007406641,-0.00017634974,-0.0011005902,-0.013838074,-0.0040464024,-0.07595703,5003,5003,0,3
353349321,353348300,2162698,2162698,0.001987868,0.000114594106,1.8296392e-05,-0.011362076,-0.0006662708,-0.05377726,4997,4997,0,3
353844611,353843562,2162698,2162698,0.002158118,-0.0008169346,-0.0023160474,-0.008803484,0.010426965,-0.049154148,5003,5003,0,3
354344893,354343827,2162698,2162698,-0.0032252707,-0.0010208092,0.0038386304,-0.007952442,-0.008877023,-0.03166953,5003,5003,0,3
354845119,354844092,2162698,2162698,0.0006128039,-0.00039201163,0.00045967792,-0.007930101,0.004406234,-0.01202751,5003,5003,0,3
355345429,355344357,2162698,2162698,-6.2382765e-05,-0.0013911466,0.0022269306,0.007715807,0.021527268,-0.026060805,5003,5003,0,3
355845712,355844622,2162698,2162698,0.0005245832,0.00014491098,-0.0020522377,-0.008230867,-0.0025845156,-0.035988074,5003,5003,0,3
356345899,356344887,2162698,2162698,0.0024119557,0.00089571637,0.0016293977,-0.01158344,0.002723308,-0.049549375,5003,5003,0,3
356846278,356845152,2162698,2162698,0.00278647,0.0011482295,-0.00090394245,-0.0129228085,0.006290077,-0.07514541,5003,5003,0,3
357351519,357350419,2162698,2162698,0.0006027178,0.0015679531,0.0027320741,-0.011428915,0.002503179,-0.069211885,4999,4999,0,3
357846703,357845681,2162698,2162698,-0.0027713496,0.00062123046,0.00047159198,-0.010837532,0.0031161858,-0.054852452,5002,5002,0,3
358346973,358345946,2162698,2162698,-0.0045017004,0.0008089359,-0.0029392436,-0.009144804,0.004491476,-0.043047033,5002,5002,0,3
358847268,358846211,2162698,2162698,0.0030787198,0.00011530605,-0.0010006549,-0.008262843,0.010962947,-0.06392293,5002,5002,0,3
359352552,359351482,2162698,2162698,0.0010614151,0.0005393291,0.0016913784,-0.012680742,-0.009615729,-0.055330537,5006,5006,0,3
359852781,359851743,2162698,2162698,-0.0022742744,-0.0001874877,-0.00092891796,-0.00919803,0.0025283457,-0.029249448,5002,5002,0,3
360348064,360347005,2162698,2162698,-0.0010959536,0.00010075089,-0.0011035854,-0.010966032,0.0012509548,-0.02771149,5002,5002,0,3
360843295,360842268,2162698,2162698,-0.00044781558,0.0015724491,-0.0039870427,-0.0056069903,0.0056449594,-0.07837978,5003,5003,0,3
361343566,361342540,2162698,2162698,0.006904394,0.00014720527,0.0007253952,-0.0102316355,0.0063786893,-0.04786227,4977,4977,0,3
361843856,361842799,2162698,2162698,-0.0017483116,0.0012129535,0.0021440557,-0.009018122,-0.003862654,-0.047585823,5004,5004,0,3
362344092,362343063,2162698,2162698,0.00059489557,0.00044447373,-0.0011802501,-0.0072754347,0.0025546057,-0.04776097,5003,5003,0,3
362849389,362848358,2162698,2162698,-0.0011808132,0.0005311996,0.0019149685,-0.0048805005,-0.0008899141,-0.056368716,5000,5000,0,3
363349720,363348595,2162698,2162698,-0.00549177,-0.000728589,-0.00017826079,-0.005984609,0.012426955,-0.023145553,5003,5003,0,3
363849879,363848859,2162698,2162698,-0.00041684989,-0.0014485138,0.0013123326,-0.01090455,0.004437173,-0.037688836,5002,5002,0,3
364345168,364344145,2162698,2162698,-0.00039113755,-0.0007067451,-0.0018723789,-0.012968025,-0.0061966926,-0.019244531,4994,4994,0,3
364845456,364844392,2162698,2162698,0.0038125375,0.0016764478,0.0010466834,-0.0047873114,-0.0072326665,-0.07441813,4994,4994,0,3
365345717,365344652,2162698,2162698,-0.0046590692,0.0007464713,0.0016300816,-0.005071698,0.0074897027,-0.04798021,5003,5003,0,3
365845953,365844923,2162698,2162698,0.006997991,-0.0060791313,-0.0072224806,0.006866725,-0.02099994,-0.0028780152,5005,5005,0,3
366346324,366345181,2162698,2162698,0.003428782,-0.00025735906,7.615871e-05,0.00026881648,0.0049506775,-0.0462485,5003,5003,0,3
366846494,366845446,2162698,2162698,-0.00983498,0.0049364925,0.03791713,0.018699909,0.02608101,-0.0123764565,5003,5003,0,3
367346740,367345712,2162698,2162698,0.0010979724,-0.0009589434,-0.0006759713,-0.0332667,-0.0438707,-0.08895407,5005,5005,0,3
367847117,367845977,2162698,2162698,-0.00032285164,-0.000866546,-0.001561539,-0.0018481159,-0.01906814,-0.040172342,5006,5006,0,3
368347268,368346237,2162698,2162698,-0.0011175286,-0.0002374051,-0.0015348741,-0.0057446286,-0.015645193,-0.04838234,5001,5001,0,3
368847554,368846498,2162698,2162698,-0.0023156472,0.0002983169,-0.0032643457,0.00010777647,0.0096017085,-0.056061056,4988,4988,0,3
369342789,369341762,2162698,2162698,0.0007483867,-0.00018268822,-0.0009227727,0.0022910254,-0.0018349284,-0.04973231,5003,5003,0,3
369843258,369842026,2162698,2162698,6.7938716e-05,1.8191744e-05,0.00036262447,-0.00015056776,-0.0022137982,-0.048983946,5003,5003,0,3
370343314,370342290,2162698,2162698,-5.122057e-05,-1.1659844e-05,8.946196e-06,0.0013253739,-0.002362358,-0.04935869,4999,4999,0,3
370848586,370847556,2162698,2162698,5.1787385e-05,-7.66119e-06,-1.5908756e-05,3.497189e-05,-0.0022205943,-0.048759922,5003,5003,0,3
371343847,371342816,2162698,2162698,-0.00011257129,8.213251e-06,3.427727e-05,0.0008387811,-0.0024506927,-0.049003493,5003,5003,0,3
371844112,371843082,2162698,2162698,6.2862615e-05,2.4746928e-06,2.82747e-05,4.914168e-05,-0.002004847,-0.048737064,4962,4962,0,3
372344386,372343344,2162698,2162698,-4.9156144e-05,-1.3909495e-06,-5.8570895e-05,0.0002360362,-0.001962819,-0.04927744,5003,5003,0,3
372849639,372848610,2162698,2162698,5.867613e-05,-1.7699616e-05,9.2654645e-06,-0.00018435347,-0.002103108,-0.04871733,5002,5002,0,3
373344899,373343871,2162698,2162698,1.3671468e-05,-1.0167043e-05,7.0892215e-06,0.00027105337,-0.0023442572,-0.048904736,5003,5003,0,3
373850163,373849137,2162698,2162698,9.851714e-06,-2.0096365e-06,1.3804922e-05,0.00025510846,-0.0022988548,-0.049029436,5002,5002,0,3
374350497,374349401,2162698,2162698,7.848391e-05,-8.279067e-05,-0.0001447161,1.6865599e-05,-0.00028025385,-0.049286745,4982,4982,0,3
374850760,374849664,2162698,2162698,0.0010983249,0.00026624269,0.0005681509,0.0024723553,-0.00071218406,-0.051383324,5002,5002,0,3
375345951,375344925,2162698,2162698,0.00010536126,0.0008637411,0.0022966496,0.003488671,0.00074058556,-0.04910834,5002,5002,0,3
375846209,375845189,2162698,2162698,-0.0014130019,0.00034726926,0.002411177,0.00630414,-0.0046039987,-0.04140319,5003,5003,0,3
376346480,376345452,2162698,2162698,-0.00080698635,0.00022540418,0.0015297211,-0.0011199183,-0.0030643593,-0.04865201,4948,4948,0,3
376846754,376845716,2162698,2162698,0.00017947787,-0.0004731967,-0.00032869942,0.0041476623,-0.0041229813,-0.049764182,4999,4999,0,3
377352011,377350982,2162698,2162698,-0.0007682818,-0.0007888464,-0.00036842245,0.0038683878,-6.9401496e-05,-0.0492885,5003,5003,0,3
377847278,377846243,2162698,2162698,0.00039337666,-0.00053547515,-0.00037325852,0.0030335882,-0.0018877621,-0.045149207,5002,5002,0,3
378347555,378346506,2162698,2162698,-0.00019053032,-0.0001466982,-4.7221624e-06,0.0017546687,-0.0025588796,-0.04838002,5002,5002,0,3
378847805,378846777,2162698,2162698,-0.00012740344,1.9996185e-05,-0.00015660356,0.0024408957,-0.0011156615,-0.050393295,5010,5010,0,3
379348057,379347033,2162698,2162698,-3.9848306e-05,-0.00013439007,-0.00013348594,0.00083733606,-0.0022789638,-0.048921257,5002,5002,0,3
379848329,379847299,2162698,2162698,3.7172827e-05,-9.819464e-06,8.215172e-05,0.00047139803,-0.002113511,-0.04812125,5005,5005,0,3
380348586,380347560,2162698,2162698,2.6226702e-05,1.04240335e-05,3.3545803e-05,-0.00070104824,-0.0024900301,-0.048364248,5003,5003,0,3
380848860,380847827,2162698,2162698,0.00014661388,-0.00012030108,0.00017595418,0.0011461847,-0.0022502707,-0.05003278,4998,4998,0,3
381349141,381348089,2162698,2162698,-9.599602e-05,1.3028575e-05,-0.00017526223,0.0007377853,-0.0022205173,-0.04858467,5004,5004,0,3
